timestamp,accel_x,accel_y,accel_z,gyro_x,gyro_y,gyro_z,mag_x,mag_y,mag_z,gps_lat,gps_lon,gps_alt,gps_accuracy,gps_speed,gps_course,pressure,altitude,roll,pitch,yaw
840298.765836,-9.4197582,0.15567489,-2.87941158,0.004234,0.000349,0.00366,-118.973694,97.375031,-196.081284,60.187659,24.830156,13.055676,21.838598,-1.0,-1.0,100.605576,-0.354069,-1.273929,-0.015529,-0.755842
840298.785822,-9.42035661,0.14849397,-2.84393862,0.002214,0.00098,0.002819,-118.83992,97.320145,-196.094894,60.187659,24.830156,13.055676,21.838598,-1.0,-1.0,100.605576,-0.354069,-1.273942,-0.015538,-0.755842
840298.805809,-9.39506643,0.14220576000000001,-2.87072973,0.004323,-0.001772,0.004707,-119.055237,97.317764,-196.509705,60.187659,24.830156,13.055676,21.838598,-1.0,-1.0,100.605576,-0.354069,-1.27392,-0.015538,-0.755831
840298.825795,-9.41901264,0.15282999000000003,-2.8542685500000005,0.005627,-2.3e-05,0.003981,-118.93721,97.471161,-196.554428,60.187659,24.830156,13.055676,21.838598,-1.0,-1.0,100.605576,-0.354069,-1.273931,-0.015536,-0.755844
840298.845782,-9.4109292,0.15942231,-2.8657953000000003,0.001641,-0.000844,0.003981,-118.816681,97.366287,-196.346817,60.187659,24.830156,13.055676,21.838598,-1.0,-1.0,100.605576,-0.354069,-1.273935,-0.01555,-0.755824
840298.865769,-9.379341,0.16031502,-2.87522271,0.002813,-0.00342,0.004099,-119.034485,97.215775,-195.99585,60.187659,24.830156,13.055676,21.838598,-1.0,-1.0,100.605576,-0.354069,-1.273925,-0.015564,-0.755834
840298.885755,-9.41047794,0.15866694,-2.8518651000000004,0.00491,-0.000641,0.003321,-118.913116,97.185715,-196.354904,60.187659,24.830156,13.055676,21.838598,-1.0,-1.0,100.605576,-0.354069,-1.273951,-0.015551,-0.755859
840298.905742,-9.414372510000002,0.14325543000000002,-2.86938576,0.001553,-4.2e-05,0.001332,-119.07399,97.280289,-195.641281,60.187659,24.830156,13.055676,21.838598,-1.0,-1.0,100.605576,-0.354069,-1.273961,-0.015561,-0.755838
840298.925728,-9.39146616,0.14100894,-2.87926443,0.002064,-0.000211,0.003965,-118.948349,97.008621,-196.041046,60.187659,24.830156,13.055676,21.838598,-1.0,-1.0,100.605576,-0.354069,-1.273966,-0.015556,-0.755859
840298.945715,-9.405092250000001,0.14220576000000001,-2.8660896,0.002206,0.00086,0.006118,-119.20546,97.050797,-195.772827,60.187659,24.830156,13.055676,21.838598,-1.0,-1.0,100.605576,-0.354069,-1.273977,-0.015558,-0.75589
840298.965701,-9.3992553,0.15986376000000002,-2.8544157,0.003469,0.000998,0.003428,-118.94754,97.235901,-196.143967,60.187659,24.830156,13.055676,21.838598,-1.0,-1.0,100.605576,-0.354069,-1.27397,-0.015575,-0.755884
840298.965701,-9.3992553,0.15986376000000002,-2.8544157,0.003469,0.000998,0.003428,-118.94754,97.235901,-196.143967,60.187659,24.830156,13.055676,21.838598,-1.0,-1.0,100.605576,-0.354069,-1.27397,-0.015575,-0.755884
840299.005675,-9.41272443,0.1414602,-2.84992272,0.004132,-7.8e-05,0.004931,-119.29628,97.046158,-196.167496,60.187659,24.830156,13.055676,21.838598,-1.0,-1.0,100.605576,-0.354069,-1.274001,-0.015578,-0.755907
840299.025661,-9.41587344,0.14669874000000002,-2.86414722,0.003806,-0.002114,0.004545,-119.219574,97.013107,-196.199387,60.187659,24.830156,13.055676,21.838598,-1.0,-1.0,100.605576,-0.354069,-1.274008,-0.015603,-0.755884
840299.045648,-9.401354640000001,0.14086179000000001,-2.8801571400000006,0.002931,-0.002367,0.00647,-119.193237,97.120209,-196.073471,60.187659,24.830156,13.055676,21.838598,-1.0,-1.0,100.605576,-0.354069,-1.274006,-0.015601,-0.75589
840299.045648,-9.401354640000001,0.14086179000000001,-2.8801571400000006,0.002931,-0.002367,0.00647,-119.193237,97.120209,-196.073471,60.187659,24.830156,13.055676,21.838598,-1.0,-1.0,100.605576,-0.354069,-1.274006,-0.015601,-0.75589
840299.105608,-9.40868271,0.13876245,-2.86279344,0.002823,-0.000232,0.004809,-119.227859,97.017609,-196.172623,60.187659,24.830156,13.055676,21.838598,-1.0,-1.0,100.605576,-0.354069,-1.274015,-0.015612,-0.755886
840299.105608,-9.40868271,0.13876245,-2.86279344,0.002823,-0.000232,0.004809,-119.227859,97.017609,-196.172623,60.187659,24.830156,13.055676,21.838598,-1.0,-1.0,100.605576,-0.354069,-1.274015,-0.015612,-0.755886
840299.145581,-9.418110120000001,0.15193728,-2.86339185,0.003912,7.4e-05,0.002206,-119.010681,96.923996,-196.084122,60.187659,24.830156,13.055676,21.838598,-1.0,-1.0,100.605576,-0.354069,-1.274018,-0.015613,-0.755874
840299.165567,-9.397460070000001,0.14564907000000002,-2.87641953,0.002733,0.001585,0.003515,-119.087997,97.079132,-195.852905,60.187659,24.830156,13.055676,21.838598,-1.0,-1.0,100.605576,-0.354069,-1.274023,-0.015597,-0.755887
840299.185554,-9.40000086,0.15043635,-2.8678848300000004,0.00247,0.001185,0.003617,-118.963516,96.903137,-196.107117,60.187659,24.830156,13.055676,21.838598,-1.0,-1.0,100.605576,-0.354069,-1.274014,-0.015583,-0.755889
840299.20554,-9.39177027,0.1474443,-2.86414722,0.004026,-0.002463,0.003728,-119.100647,97.012939,-195.925659,60.187659,24.830156,13.055676,21.838598,-1.0,-1.0,100.605576,-0.354069,-1.274014,-0.015579,-0.755904
840299.225527,-9.410036490000001,0.14669874000000002,-2.88225648,0.004146,-0.001184,0.004103,-119.241196,97.006805,-196.050598,60.187659,24.830156,13.055676,21.838598,-1.0,-1.0,100.605576,-0.354069,-1.274024,-0.015581,-0.755906
840299.245514,-9.402100200000001,0.14550192,-2.8689345,0.004146,-0.001184,0.004103,-119.241196,97.006805,-196.050598,60.187659,24.830156,13.055676,21.838598,-1.0,-1.0,100.605576,-0.354069,-1.274035,-0.015581,-0.755912
840299.2655,-9.41033079,0.14579622,-2.8666880100000003,0.00245,-0.000687,0.002613,-119.173889,96.807358,-195.649734,60.187659,24.830156,13.055676,21.838598,-1.0,-1.0,100.605576,-0.354069,-1.274033,-0.015575,-0.755911
840299.285487,-9.462726,0.18022932,-2.8433402100000005,0.004511,0.00397,0.003766,-118.973145,97.025558,-195.610336,60.187659,24.830156,13.055676,21.838598,-1.0,-1.0,100.605576,-0.354069,-1.274041,-0.015569,-0.755931
840299.305473,-9.350460360000001,0.16810416,-2.89498005,0.002186,0.001122,0.00294,-118.989899,96.952652,-195.891052,60.187659,24.830156,13.055676,21.838598,-1.0,-1.0,100.605576,-0.354069,-1.273997,-0.015554,-0.75591
840299.32546,-9.35673876,0.10552617,-2.88599409,0.004155,0.001888,0.006268,-119.060013,96.82515,-195.799194,60.187659,24.830156,13.055676,21.838598,-1.0,-1.0,100.605621,-0.359352,-1.273929,-0.015547,-0.755887
840299.345447,-9.397607220000001,0.05089428,-2.82387717,-0.006625,-0.002115,0.003612,-118.812485,96.794342,-195.693802,60.187659,24.830156,13.055676,21.838598,-1.0,-1.0,100.605621,-0.359352,-1.273935,-0.015575,-0.755866
840299.365433,-9.36601902,0.16061913,-2.87791065,-0.007687,-0.005571,0.001945,-118.813232,97.053131,-195.284805,60.187659,24.830156,13.055676,21.838598,-1.0,-1.0,100.605621,-0.359352,-1.273992,-0.015619,-0.755993
840299.38542,-9.521703720000001,0.20702043,-2.81954115,-0.002567,0.002255,0.000482,-118.519302,97.184372,-195.473862,60.187659,24.830156,13.055676,21.838598,-1.0,-1.0,100.605621,-0.359352,-1.274127,-0.015636,-0.756228
840299.405406,-9.433982700000001,0.17394111,-2.8306166400000006,-0.000402,0.006414,0.003007,-118.36058,97.129578,-195.811478,60.187659,24.830156,13.055676,21.838598,-1.0,-1.0,100.605621,-0.359352,-1.274166,-0.015642,-0.756415
840299.425393,-9.29117853,0.15268284000000001,-2.95680267,-0.004126,-0.007041,-0.000329,-118.363632,97.098358,-195.548569,60.187659,24.830156,13.055676,21.838598,-1.0,-1.0,100.605621,-0.359352,-1.274037,-0.015634,-0.756517
840299.445379,-9.4718493,0.18186759,-2.83346154,0.003656,0.001892,0.003987,-118.227005,97.202408,-195.311081,60.187659,24.830156,13.055676,21.838598,-1.0,-1.0,100.605621,-0.359352,-1.274108,-0.015611,-0.756672
840299.465366,-9.41152761,0.18995103,-2.8436345100000002,0.004658,0.001225,0.003755,-118.272858,97.19957,-195.594162,60.187659,24.830156,13.055676,21.838598,-1.0,-1.0,100.605621,-0.359352,-1.274116,-0.01561,-0.756709
840299.485353,-9.286538400000001,0.17917965,-2.97041895,0.005213,-0.007055,0.0023,-118.151825,97.033295,-195.730316,60.187659,24.830156,13.055676,21.838598,-1.0,-1.0,100.605621,-0.359352,-1.274029,-0.015618,-0.756688
840299.505339,-9.43847568,0.19114785,-2.84812749,0.005213,-0.007055,0.0023,-118.480148,97.124268,-195.765121,60.187659,24.830156,13.055676,21.838598,-1.0,-1.0,100.605621,-0.359352,-1.274133,-0.015574,-0.756687
840299.525326,-9.47514546,0.12349809,-2.79857718,0.0112,0.005441,0.008857,-118.428329,97.038834,-195.447189,60.187659,24.830156,13.055676,21.838598,-1.0,-1.0,100.605621,-0.359352,-1.274239,-0.015638,-0.756493
840299.545312,-9.36856962,0.07888221,-2.89093833,0.003125,-0.002608,0.002657,-118.702057,96.881042,-195.792191,60.187659,24.830156,13.055676,21.838598,-1.0,-1.0,100.605621,-0.359352,-1.27416,-0.01569,-0.756265
840299.565299,-9.47095659,0.16390548000000002,-2.8256724,0.007249,0.002987,0.006434,-118.47966,96.965042,-195.655579,60.187659,24.830156,13.055676,21.838598,-1.0,-1.0,100.605621,-0.359352,-1.27421,-0.015672,-0.756262
840299.585286,-9.397155960000001,0.15986376000000002,-2.87851887,0.004434,-0.001821,0.003231,-118.563705,97.014282,-195.742035,60.187659,24.830156,13.055676,21.838598,-1.0,-1.0,100.605621,-0.359352,-1.2742,-0.015651,-0.756226
840299.605272,-9.390426300000001,0.17109621000000003,-2.89692243,0.004691,-0.003898,0.002145,-118.734131,96.935516,-195.581024,60.187659,24.830156,13.055676,21.838598,-1.0,-1.0,100.605621,-0.359352,-1.27418,-0.015661,-0.756185
840299.625259,-9.4106349,0.14086179000000001,-2.87611542,0.015168,-0.004077,0.012718,-118.59314,97.26445,-195.719315,60.187659,24.830156,13.055676,21.838598,-1.0,-1.0,100.605621,-0.359352,-1.2742,-0.015594,-0.756195
840299.645245,-9.39655755,0.1300806,-2.79169056,0.003947,0.006977,0.003656,-118.664383,97.175735,-195.811859,60.187659,24.830156,13.055676,21.838598,-1.0,-1.0,100.605621,-0.359352,-1.274203,-0.015628,-0.756008
840299.685218,-9.317822490000001,0.09744273000000002,-2.9298546,-0.001286,-0.011935,0.011607,-118.414581,97.278427,-195.753601,60.187659,24.830156,13.055676,21.838598,-1.0,-1.0,100.605621,-0.359352,-1.274197,-0.01568,-0.75601
840299.685218,-9.317822490000001,0.09744273000000002,-2.9298546,-0.001286,-0.011935,0.011607,-118.414581,97.278427,-195.753601,60.187659,24.830156,13.055676,21.838598,-1.0,-1.0,100.605621,-0.359352,-1.274197,-0.01568,-0.75601
840299.705205,-9.50313339,0.29713509,-2.8210322700000003,-0.003117,0.001298,-0.002407,-118.217346,97.148483,-195.825668,60.187659,24.830156,13.055676,21.838598,-1.0,-1.0,100.605621,-0.359352,-1.274359,-0.015841,-0.756081
840299.725192,-9.51945723,0.34308513,-2.82641796,0.005573,0.003521,-0.003263,-118.3367,97.239166,-195.655197,60.187659,24.830156,13.055676,21.838598,-1.0,-1.0,100.605621,-0.359352,-1.274452,-0.015819,-0.756215
840299.745178,-9.2575008,0.13621185,-3.0350864700000004,0.026887,0.004192,0.014423,-118.758606,96.849152,-195.602036,60.187659,24.830156,13.055676,21.838598,-1.0,-1.0,100.605621,-0.359352,-1.274402,-0.015691,-0.756336
840299.785151,-9.57483468,0.39143862,-3.0918177,0.044757,-0.00312,0.004756,-119.129486,97.013367,-196.259445,60.187659,24.830156,13.055676,21.838598,-1.0,-1.0,100.605621,-0.359352,-1.274501,-0.015718,-0.755379
840299.805138,-9.433982700000001,0.50190903,-2.89827621,0.062853,-0.004873,0.028342,-119.547699,97.377335,-196.318558,60.187659,24.830156,13.055676,21.838598,-1.0,-1.0,100.605621,-0.359352,-1.27482,-0.015596,-0.754711
840299.825124,-9.41511807,0.44233290000000003,-2.9433335400000002,0.081034,-0.013093,0.033939,-120.786102,97.445312,-196.837479,60.187659,24.830156,13.055676,21.838598,-1.0,-1.0,100.605621,-0.359352,-1.275055,-0.015593,-0.75359
840299.845111,-9.23654664,0.24473988000000002,-2.96892783,0.085841,-0.032722,0.025858,-122.147156,97.926086,-196.677155,60.187659,24.830156,13.055676,21.838598,-1.0,-1.0,100.605621,-0.359352,-1.275169,-0.015682,-0.752021
840299.865098,-9.421857540000001,-0.09490194,-2.98134729,0.056226,-0.046067,0.020167,-122.887543,98.398117,-197.044891,60.187659,24.830156,13.055676,21.838598,-1.0,-1.0,100.605621,-0.359352,-1.275591,-0.015727,-0.750313
840299.885084,-9.43563078,-0.25521696000000005,-2.7677443500000005,0.028193,-0.055087,0.010114,-123.296646,98.856293,-197.201706,60.187659,24.830156,13.055676,21.838598,-1.0,-1.0,100.605621,-0.359352,-1.276398,-0.015677,-0.749018
840299.905071,-9.42784164,-0.182466,-2.71311246,0.018094,-0.051551,0.013345,-123.15921,98.960815,-197.450912,60.187659,24.830156,13.055676,21.838598,-1.0,-1.0,100.605621,-0.359352,-1.277361,-0.015682,-0.748329
840299.925057,-9.37006074,-0.03592422,-2.8369048500000003,-0.003456,-0.089597,0.009864,-123.156128,98.975174,-197.610397,60.187659,24.830156,13.055676,21.838598,-1.0,-1.0,100.605621,-0.359352,-1.278246,-0.015666,-0.747947
840299.945044,-9.234594450000001,-0.016461180000000002,-2.94557022,-0.048679,-0.145042,-0.014473,-122.698456,99.236145,-197.538422,60.187659,24.830156,13.055676,21.838598,-1.0,-1.0,100.605621,-0.359352,-1.279761,-0.015822,-0.747892
840299.965031,-9.27725814,-0.00434583,-2.88929025,-0.106101,-0.228753,-0.025796,-122.698456,99.236145,-197.538422,60.187659,24.830156,13.055676,21.838598,-1.0,-1.0,100.605621,-0.359352,-1.282279,-0.015796,-0.748688
840299.985017,-9.47050533,0.22063671,-2.8398969000000003,-0.126793,-0.230119,-0.011187,-122.251923,99.117371,-197.494659,60.187659,24.830156,13.055676,21.838598,-1.0,-1.0,100.605621,-0.359352,-1.286457,-0.015763,-0.750599
840300.005004,-9.231308100000001,0.46822149,-2.5415649900000004,-0.076506,-0.246188,0.004269,-122.200897,99.391708,-197.419235,60.187659,24.830156,13.055676,21.838598,-1.0,-1.0,100.605621,-0.359352,-1.291312,-0.016014,-0.753226
840300.02499,-9.433384290000001,0.16974243,-2.7412475400000003,-0.04465,-0.225767,0.005929,-122.163849,99.978714,-197.056824,60.187659,24.830156,13.055676,21.838598,-1.0,-1.0,100.605621,-0.359352,-1.295861,-0.016324,-0.75515
840300.044977,-9.47858877,0.17438256000000002,-2.7178997400000005,-0.013569,-0.206372,0.007314,-121.918015,100.644974,-197.0354,60.187659,24.830156,13.055676,21.838598,-1.0,-1.0,100.605621,-0.359352,-1.300412,-0.01665,-0.756168
840300.064963,-9.462274740000002,0.12169305,-2.53453122,0.00758,-0.210932,0.021747,-121.998764,100.74678,-196.264069,60.187659,24.830156,13.055676,21.838598,-1.0,-1.0,100.605621,-0.359352,-1.304772,-0.016847,-0.756793
840300.08495,-9.3503034,-0.018413370000000002,-2.7039793500000004,-0.015973,-0.247643,0.011505,-121.861267,100.813934,-196.101547,60.187659,24.830156,13.055676,21.838598,-1.0,-1.0,100.605621,-0.359352,-1.309073,-0.017193,-0.756672
840300.104937,-9.16095078,0.01437165,-2.86594245,-0.038234,-0.358236,0.015088,-121.426987,100.806015,-195.629929,60.187659,24.830156,13.055676,21.838598,-1.0,-1.0,100.605621,-0.359352,-1.313765,-0.017466,-0.75691
840300.124923,-9.10197306,0.0928026,-3.0178699200000003,-0.058846,-0.48432,0.012031,-121.109924,100.661819,-195.522049,60.187659,24.830156,13.055676,21.838598,-1.0,-1.0,100.605621,-0.359352,-1.320177,-0.017831,-0.757525
840300.14491,-9.0582597,0.22737618,-3.0078441000000002,-0.065302,-0.637844,0.017226,-120.568176,101.332733,-195.067169,60.187659,24.830156,13.055676,21.838598,-1.0,-1.0,100.605621,-0.359352,-1.329033,-0.018263,-0.758605
840300.164896,-9.08191161,0.33755229000000003,-2.9325523500000004,-0.055047,-0.760169,0.028131,-120.551758,101.471451,-194.448944,60.187659,24.830156,13.055676,21.838598,-1.0,-1.0,100.605621,-0.359352,-1.340797,-0.018837,-0.75986
840300.184883,-9.131314770000001,0.35057015999999996,-2.8086128100000005,-0.016005,-0.863836,0.048901,-121.169449,101.635376,-194.024338,60.187659,24.830156,13.055676,21.838598,-1.0,-1.0,100.605621,-0.359352,-1.355228,-0.01954,-0.760984
840300.20487,-9.134758080000001,0.25416729000000005,-2.6289819000000003,0.014325,-0.973562,0.061779,-121.725815,101.902618,-193.158539,60.187659,24.830156,13.055676,21.838598,-1.0,-1.0,100.605621,-0.359352,-1.371854,-0.020434,-0.761411
840300.224856,-9.266035500000001,0.16974243,-2.18560914,0.038866,-1.043073,0.073279,-122.473709,102.160233,-192.122437,60.187659,24.830156,13.055676,21.838598,-1.0,-1.0,100.605621,-0.359352,-1.39063,-0.021468,-0.761177
840300.244843,-9.56615283,0.19414971,-1.62501669,0.068281,-1.03926,0.08123,-122.912827,102.356049,-191.001938,60.187659,24.830156,13.055676,21.838598,-1.0,-1.0,100.605621,-0.359352,-1.411137,-0.022677,-0.760431
840300.264829,-9.57872925,0.20357712,-1.3506408,0.08716,-1.04888,0.091894,-123.283112,102.515106,-190.331238,60.187659,24.830156,13.055676,21.838598,-1.0,-1.0,100.605621,-0.359352,-1.431961,-0.023977,-0.759143
840300.284816,-9.39835278,0.08412075,-1.32863697,0.07284,-1.101709,0.093488,-123.327835,102.620667,-189.204285,60.187659,24.830156,13.055676,21.838598,-1.0,-1.0,100.605621,-0.359352,-1.452765,-0.025478,-0.757346
840300.304802,-9.453141630000001,0.1474443,-0.88510725,0.043448,-1.161585,0.090147,-123.107361,103.111404,-188.500153,60.187659,24.830156,13.055676,21.838598,-1.0,-1.0,100.605621,-0.359352,-1.474341,-0.027082,-0.755654
840300.324789,-9.53546715,0.21495672000000002,-0.58394025,0.011071,-1.214999,0.095095,-122.784241,103.361984,-187.198074,60.187659,24.830156,13.055676,21.838598,-1.0,-1.0,100.605621,-0.359352,-1.497185,-0.028753,-0.754501
840300.324789,-9.53546715,0.21495672000000002,-0.58394025,0.011071,-1.214999,0.095095,-122.784241,103.361984,-187.198074,60.187659,24.830156,13.055676,21.838598,-1.0,-1.0,100.605621,-0.359352,-1.497185,-0.028753,-0.754501
840300.344776,-9.63261558,0.43274853,-0.5373819900000001,0.003636,-1.263248,0.093304,-122.914078,103.53186,-185.515945,60.187659,24.830156,13.055676,21.838598,-1.0,-1.0,100.605621,-0.359352,-1.521079,-0.030485,-0.754015
840300.384749,-8.28436842,0.6225524100000001,2.13366519,0.020969,-0.545657,0.133512,-125.120148,103.062698,-183.952698,60.187659,24.830156,13.055676,21.838598,-1.0,-1.0,100.605621,-0.359352,-1.569341,-0.029967,-0.755067
840300.404735,-8.040825360000001,0.69500907,2.86474563,0.101915,-0.419607,0.127344,-128.300186,103.088745,-183.769791,60.187659,24.830156,13.055676,21.838598,-1.0,-1.0,100.605621,-0.359352,-1.5881,-0.03025,-0.756666
840300.424722,-9.53172954,1.30049208,2.03501583,0.200422,-0.253691,0.035788,-122.05423,104.936966,-181.827499,60.187659,24.830156,13.055676,21.838598,-1.0,-1.0,100.605621,-0.359352,-1.598346,-0.033258,-0.755324
840300.464695,-9.64115028,0.89019864,0.47586348000000006,0.373637,-0.048232,-0.016064,-126.959427,102.963364,-183.588455,60.187659,24.830156,13.055676,21.838598,-1.0,-1.0,100.605621,-0.359352,-1.606287,-0.034521,-0.745718
840300.484682,-9.74698056,0.39996351,0.50444982,0.356756,-0.017326,-0.013762,-123.569977,106.558258,-180.685928,60.187659,24.830156,13.055676,21.838598,-1.0,-1.0,100.605621,-0.359352,-1.607556,-0.034408,-0.738279
840300.504668,-9.71913978,0.33904341000000005,0.28829628,0.330938,0.002085,0.004969,-130.212784,105.379395,-182.578491,60.187659,24.830156,13.055676,21.838598,-1.0,-1.0,100.605621,-0.359352,-1.607518,-0.034296,-0.731051
840300.524655,-9.88948062,0.33200964,0.20926692000000002,0.288511,-0.031644,0.011799,-122.952576,105.644714,-181.582733,60.187659,24.830156,13.055676,21.838598,-1.0,-1.0,100.605621,-0.359352,-1.607192,-0.034357,-0.72429
840300.544641,-9.922864050000001,0.53678358,0.21075804,0.256982,-0.117445,0.005515,-132.00061,107.453537,-183.178894,60.187659,24.830156,13.055676,21.838598,-1.0,-1.0,100.605621,-0.359352,-1.607379,-0.034707,-0.718383
840300.564628,-9.971511840000002,0.38964339,0.20821725000000002,0.222481,-0.17522,0.006342,-124.949783,103.036545,-182.853668,60.187659,24.830156,13.055676,21.838598,-1.0,-1.0,100.605621,-0.359352,-1.60906,-0.034911,-0.713184
840300.584615,-9.92690577,0.11960352,0.36015453000000003,0.202724,-0.267068,0.014974,-126.75322,108.344238,-181.552795,60.187659,24.830156,13.055676,21.838598,-1.0,-1.0,100.605621,-0.359352,-1.61219,-0.035156,-0.708683
840300.604601,-9.866878380000001,-0.19833858000000001,0.58902183,0.174938,-0.396981,0.008921,-130.895889,105.800903,-183.555237,60.187659,24.830156,13.055676,21.838598,-1.0,-1.0,100.605621,-0.359352,-1.617003,-0.03545,-0.704645
840300.624588,-10.02450546,-0.8542744200000001,1.62262305,0.005554,-0.530001,0.013179,-128.106018,103.066467,-183.531387,60.187659,24.830156,13.055676,21.838598,-1.0,-1.0,100.605621,-0.359352,-1.624245,-0.036036,-0.701146
840300.644574,-9.74728467,-0.5375291400000001,1.01713023,-0.069643,-0.581249,0.017713,-128.337982,103.226593,-183.387421,60.187659,24.830156,13.055676,21.838598,-1.0,-1.0,100.605621,-0.359352,-1.634098,-0.036365,-0.699919
840300.664561,-9.639649350000001,-0.79364862,1.0121958,-0.138517,-0.623088,0.048956,-129.443161,103.681488,-182.367767,60.187659,24.830156,13.055676,21.838598,-1.0,-1.0,100.605621,-0.359352,-1.646081,-0.036563,-0.701102
840300.684548,-9.61196553,-0.4716648,0.92222829,-0.186011,-0.738485,0.056339,-129.443161,103.681488,-182.367767,60.187659,24.830156,13.055676,21.838598,-1.0,-1.0,100.605621,-0.359352,-1.658724,-0.037213,-0.703718
840300.704534,-9.817485030000002,-0.22976981999999999,0.6780868200000001,-0.18634,-0.830829,0.03922,-131.35347,105.66095,-181.244232,60.187659,24.830156,13.055676,21.838598,-1.0,-1.0,100.605621,-0.359352,-1.672856,-0.037802,-0.707227
840300.724521,-9.84622833,-0.0047872800000000005,0.8102667600000001,-0.142788,-0.856739,0.01941,-130.780304,108.423477,-178.786987,60.187659,24.830156,13.055676,21.838598,-1.0,-1.0,100.605621,-0.359352,-1.688985,-0.03827,-0.711124
840300.744507,-9.680517810000001,-0.019306080000000003,0.8855585100000001,-0.104668,-0.908635,0.026013,-126.59169,108.112427,-176.964508,60.187659,24.830156,13.055676,21.838598,-1.0,-1.0,100.605621,-0.359352,-1.706,-0.038239,-0.714301
840300.764494,-9.73336428,0.13127742,0.7562234700000001,-0.069717,-1.006927,0.022671,-124.371994,104.460205,-176.705719,60.187659,24.830156,13.055676,21.838598,-1.0,-1.0,100.605621,-0.359352,-1.723856,-0.038288,-0.716665
840300.78448,-9.596397060000001,0.31374342,1.1859799500000001,-0.033296,-1.076629,0.011362,-131.296005,103.644791,-177.235321,60.187659,24.830156,13.055676,21.838598,-1.0,-1.0,100.605621,-0.359352,-1.743446,-0.038451,-0.718383
840300.804467,-9.56346489,0.33081282000000006,1.75734378,0.011996,-1.125737,0.006257,-133.240601,107.700684,-175.180389,60.187659,24.830156,13.055676,21.838598,-1.0,-1.0,100.605621,-0.359352,-1.764597,-0.038446,-0.71935
840300.824454,-9.39102471,0.13172868000000001,1.6328058300000001,0.023085,-1.178791,0.016896,-125.321426,107.600235,-173.034164,60.187659,24.830156,13.055676,21.838598,-1.0,-1.0,100.605621,-0.359352,-1.786817,-0.038501,-0.71946
840300.84444,-9.437426010000001,0.13591755,1.93517946,0.024862,-1.229289,0.006297,-127.577942,103.879074,-173.906082,60.187659,24.830156,13.055676,21.838598,-1.0,-1.0,100.605621,-0.359352,-1.810082,-0.038756,-0.719097
840300.864427,-9.34731135,0.39697146000000005,2.33559423,0.031206,-1.236036,-0.005944,-132.314102,106.455063,-171.264175,60.187659,24.830156,13.055676,21.838598,-1.0,-1.0,100.605621,-0.359352,-1.83437,-0.039013,-0.718769
840300.884413,-9.8159841,0.30012714,2.49141627,0.055899,-1.128775,0.038524,-126.163559,107.143066,-168.394455,60.187659,24.830156,13.055676,21.838598,-1.0,-1.0,100.605621,-0.359352,-1.859026,-0.039063,-0.718227
840300.9044,-9.05586606,0.03128409,2.60547714,0.102696,-1.059048,0.029906,-127.341217,102.304153,-169.946381,60.187659,24.830156,13.055676,21.838598,-1.0,-1.0,100.605621,-0.359352,-1.882091,-0.039547,-0.717379
840300.9044,-9.05586606,0.03128409,2.60547714,0.102696,-1.059048,0.029906,-127.341217,102.304153,-169.946381,60.187659,24.830156,13.055676,21.838598,-1.0,-1.0,100.605621,-0.359352,-1.882091,-0.039547,-0.717379
840300.9044,-9.05586606,0.03128409,2.60547714,0.102696,-1.059048,0.029906,-127.341217,102.304153,-169.946381,60.187659,24.830156,13.055676,21.838598,-1.0,-1.0,100.605621,-0.359352,-1.882091,-0.039547,-0.717379
840300.944373,-9.11739438,0.29563416000000003,5.34867687,-0.060665,-0.733409,-0.024277,-130.767166,108.051041,-166.895691,60.187659,24.830156,13.055676,21.838598,-1.0,-1.0,100.605621,-0.359352,-1.921074,-0.040331,-0.714504
840300.984346,-10.201438620000001,0.0056898,3.39897861,-0.084911,-0.72198,0.005889,-126.717545,103.221329,-165.514725,60.187659,24.830156,13.055676,21.838598,-1.0,-1.0,100.605621,-0.359352,-1.954504,-0.040758,-0.715786
840301.004333,-8.518032810000001,0.43858548,4.28424282,-0.131307,-0.788598,0.085438,-133.201889,103.287796,-166.195969,60.187659,24.830156,13.055676,21.838598,-1.0,-1.0,100.605621,-0.359352,-1.969137,-0.040725,-0.717064
840301.024319,-7.77737781,0.27198225000000004,4.24667052,-0.186933,-0.917049,0.124734,-133.109024,106.538971,-163.98407,60.187659,24.830156,13.055676,21.838598,-1.0,-1.0,100.605621,-0.359352,-1.98597,-0.041273,-0.72044
840301.044306,-9.63426366,0.36958194,4.21343424,-0.159661,-0.802178,0.082328,-128.153183,107.187103,-162.137497,60.187659,24.830156,13.055676,21.838598,-1.0,-1.0,100.605621,-0.359352,-2.003896,-0.041614,-0.724667
840301.084279,-8.71502742,0.47196891,4.20266286,-0.062704,-0.815725,0.060857,-131.123184,103.362579,-162.385849,60.187659,24.830156,13.055676,21.838598,-1.0,-1.0,100.605621,-0.359352,-2.038916,-0.042026,-0.73239
840301.084279,-8.71502742,0.47196891,4.20266286,-0.062704,-0.815725,0.060857,-131.123184,103.362579,-162.385849,60.187659,24.830156,13.055676,21.838598,-1.0,-1.0,100.605621,-0.359352,-2.038916,-0.042026,-0.73239
840301.124252,-8.47597734,0.07484049000000001,4.500386550000001,0.041156,-0.713793,-0.00619,-128.591858,108.04686,-157.461868,60.187659,24.830156,13.055676,21.838598,-1.0,-1.0,100.605621,-0.359352,-2.071083,-0.042231,-0.735159
840301.144239,-8.629405740000001,0.04355640000000001,4.66430184,0.083873,-0.620575,-0.016803,-126.712509,103.565323,-157.483719,60.187659,24.830156,13.055676,21.838598,-1.0,-1.0,100.605621,-0.359352,-2.085643,-0.042393,-0.734628
840301.164225,-8.27030088,-0.12693159,4.73540472,0.12766,-0.591556,0.016085,-134.064774,103.971466,-158.265121,60.187659,24.830156,13.055676,21.838598,-1.0,-1.0,100.605621,-0.359352,-2.098521,-0.042728,-0.73327
840301.184212,-9.98154747,0.95261967,5.55015465,0.136072,-0.443115,-0.038983,-131.694458,107.764191,-156.213043,60.187659,24.830156,13.055676,21.838598,-1.0,-1.0,100.605621,-0.359352,-2.110156,-0.043616,-0.731461
840301.204199,-7.0477983,1.8904164300000001,5.273983530000001,0.16374,-0.458661,0.034481,-126.489441,106.888702,-154.936249,60.187659,24.830156,13.055676,21.838598,-1.0,-1.0,100.605621,-0.359352,-2.119219,-0.045193,-0.729086
840301.224185,-8.11567566,1.00815408,5.74894449,0.139754,-0.537935,-0.041997,-127.667053,103.508987,-155.515213,60.187659,24.830156,13.055676,21.838598,-1.0,-1.0,100.605621,-0.359352,-2.128414,-0.046941,-0.726617
840301.224185,-8.11567566,1.00815408,5.74894449,0.139754,-0.537935,-0.041997,-127.667053,103.508987,-155.515213,60.187659,24.830156,13.055676,21.838598,-1.0,-1.0,100.605621,-0.359352,-2.128414,-0.046941,-0.726617
840301.224185,-8.11567566,1.00815408,5.74894449,0.139754,-0.537935,-0.041997,-127.667053,103.508987,-155.515213,60.187659,24.830156,13.055676,21.838598,-1.0,-1.0,100.605621,-0.359352,-2.128414,-0.046941,-0.726617
840301.244172,-7.919583570000001,1.19930193,5.92901685,0.138175,-0.646708,-0.025098,-131.356216,103.08667,-155.860046,60.187659,24.830156,13.055676,21.838598,-1.0,-1.0,100.605621,-0.359352,-2.137989,-0.047862,-0.723667
840301.304132,-7.82528004,0.6740451,5.391634860000001,0.032784,-0.678691,0.03531,-130.477737,105.807083,-151.310822,60.187659,24.830156,13.055676,21.838598,-1.0,-1.0,100.605621,-0.359352,-2.175057,-0.051584,-0.718188
840301.324118,-7.84593009,0.72569475,5.7232030499999995,0.016023,-0.726411,0.055039,-128.566071,105.457001,-150.415771,60.187659,24.830156,13.055676,21.838598,-1.0,-1.0,100.605621,-0.359352,-2.188528,-0.052409,-0.717811
840301.344105,-7.781713830000001,0.39173292000000004,5.77753083,-0.02368,-0.773067,0.060304,-126.897583,104.413742,-149.398407,60.187659,24.830156,13.055676,21.838598,-1.0,-1.0,100.605621,-0.359352,-2.202662,-0.05345,-0.718042
840301.364091,-7.7742288,0.46044216,5.8844107800000005,-0.043008,-0.792385,0.069644,-125.877274,102.904663,-148.631836,60.187659,24.830156,13.055676,21.838598,-1.0,-1.0,100.605621,-0.359352,-2.217746,-0.054096,-0.718886
840301.384078,-7.707775860000001,0.42930522000000004,5.9405436,-0.053312,-0.767222,0.082889,-125.560928,101.051422,-149.098404,60.187659,24.830156,13.055676,21.838598,-1.0,-1.0,100.605621,-0.359352,-2.233493,-0.054629,-0.720268
840301.404064,-7.7646542400000005,0.35850645000000003,6.09068565,-0.054164,-0.755222,0.017081,-125.560928,101.051422,-149.098404,60.187659,24.830156,13.055676,21.838598,-1.0,-1.0,100.605621,-0.359352,-2.249221,-0.055156,-0.722016
840301.424051,-7.33011048,0.52510968,5.42786319,-0.005818,-0.90577,0.08971,-126.079208,99.58522,-147.445694,60.187659,24.830156,13.055676,21.838598,-1.0,-1.0,100.605621,-0.359352,-2.265318,-0.05508,-0.724
840301.444038,-7.7710896,0.35939916000000005,6.38706537,0.041417,-0.804211,0.02128,-127.888519,98.829391,-147.310822,60.187659,24.830156,13.055676,21.838598,-1.0,-1.0,100.605621,-0.359352,-2.282267,-0.055633,-0.724944
840301.464024,-7.040009160000001,0.42990363000000004,6.362520750000001,0.058736,-0.851395,-0.001256,-129.781464,99.396805,-146.623352,60.187659,24.830156,13.055676,21.838598,-1.0,-1.0,100.605255,-0.327644,-2.298423,-0.057086,-0.725174
840301.484011,-6.987466800000001,0.59366196,6.32270196,0.116783,-0.777889,0.054221,-131.084579,101.015594,-145.82811,60.187659,24.830156,13.055676,21.838598,-1.0,-1.0,100.605255,-0.327644,-2.315225,-0.057542,-0.724032
840301.503997,-7.50195225,0.30446316,6.14277675,0.171248,-0.716174,-0.058143,-129.893799,102.706238,-144.215408,60.187659,24.830156,13.055676,21.838598,-1.0,-1.0,100.605255,-0.327644,-2.330754,-0.059766,-0.723181
840301.523984,-6.69766959,0.58737375,6.665492790000001,0.206656,-0.650609,0.03165,-127.261414,103.371338,-142.573593,60.187659,24.830156,13.055676,21.838598,-1.0,-1.0,100.605255,-0.327644,-2.345554,-0.061388,-0.720529
840301.543971,-6.4991838600000005,0.10896948000000001,7.134312690000001,0.181662,-0.679371,0.010538,-123.82663,102.396942,-141.600998,60.187659,24.830156,13.055676,21.838598,-1.0,-1.0,100.605255,-0.327644,-2.359561,-0.063943,-0.717954
840301.563957,-6.9907629600000005,0.16495515000000002,7.22981304,0.168356,-0.640762,0.020901,-123.45105,100.427414,-141.103165,60.187659,24.830156,13.055676,21.838598,-1.0,-1.0,100.605255,-0.327644,-2.373266,-0.066774,-0.71558
840301.583944,-6.66025425,0.20851155000000002,7.28729964,0.169306,-0.634933,0.043644,-127.900375,99.49295,-142.342438,60.187659,24.830156,13.055676,21.838598,-1.0,-1.0,100.605255,-0.327644,-2.386488,-0.069254,-0.713499
840301.60393,-6.080659830000001,0.5924651400000001,8.11747089,0.166277,-0.771185,0.018851,-130.462845,101.416245,-141.700623,60.187659,24.830156,13.055676,21.838598,-1.0,-1.0,100.605255,-0.327644,-2.399171,-0.071897,-0.711731
840301.60393,-6.080659830000001,0.5924651400000001,8.11747089,0.166277,-0.771185,0.018851,-130.462845,101.416245,-141.700623,60.187659,24.830156,13.055676,21.838598,-1.0,-1.0,100.605255,-0.327644,-2.399171,-0.071897,-0.711731
840301.643903,-5.8101687,1.87440651,5.85642285,0.324915,-0.764856,0.237829,-128.845261,102.696091,-139.426758,60.187659,24.830156,13.055676,21.838598,-1.0,-1.0,100.605255,-0.327644,-2.428438,-0.080029,-0.70885
840301.66389,-5.848339410000001,2.15088174,7.8661386900000005,0.266698,-0.873909,0.289236,-128.805267,102.509888,-139.525513,60.187659,24.830156,13.055676,21.838598,-1.0,-1.0,100.605255,-0.327644,-2.443849,-0.087288,-0.708939
840301.683877,-7.122187530000001,1.5081109200000002,6.671025630000001,0.364013,-0.857324,0.17917,-128.230301,102.284317,-139.224747,60.187659,24.830156,13.055676,21.838598,-1.0,-1.0,100.605255,-0.327644,-2.46102,-0.095067,-0.709461
840301.703863,-6.33722076,0.9381008700000001,8.16911073,0.25678,-1.008211,0.077243,-127.304153,102.349319,-138.301041,60.187659,24.830156,13.055676,21.838598,-1.0,-1.0,100.605255,-0.327644,-2.477732,-0.10299,-0.708677
840301.72385,-6.09472737,0.8186445,7.36513218,0.25909,-1.026546,0.071385,-126.848007,102.988022,-137.544983,60.187659,24.830156,13.055676,21.838598,-1.0,-1.0,100.605255,-0.327644,-2.496648,-0.108708,-0.706653
840301.743836,-4.95259812,0.51477975,8.48375667,0.134854,-1.179663,0.138717,-126.793503,103.827637,-136.478073,60.187659,24.830156,13.055676,21.838598,-1.0,-1.0,100.605255,-0.327644,-2.51662,-0.113675,-0.704749
840301.783809,-5.160521070000001,1.16757639,8.45801523,-0.038266,-1.366678,0.205751,-125.422119,104.551956,-134.095871,60.187659,24.830156,13.055676,21.838598,-1.0,-1.0,100.605255,-0.327644,-2.564258,-0.120724,-0.706594
840301.803796,-4.72402512,1.3503465000000001,7.80536574,-0.043931,-1.413984,0.225537,-124.720215,105.130005,-132.553421,60.187659,24.830156,13.055676,21.838598,-1.0,-1.0,100.605255,-0.327644,-2.591238,-0.122642,-0.710116
840301.823783,-4.59678942,1.28747421,8.25877413,-0.042655,-1.486383,0.229086,-123.664612,105.663147,-131.105331,60.187659,24.830156,13.055676,21.838598,-1.0,-1.0,100.605255,-0.327644,-2.619866,-0.123819,-0.714395
840301.843769,-4.37824224,1.29645036,8.113429170000002,0.00036,-1.524117,0.220176,-122.863235,105.959656,-129.938904,60.187659,24.830156,13.055676,21.838598,-1.0,-1.0,100.605255,-0.327644,-2.64958,-0.125195,-0.718822
840301.863756,-4.06165392,1.38447549,8.31595662,0.040487,-1.540027,0.210401,-121.752106,106.19725,-128.211121,60.187659,24.830156,13.055676,21.838598,-1.0,-1.0,100.605255,-0.327644,-2.680305,-0.126926,-0.722883
840301.883742,-3.77275923,1.5386494500000003,8.7747507,0.069429,-1.554184,0.174155,-120.613495,106.762955,-126.770035,60.187659,24.830156,13.055676,21.838598,-1.0,-1.0,100.605255,-0.327644,-2.711622,-0.129008,-0.726493
840301.903729,-3.51604134,1.21232961,9.09434088,0.066431,-1.603939,0.118085,-119.548569,107.21608,-125.084473,60.187659,24.830156,13.055676,21.838598,-1.0,-1.0,100.605255,-0.327644,-2.742976,-0.131574,-0.729412
840301.923716,-3.0710106900000005,1.14212925,9.314830440000001,0.024929,-1.619817,0.111623,-118.126495,107.914337,-123.280411,60.187659,24.830156,13.055676,21.838598,-1.0,-1.0,100.605255,-0.327644,-2.774745,-0.133698,-0.731378
840301.943702,-2.8003724100000005,1.2976471800000002,9.281751120000001,0.009081,-1.59144,0.119108,-116.156662,108.368668,-122.009399,60.187659,24.830156,13.055676,21.838598,-1.0,-1.0,100.605255,-0.327644,-2.80696,-0.135201,-0.733134
840301.963689,-2.80771029,1.3448038500000001,9.647732790000001,-0.012555,-1.538411,0.105922,-114.337646,109.015656,-120.656052,60.187659,24.830156,13.055676,21.838598,-1.0,-1.0,100.605255,-0.327644,-2.839098,-0.136058,-0.735208
840301.983675,-2.9166895800000003,1.4693418,9.76898439,-0.02298,-1.447116,0.068178,-112.325516,109.154083,-118.745316,60.187659,24.830156,13.055676,21.838598,-1.0,-1.0,100.605255,-0.327644,-2.870597,-0.136401,-0.737327
840302.003662,-2.70142875,1.4533318800000001,9.93693159,-0.040843,-1.3385,0.045969,-109.880249,108.932999,-117.611008,60.187659,24.830156,13.055676,21.838598,-1.0,-1.0,100.605255,-0.327644,-2.900489,-0.136273,-0.73892
840302.023648,-1.97843175,1.30049208,9.950410530000001,-0.062643,-1.280836,0.031117,-108.255997,107.851318,-116.930313,60.187659,24.830156,13.055676,21.838598,-1.0,-1.0,100.605255,-0.327644,-2.928089,-0.135712,-0.740003
840302.043635,-1.35333855,1.3540841099999998,9.97270866,-0.084827,-1.251566,0.034331,-107.315445,107.117081,-117.058472,60.187659,24.830156,13.055676,21.838598,-1.0,-1.0,100.605255,-0.327644,-2.954199,-0.134572,-0.740802
840302.063622,-1.1455725600000002,1.5497249400000002,9.76733631,-0.1098,-1.115227,-0.011204,-106.671707,106.608047,-117.303467,60.187659,24.830156,13.055676,21.838598,-1.0,-1.0,100.605255,-0.327644,-2.979423,-0.132936,-0.741605
840302.083608,-5.09405832,-1.7754530400000001,20.692664640000004,-1.280966,-1.258443,-0.459949,-110.004578,106.955414,-116.361343,60.187659,24.830156,13.055676,21.838598,-1.0,-1.0,100.605255,-0.327644,-3.00246,-0.130998,-0.742112
840302.103595,3.9360663,2.6517312900000003,-6.048924480000001,0.042677,-0.063994,-0.03964,-108.385742,107.433823,-113.63942,60.187659,24.830156,13.055676,21.838598,-1.0,-1.0,100.605255,-0.327644,-3.019654,-0.115711,-0.737244
840302.123581,-1.6567520400000002,1.32280002,21.22257141,-0.796166,-1.027799,-0.158565,-108.385742,107.433823,-113.63942,60.187659,24.830156,13.055676,21.838598,-1.0,-1.0,100.605255,-0.327644,-3.038503,-0.10049,-0.734853
840302.143568,0.5653699200000001,1.8738081000000002,4.86338598,-0.34177,-0.507222,-0.031659,-105.363449,106.142487,-111.378998,60.187659,24.830156,13.055676,21.838598,-1.0,-1.0,100.605255,-0.327644,-3.056722,-0.089359,-0.733052
840302.163554,-0.34772526,1.0139910300000001,9.680517810000001,-0.294212,-0.427645,-0.041435,-103.490784,104.948334,-110.580124,60.187659,24.830156,13.055676,21.838598,-1.0,-1.0,100.605255,-0.327644,-3.068147,-0.081668,-0.732374
840302.183541,0.17782587000000002,1.30947804,8.857831590000002,-0.200673,-0.315968,0.049004,-102.500183,103.85849,-109.761688,60.187659,24.830156,13.055676,21.838598,-1.0,-1.0,100.605255,-0.327644,-3.078993,-0.074988,-0.731888
840302.203528,-0.22543380000000002,1.0418318100000001,10.601549280000002,-0.211787,-0.341008,0.102962,-102.402985,104.017914,-109.54245,60.187659,24.830156,13.055676,21.838598,-1.0,-1.0,100.605255,-0.327644,-3.087657,-0.069794,-0.732478
840302.223514,-0.42272271,0.8481333600000001,10.553205600000002,-0.230966,-0.383444,0.131637,-103.277908,104.542664,-109.520279,60.187659,24.830156,13.055676,21.838598,-1.0,-1.0,100.605255,-0.327644,-3.095822,-0.06504,-0.734224
840302.243501,-0.37841094,0.7985928600000001,9.22337181,-0.217965,-0.368407,0.133995,-104.822632,104.637756,-109.337387,60.187659,24.830156,13.055676,21.838598,-1.0,-1.0,100.605255,-0.327644,-3.102987,-0.060899,-0.736841
840302.263487,-0.30565998000000005,0.70039476,9.84008727,-0.262301,-0.422488,0.127614,-106.072968,104.074875,-109.976456,60.187659,24.830156,13.055676,21.838598,-1.0,-1.0,100.605255,-0.327644,-3.110302,-0.056552,-0.739684
840302.283474,-0.17094906,0.72404667,9.48712347,-0.269208,-0.447928,0.153173,-106.088943,102.651016,-110.24379,60.187659,24.830156,13.055676,21.838598,-1.0,-1.0,100.605255,-0.327644,-3.118728,-0.051642,-0.742264
840302.303461,-0.64591002,0.49516956,9.67782006,-0.276369,-0.462347,0.142044,-104.6577,100.529465,-110.946747,60.187659,24.830156,13.055676,21.838598,-1.0,-1.0,100.605255,-0.327644,-3.12795,-0.04627,-0.745149
840302.323447,-0.57076542,0.28305774,9.91762551,-0.286339,-0.481541,0.114418,-102.718399,99.398041,-110.790543,60.187659,24.830156,13.055676,21.838598,-1.0,-1.0,100.605255,-0.327644,-3.137605,-0.040605,-0.748015
840302.343434,-0.30536568000000003,0.17678601,9.668843910000001,-0.265129,-0.504828,0.099255,-100.711502,98.781906,-110.255615,60.187659,24.830156,13.055676,21.838598,-1.0,-1.0,100.605255,-0.327644,3.135647,-0.034786,-0.750461
840302.36342,-1.5135064200000001,1.7188787700000001,12.49377075,-0.069677,-0.284193,0.232252,-98.45314,99.141022,-109.654724,60.187659,24.830156,13.055676,21.838598,-1.0,-1.0,100.605255,-0.327644,3.12589,-0.029538,-0.752573
840302.383407,-0.2775249,-0.2977335,11.48217336,-0.098594,-0.423518,0.07544,-97.871674,101.895691,-107.512436,60.187659,24.830156,13.055676,21.838598,-1.0,-1.0,100.605255,-0.327644,3.125412,-0.029584,-0.756531
840302.42338,0.04460607,0.28546119000000003,7.70313573,0.01639,0.130417,0.30139,-103.703476,101.095123,-107.68396,60.187659,24.830156,13.055676,21.838598,-1.0,-1.0,100.605255,-0.327644,3.127078,-0.029976,-0.763949
840302.443367,-0.13172868000000001,0.16031502,9.69862707,0.037655,0.056945,0.256019,-102.906281,99.560303,-108.190735,60.187659,24.830156,13.055676,21.838598,-1.0,-1.0,100.605255,-0.327644,3.127154,-0.029994,-0.770096
840302.443367,-0.13172868000000001,0.16031502,9.69862707,0.037655,0.056945,0.256019,-102.906281,99.560303,-108.190735,60.187659,24.830156,13.055676,21.838598,-1.0,-1.0,100.605255,-0.327644,3.127154,-0.029994,-0.770096
840302.48334,0.43140456000000005,-0.20582361000000002,10.221647220000001,0.016366,0.013629,0.136309,-97.984467,99.817322,-108.002243,60.187659,24.830156,13.055676,21.838598,-1.0,-1.0,100.605255,-0.327644,3.126332,-0.030018,-0.779647
840302.503326,0.56163231,-0.12379239,9.96717582,0.011061,-0.017696,0.071829,-96.288971,100.562164,-108.054047,60.187659,24.830156,13.055676,21.838598,-1.0,-1.0,100.605255,-0.327644,3.1261,-0.030263,-0.782638
840302.503326,0.56163231,-0.12379239,9.96717582,0.011061,-0.017696,0.071829,-96.288971,100.562164,-108.054047,60.187659,24.830156,13.055676,21.838598,-1.0,-1.0,100.605255,-0.327644,3.1261,-0.030263,-0.782638
840302.5433,0.02470158,0.24369021,9.70312005,0.007537,0.002504,0.002339,-95.680603,101.139099,-107.877441,60.187659,24.830156,13.055676,21.838598,-1.0,-1.0,100.605255,-0.327644,3.125829,-0.030515,-0.784935
840302.563286,-0.13771278,0.22438413000000001,9.898466580000001,-0.001701,-0.006374,0.006295,-95.464462,101.497101,-107.867172,60.187659,24.830156,13.055676,21.838598,-1.0,-1.0,100.605255,-0.327644,3.125677,-0.030647,-0.784962
840302.583273,0.08996751000000001,0.19264878,9.67363119,0.005083,-0.00239,0.009118,-95.756287,101.215958,-107.883118,60.187659,24.830156,13.055676,21.838598,-1.0,-1.0,100.605255,-0.327644,3.125507,-0.03064,-0.784949
840302.603259,0.12649014,0.036826740000000004,9.749227050000002,0.003657,0.009403,0.007188,-95.906982,101.085907,-107.793945,60.187659,24.830156,13.055676,21.838598,-1.0,-1.0,100.605255,-0.327644,3.125374,-0.030628,-0.785068
840302.623246,0.17842428,0.10912644,9.764795520000002,0.007535,0.001979,0.008413,-96.507584,100.657776,-107.69986,60.187659,24.830156,13.055676,21.838598,-1.0,-1.0,100.605255,-0.327644,3.125212,-0.03058,-0.785134
840302.643232,0.07724394000000001,0.23620518,9.79069392,0.007409,0.004428,0.004262,-97.118484,100.459564,-107.864685,60.187659,24.830156,13.055676,21.838598,-1.0,-1.0,100.605255,-0.327644,3.12512,-0.030602,-0.785233
840302.663219,0.07454619,0.32662395,9.83365191,0.001369,0.004674,-0.001764,-97.864731,100.154068,-107.999039,60.187659,24.830156,13.055676,21.838598,-1.0,-1.0,100.605255,-0.327644,3.125042,-0.030591,-0.785255
840302.683206,0.10269108,0.46358136,9.799670070000001,0.002366,0.005942,-0.003492,-98.832169,99.75148,-108.194839,60.187659,24.830156,13.055676,21.838598,-1.0,-1.0,100.605255,-0.327644,3.12493,-0.030573,-0.785182
840302.703192,0.06720831000000001,0.4543011,9.82661814,0.000422,0.003407,-0.002849,-99.642563,99.399429,-108.570251,60.187659,24.830156,13.055676,21.838598,-1.0,-1.0,100.605255,-0.327644,3.124931,-0.030545,-0.785089
840302.723179,0.11989782,0.39263544,9.7465293,0.001446,0.005617,-0.000972,-100.186661,99.443909,-108.223267,60.187659,24.830156,13.055676,21.838598,-1.0,-1.0,100.605255,-0.327644,3.124933,-0.030502,-0.78498
840302.743165,0.12274272000000001,0.34353639,9.73006812,0.000449,0.010213,0.001644,-100.505508,99.390594,-108.618866,60.187659,24.830156,13.055676,21.838598,-1.0,-1.0,100.605255,-0.327644,3.124969,-0.030493,-0.784898
840302.763152,0.15522363,0.25896438000000005,9.81449298,-0.001909,0.004339,0.000171,-100.835144,99.509491,-108.411148,60.187659,24.830156,13.055676,21.838598,-1.0,-1.0,100.605255,-0.327644,3.125015,-0.030439,-0.784825
840302.783139,0.0028449,0.45984375,9.62648433,0.001354,0.008154,-0.010326,-100.954361,99.534576,-108.399414,60.187659,24.830156,13.055676,21.838598,-1.0,-1.0,100.605255,-0.327644,3.124995,-0.030336,-0.784785
840302.803125,0.06107706,0.37931346,9.767934720000001,0.00506,0.005063,-0.011451,-101.438736,99.44989,-108.905426,60.187659,24.830156,13.055676,21.838598,-1.0,-1.0,100.605255,-0.327644,3.125055,-0.03029,-0.784519
840302.823112,0.18277011,0.32377905,9.796530870000002,0.003227,0.008105,-0.006601,-101.692535,99.47435,-108.957489,60.187659,24.830156,13.055676,21.838598,-1.0,-1.0,100.605255,-0.327644,3.125085,-0.030255,-0.784246
840302.843098,0.11855385,0.31883481,9.82886463,0.00351,0.006163,-0.00402,-101.692535,99.47435,-108.957489,60.187659,24.830156,13.055676,21.838598,-1.0,-1.0,100.605255,-0.327644,3.125091,-0.030243,-0.784022
840302.863085,0.13890960000000002,0.29967588,9.85086846,0.004629,0.008194,0.001973,-102.119568,99.240433,-108.722351,60.187659,24.830156,13.055676,21.838598,-1.0,-1.0,100.605255,-0.327644,3.125126,-0.030221,-0.783854
840302.883071,0.14325543000000002,0.32646699000000007,9.81329616,0.002865,0.005585,0.005887,-101.802597,99.49025,-108.89827,60.187659,24.830156,13.055676,21.838598,-1.0,-1.0,100.605255,-0.327644,3.125139,-0.030212,-0.783788
840302.883071,0.14325543000000002,0.32646699000000007,9.81329616,0.002865,0.005585,0.005887,-101.802597,99.49025,-108.89827,60.187659,24.830156,13.055676,21.838598,-1.0,-1.0,100.605255,-0.327644,3.125139,-0.030212,-0.783788
840302.923045,0.11601306,0.31210515000000005,9.79038981,0.004261,0.002169,0.001087,-102.068878,99.512222,-108.64418,60.187659,24.830156,13.055676,21.838598,-1.0,-1.0,100.605255,-0.327644,3.125141,-0.03019,-0.783767
840302.943031,0.10373094000000001,0.32572143000000003,9.78290478,0.004776,0.005377,0.003794,-101.93866,99.553925,-108.990173,60.187659,24.830156,13.055676,21.838598,-1.0,-1.0,100.605255,-0.327644,3.125137,-0.030189,-0.78373
840302.963018,0.12544047,0.31763799,9.78156081,0.004145,0.002033,0.00175,-101.833481,99.822083,-108.785645,60.187659,24.830156,13.055676,21.838598,-1.0,-1.0,100.605255,-0.327644,3.125134,-0.030176,-0.783722
840302.983004,0.10193571,0.30132396,9.79593246,0.00469,0.003602,0.003838,-102.020447,99.908356,-108.741852,60.187659,24.830156,13.055676,21.838598,-1.0,-1.0,100.605255,-0.327644,3.125106,-0.030174,-0.783716
840303.002991,0.09924777,0.28979721,9.807302250000001,0.000802,0.005256,0.002138,-101.971588,99.601181,-108.870117,60.187659,24.830156,13.055676,21.838598,-1.0,-1.0,100.605255,-0.327644,3.125127,-0.030188,-0.783712
840303.022978,0.11511054,0.29338767,9.787093650000001,0.003062,0.004722,0.003319,-101.991821,99.691483,-108.935959,60.187659,24.830156,13.055676,21.838598,-1.0,-1.0,100.605255,-0.327644,3.125126,-0.030181,-0.783702
840303.042964,0.09550035000000001,0.3008727,9.79084107,0.003558,0.005131,0.004351,-102.047562,99.811508,-108.969086,60.187659,24.830156,13.055676,21.838598,-1.0,-1.0,100.605255,-0.327644,3.125124,-0.030176,-0.783686
840303.062951,0.10463346000000001,0.28800198,9.79024266,0.004481,0.00418,0.003745,-102.045639,99.892975,-108.703537,60.187659,24.830156,13.055676,21.838598,-1.0,-1.0,100.605255,-0.327644,3.125145,-0.030168,-0.783674
840303.082937,0.12109464000000002,0.30910329000000003,9.79398027,0.004139,0.004821,0.002614,-102.061432,99.728516,-108.627716,60.187659,24.830156,13.055676,21.838598,-1.0,-1.0,100.605255,-0.327644,3.125169,-0.030162,-0.783677
840303.12291,0.10403505,0.29653668000000005,9.796530870000002,0.002983,0.005934,0.003198,-101.825653,100.034454,-108.693054,60.187659,24.830156,13.055676,21.838598,-1.0,-1.0,100.605255,-0.327644,3.125222,-0.030139,-0.783668
840303.142897,0.11226564,0.29429019,9.796530870000002,0.003282,0.003312,0.004368,-102.030273,99.714386,-108.542297,60.187659,24.830156,13.055676,21.838598,-1.0,-1.0,100.605255,-0.327644,3.125241,-0.030123,-0.783675
840303.162884,0.10283823,0.31449879,9.7929306,0.004224,0.004467,0.00447,-101.899948,100.000153,-108.767334,60.187659,24.830156,13.055676,21.838598,-1.0,-1.0,100.605255,-0.327644,3.125271,-0.030104,-0.783674
840303.18287,0.12065319,0.30821058,9.8043102,0.003787,0.0044,0.005886,-101.883163,99.727448,-108.932907,60.187659,24.830156,13.055676,21.838598,-1.0,-1.0,100.605255,-0.327644,3.12529,-0.030105,-0.783676
840303.202857,0.10657584,0.31194819,9.79413723,0.002913,0.0048,0.00405,-102.136703,99.795944,-108.5159,60.187659,24.830156,13.055676,21.838598,-1.0,-1.0,100.605255,-0.327644,3.125314,-0.030107,-0.783674
840303.222843,0.11121597,0.30462012,9.78485697,0.002913,0.0048,0.00405,-102.099808,99.726913,-108.617447,60.187659,24.830156,13.055676,21.838598,-1.0,-1.0,100.605255,-0.327644,3.125329,-0.030101,-0.783685
840303.24283,0.11765133000000001,0.31854051,9.803711790000001,0.004296,0.005178,0.004623,-102.118225,99.843887,-108.635559,60.187659,24.830156,13.055676,21.838598,-1.0,-1.0,100.605255,-0.327644,3.125341,-0.030108,-0.783694
840303.262817,0.10269108,0.30506157,9.7897914,0.004296,0.005178,0.004623,-102.042831,99.597641,-108.834091,60.187659,24.830156,13.055676,21.838598,-1.0,-1.0,100.605255,-0.327644,3.125335,-0.030095,-0.783686
840303.282803,0.09504909,0.29952873,9.818377739999999,0.002116,0.002955,0.004818,-102.058151,99.773422,-108.903091,60.187659,24.830156,13.055676,21.838598,-1.0,-1.0,100.605255,-0.327644,3.125347,-0.030083,-0.783678
840303.30279,0.11346246,0.30446316,9.80222067,0.004432,0.004096,0.004191,-101.926712,99.73613,-108.709549,60.187659,24.830156,13.055676,21.838598,-1.0,-1.0,100.605255,-0.327644,3.125368,-0.030084,-0.783685
840303.322776,0.09849240000000001,0.29788065,9.784101600000001,0.005576,0.003553,0.002386,-102.085983,99.710037,-108.633209,60.187659,24.830156,13.055676,21.838598,-1.0,-1.0,100.605255,-0.327644,3.125365,-0.030097,-0.783683
840303.342763,0.10343664,0.29907747,9.83829204,0.004589,0.004485,0.00442,-101.958832,99.784271,-108.643021,60.187659,24.830156,13.055676,21.838598,-1.0,-1.0,100.605255,-0.327644,3.125363,-0.030104,-0.783683
840303.36275,0.11016630000000001,0.30446316,9.79488279,0.004417,0.002648,0.003586,-101.781219,99.801849,-108.488953,60.187659,24.830156,13.055676,21.838598,-1.0,-1.0,100.605255,-0.327644,3.125366,-0.030105,-0.783683
840303.382736,0.10762551000000001,0.30926025,9.807007950000001,0.002773,0.004852,0.004368,-101.900742,99.709869,-108.301743,60.187659,24.830156,13.055676,21.838598,-1.0,-1.0,100.605255,-0.327644,3.125373,-0.030105,-0.783691
840303.402723,0.08756406,0.30746502000000003,9.79892451,0.00206,0.002141,0.002529,-102.034409,99.738586,-108.432083,60.187659,24.830156,13.055676,21.838598,-1.0,-1.0,100.605255,-0.327644,3.125379,-0.03009,-0.783686
840303.422709,0.10777265999999999,0.30147111000000004,9.79009551,0.003645,0.005384,0.003324,-101.933655,99.752853,-108.576599,60.187659,24.830156,13.055676,21.838598,-1.0,-1.0,100.605255,-0.327644,3.125372,-0.030069,-0.783667
840303.442696,0.11960352,0.29668383,9.80026848,0.004308,0.002377,0.002648,-101.825882,99.946213,-108.643265,60.187659,24.830156,13.055676,21.838598,-1.0,-1.0,100.605255,-0.327644,3.125384,-0.030057,-0.783659
840303.462682,0.1158561,0.30326634,9.79189074,0.004042,0.00485,0.002972,-102.000977,99.844116,-108.389206,60.187659,24.830156,13.055676,21.838598,-1.0,-1.0,100.605255,-0.327644,3.125376,-0.030061,-0.783644
840303.482669,0.10568313,0.31344912,9.795334050000001,0.003953,0.003802,0.002509,-101.807526,99.628357,-108.595917,60.187659,24.830156,13.055676,21.838598,-1.0,-1.0,100.605255,-0.327644,3.125369,-0.030054,-0.783638
840303.502656,0.09145863,0.31344912,9.78515127,0.003478,0.004228,0.003497,-101.886688,99.796982,-108.562393,60.187659,24.830156,13.055676,21.838598,-1.0,-1.0,100.605255,-0.327644,3.125375,-0.030051,-0.783637
840303.522642,0.08831943,0.30266793,9.80222067,0.005015,0.003315,0.00321,-101.994766,100.00972,-108.602615,60.187659,24.830156,13.055676,21.838598,-1.0,-1.0,100.605255,-0.327644,3.125371,-0.030049,-0.783625
840303.542629,0.09909081000000002,0.31120263000000004,9.796530870000002,0.002004,0.004337,0.001752,-101.973358,99.964401,-108.567978,60.187659,24.830156,13.055676,21.838598,-1.0,-1.0,100.605255,-0.327644,3.125373,-0.030052,-0.783622
840303.562615,0.11929941000000001,0.30955455000000004,9.787250610000001,0.00302,0.003757,0.002997,-101.973358,99.964401,-108.567978,60.187659,24.830156,13.055676,21.838598,-1.0,-1.0,100.605255,-0.327644,3.125377,-0.030052,-0.783603
840303.582602,0.09370512,0.31629402,9.81,0.002793,0.003718,0.002579,-101.976669,99.874344,-108.543274,60.187659,24.830156,13.055676,21.838598,-1.0,-1.0,100.605255,-0.327644,3.125384,-0.03004,-0.783607
840303.602589,0.11001915,0.31614687,9.78934014,0.004939,0.004657,0.0039,-102.071381,99.89856,-108.329453,60.187659,24.830156,13.055676,21.838598,-1.0,-1.0,100.605255,-0.327644,3.125392,-0.030049,-0.78362
840303.622575,0.11645451,0.2977335,9.81509139,0.003403,0.006621,0.003829,-102.190186,99.923065,-108.382431,60.187659,24.830156,13.055676,21.838598,-1.0,-1.0,100.605469,-0.346142,3.12541,-0.030063,-0.783624
840303.642562,0.10298538000000002,0.31165389,9.808499070000002,0.003361,0.004242,0.004138,-102.089005,99.757568,-108.502426,60.187659,24.830156,13.055676,21.838598,-1.0,-1.0,100.605469,-0.346142,3.125434,-0.030048,-0.783632
840303.662548,0.1013373,0.31000581,9.802966230000001,0.004186,0.003873,0.004333,-102.137054,99.673035,-108.305191,60.187659,24.830156,13.055676,21.838598,-1.0,-1.0,100.605469,-0.346142,3.125438,-0.030055,-0.78363
840303.682535,0.09490194,0.30611124,9.82212516,0.004522,0.003784,0.004206,-102.092377,99.906754,-108.67247,60.187659,24.830156,13.055676,21.838598,-1.0,-1.0,100.605469,-0.346142,3.125454,-0.030061,-0.78363
840303.702522,0.12304683000000001,0.30012714,9.796226760000001,0.004207,0.002237,0.004574,-101.97168,99.727631,-108.456451,60.187659,24.830156,13.055676,21.838598,-1.0,-1.0,100.605469,-0.346142,3.125467,-0.030058,-0.783621
840303.722508,0.10987200000000001,0.3094074,9.83290635,0.003703,0.003219,0.003476,-102.12558,99.79892,-108.516571,60.187659,24.830156,13.055676,21.838598,-1.0,-1.0,100.605469,-0.346142,3.125477,-0.030048,-0.783628
840303.742495,0.10298538000000002,0.30132396,9.7954812,0.002785,0.000568,0.004455,-102.214447,99.729752,-108.542984,60.187659,24.830156,13.055676,21.838598,-1.0,-1.0,100.605469,-0.346142,3.125487,-0.030045,-0.783608
840303.762481,0.09609875999999999,0.29997999,9.796226760000001,0.003988,0.001884,0.004435,-102.229324,99.963715,-108.805206,60.187659,24.830156,13.055676,21.838598,-1.0,-1.0,100.605469,-0.346142,3.1255,-0.030041,-0.783607
840303.782468,0.11181438,0.29742939,9.807007950000001,0.002367,0.003124,0.003497,-102.167862,99.748459,-108.789017,60.187659,24.830156,13.055676,21.838598,-1.0,-1.0,100.605469,-0.346142,3.125502,-0.030035,-0.7836
840303.822441,0.10597743000000001,0.30476727000000003,9.80057259,0.003808,0.005961,0.004614,-102.192886,99.955261,-108.663864,60.187659,24.830156,13.055676,21.838598,-1.0,-1.0,100.605469,-0.346142,3.125518,-0.030039,-0.783603
840303.822441,0.10597743000000001,0.30476727000000003,9.80057259,0.003808,0.005961,0.004614,-102.192886,99.955261,-108.663864,60.187659,24.830156,13.055676,21.838598,-1.0,-1.0,100.605469,-0.346142,3.125518,-0.030039,-0.783603
840303.862414,0.10358379000000001,0.29997999,9.811795230000001,0.002927,0.002384,0.004308,-102.160828,99.922867,-108.517227,60.187659,24.830156,13.055676,21.838598,-1.0,-1.0,100.605469,-0.346142,3.125544,-0.030022,-0.783601
840303.862414,0.10358379000000001,0.29997999,9.811795230000001,0.002927,0.002384,0.004308,-102.160828,99.922867,-108.517227,60.187659,24.830156,13.055676,21.838598,-1.0,-1.0,100.605469,-0.346142,3.125544,-0.030022,-0.783601
840303.902387,0.11570895,0.29982303,9.80281908,0.004377,0.003077,0.004634,-102.13002,100.154556,-108.576401,60.187659,24.830156,13.055676,21.838598,-1.0,-1.0,100.605469,-0.346142,3.125572,-0.030013,-0.783581
840303.922374,0.11271690000000001,0.30446316,9.802966230000001,0.003294,0.002464,0.003981,-101.964355,99.699432,-108.729141,60.187659,24.830156,13.055676,21.838598,-1.0,-1.0,100.605469,-0.346142,3.1256,-0.030013,-0.783571
840303.942361,0.10178856,0.30101985000000003,9.80940159,0.004112,0.002173,0.00337,-102.439774,99.693588,-108.752335,60.187659,24.830156,13.055676,21.838598,-1.0,-1.0,100.605469,-0.346142,3.125607,-0.030008,-0.78356
840303.962347,0.11137293000000001,0.30252078000000004,9.787849020000001,0.003944,0.003148,0.004908,-102.045959,99.956726,-108.601791,60.187659,24.830156,13.055676,21.838598,-1.0,-1.0,100.605469,-0.346142,3.125629,-0.029992,-0.783551
840303.982334,0.10238697000000001,0.29967588,9.811500930000001,0.004759,0.005123,0.003914,-102.273041,99.779953,-108.869232,60.187659,24.830156,13.055676,21.838598,-1.0,-1.0,100.605469,-0.346142,3.125652,-0.029987,-0.783563
840304.00232,0.11570895,0.29637972,9.820477080000002,0.003775,0.005245,0.002723,-102.192017,99.737045,-108.772873,60.187659,24.830156,13.055676,21.838598,-1.0,-1.0,100.605469,-0.346142,3.125676,-0.029985,-0.78356
840304.022307,0.11286405000000001,0.3122523,9.808499070000002,0.003011,0.004334,0.003108,-102.117538,99.876266,-108.64447,60.187659,24.830156,13.055676,21.838598,-1.0,-1.0,100.605469,-0.346142,3.125711,-0.029981,-0.783546
840304.042294,0.12558762,0.29578131,9.8242245,0.004559,0.002502,0.004331,-102.03981,99.999435,-109.061325,60.187659,24.830156,13.055676,21.838598,-1.0,-1.0,100.605469,-0.346142,3.125736,-0.029987,-0.783531
840304.06228,0.11616021000000001,0.29967588,9.82197801,0.003993,0.0017,0.004451,-102.022003,99.869446,-108.867599,60.187659,24.830156,13.055676,21.838598,-1.0,-1.0,100.605469,-0.346142,3.125748,-0.029996,-0.783528
840304.082267,0.11480643,0.32093415000000003,9.80251497,0.00436,0.002452,0.003233,-101.984497,99.911667,-108.743729,60.187659,24.830156,13.055676,21.838598,-1.0,-1.0,100.605469,-0.346142,3.125768,-0.029991,-0.783516
840304.102253,0.10852803000000001,0.30357045,9.834995880000001,0.00351,0.002264,0.003464,-101.997787,99.757309,-108.848282,60.187659,24.830156,13.055676,21.838598,-1.0,-1.0,100.605469,-0.346142,3.125788,-0.03,-0.783504
840304.12224,0.10657584,0.31434183000000004,9.831258270000001,0.004181,0.000775,0.003618,-102.065369,99.85643,-108.564194,60.187659,24.830156,13.055676,21.838598,-1.0,-1.0,100.605469,-0.346142,3.125795,-0.029998,-0.783499
840304.142227,0.11780829000000001,0.30206952000000004,9.816582510000002,0.004594,0.003131,0.004602,-102.034393,99.781265,-108.749329,60.187659,24.830156,13.055676,21.838598,-1.0,-1.0,100.605469,-0.346142,3.125803,-0.029995,-0.783508
840304.162213,0.1041822,0.29697813,9.85250673,0.003445,0.00254,0.003198,-102.108612,99.685257,-108.566742,60.187659,24.830156,13.055676,21.838598,-1.0,-1.0,100.605469,-0.346142,3.125819,-0.029998,-0.783513
840304.1822,0.11256975000000001,0.31000581,9.807302250000001,0.004067,0.004035,0.005181,-102.197723,99.694443,-108.449631,60.187659,24.830156,13.055676,21.838598,-1.0,-1.0,100.605469,-0.346142,3.125835,-0.029995,-0.783514
840304.202186,0.10119015,0.29818476,9.820182780000001,0.003785,0.004001,0.002738,-102.36174,99.705612,-108.425247,60.187659,24.830156,13.055676,21.838598,-1.0,-1.0,100.605469,-0.346142,3.125862,-0.029991,-0.783504
840304.222173,0.10492776000000001,0.30386475,9.80236782,0.003972,0.003133,0.004158,-102.25351,99.577118,-108.326477,60.187659,24.830156,13.055676,21.838598,-1.0,-1.0,100.605469,-0.346142,3.125889,-0.030001,-0.783489
840304.222173,0.10492776000000001,0.30386475,9.80236782,0.003972,0.003133,0.004158,-102.25351,99.577118,-108.326477,60.187659,24.830156,13.055676,21.838598,-1.0,-1.0,100.605469,-0.346142,3.125889,-0.030001,-0.783489
840304.222173,0.10492776000000001,0.30386475,9.80236782,0.003972,0.003133,0.004158,-102.25351,99.577118,-108.326477,60.187659,24.830156,13.055676,21.838598,-1.0,-1.0,100.605469,-0.346142,3.125889,-0.030001,-0.783489
840304.222173,0.10492776000000001,0.30386475,9.80236782,0.003972,0.003133,0.004158,-102.25351,99.577118,-108.326477,60.187659,24.830156,13.055676,21.838598,-1.0,-1.0,100.605469,-0.346142,3.125889,-0.030001,-0.783489
840304.302119,0.10313253,0.30730806,9.80565417,0.003791,0.000851,0.004887,-102.023178,99.826401,-108.674103,60.187659,24.830156,13.055676,21.838598,-1.0,-1.0,100.605469,-0.346142,3.125982,-0.029984,-0.783497
840304.322106,0.11047041,0.29982303,9.79787484,0.004727,0.002029,0.002916,-102.066544,99.989868,-108.638596,60.187659,24.830156,13.055676,21.838598,-1.0,-1.0,100.605469,-0.346142,3.126016,-0.02999,-0.783491
840304.342092,0.10313253,0.30386475,9.803417490000001,0.002943,0.003194,0.004564,-102.070374,99.819595,-108.464722,60.187659,24.830156,13.055676,21.838598,-1.0,-1.0,100.605469,-0.346142,3.126043,-0.029986,-0.783488
840304.362079,0.10612458,0.31210515000000005,9.792783450000002,0.002939,0.002822,0.004651,-102.188736,99.969193,-108.312988,60.187659,24.830156,13.055676,21.838598,-1.0,-1.0,100.605469,-0.346142,3.126079,-0.029984,-0.783485
