timestamp,accel_x,accel_y,accel_z,gyro_x,gyro_y,gyro_z,mag_x,mag_y,mag_z,gps_lat,gps_lon,gps_alt,gps_accuracy,gps_speed,gps_course,pressure,altitude,roll,pitch,yaw
879745.229556,-0.08876088000000001,-0.14954364,-9.78934014,0.003561,4.3e-05,0.004448,-77.079605,96.819672,-209.362961,60.187683,24.830152,13.169112,9.283682,-1.0,-1.0,100.074387,0.161186,-0.008929,0.01507,0.312063
879745.269529,-0.08801532000000001,-0.1588239,-9.80820477,0.00172,-0.000979,0.004566,-76.981613,96.928192,-209.185135,60.187683,24.830152,13.169112,9.283682,-1.0,-1.0,100.074387,0.161186,-0.00893,0.015074,0.312051
879745.269529,-0.08801532000000001,-0.1588239,-9.80820477,0.00172,-0.000979,0.004566,-76.981613,96.928192,-209.185135,60.187683,24.830152,13.169112,9.283682,-1.0,-1.0,100.074387,0.161186,-0.00893,0.015074,0.312051
879745.309502,-0.09729558,-0.16136469,-9.81987867,0.003126,0.000186,0.004933,-77.093201,96.795044,-209.238968,60.187683,24.830152,13.169112,9.283682,-1.0,-1.0,100.074387,0.161186,-0.008942,0.01509,0.31206
879745.329489,-0.09475478999999999,-0.16046217000000002,-9.80626239,0.002524,0.000253,0.002773,-77.093903,96.573944,-209.01532,60.187683,24.830152,13.169112,9.283682,-1.0,-1.0,100.074387,0.161186,-0.008923,0.015091,0.312056
879745.349476,-0.0868185,-0.14983794,-9.825715620000002,0.003578,0.000333,0.004987,-77.190475,96.603104,-208.961304,60.187683,24.830152,13.169112,9.283682,-1.0,-1.0,100.074387,0.161186,-0.008918,0.015093,0.312056
879745.349476,-0.0868185,-0.14983794,-9.825715620000002,0.003578,0.000333,0.004987,-77.190475,96.603104,-208.961304,60.187683,24.830152,13.169112,9.283682,-1.0,-1.0,100.074387,0.161186,-0.008918,0.015093,0.312056
879745.389449,-0.09475478999999999,-0.16794720000000002,-9.80909748,0.004011,0.001052,0.003992,-76.98967,97.013245,-209.324646,60.187683,24.830152,13.169112,9.283682,-1.0,-1.0,100.074387,0.161186,-0.008887,0.015076,0.312052
879745.389449,-0.09475478999999999,-0.16794720000000002,-9.80909748,0.004011,0.001052,0.003992,-76.98967,97.013245,-209.324646,60.187683,24.830152,13.169112,9.283682,-1.0,-1.0,100.074387,0.161186,-0.008887,0.015076,0.312052
879745.409435,-0.10642868999999999,-0.14654178,-9.82332198,0.003856,-0.001078,0.004266,-76.977737,96.84639,-209.204559,60.187683,24.830152,13.169112,9.283682,-1.0,-1.0,100.074387,0.161186,-0.008862,0.015089,0.312043
879745.429422,-0.0953532,-0.15687171,-9.80206371,0.003335,0.000698,0.003161,-76.989212,96.726776,-209.115677,60.187683,24.830152,13.169112,9.283682,-1.0,-1.0,100.074387,0.161186,-0.00886,0.015096,0.312054
879745.469395,-0.0868185,-0.16046217000000002,-9.79712928,0.003846,-0.000323,0.00513,-77.270859,96.738388,-209.269226,60.187683,24.830152,13.169112,9.283682,-1.0,-1.0,100.074387,0.161186,-0.008873,0.015087,0.312047
879745.489382,-0.09504909,-0.14265702,-9.8159841,0.002247,-0.001181,0.004083,-76.778152,96.816055,-209.175003,60.187683,24.830152,13.169112,9.283682,-1.0,-1.0,100.074387,0.161186,-0.00888,0.015097,0.312039
879745.509369,-0.09864936,-0.15074046,-9.81868185,0.003434,0.000311,0.002258,-77.039429,96.71759,-209.218124,60.187683,24.830152,13.169112,9.283682,-1.0,-1.0,100.074387,0.161186,-0.00889,0.015098,0.312031
879745.529355,-0.0896634,-0.15313410000000002,-9.81868185,0.00419,-0.000426,0.003029,-77.082993,96.826874,-209.222183,60.187683,24.830152,13.169112,9.283682,-1.0,-1.0,100.074387,0.161186,-0.008886,0.015094,0.312021
879745.549342,-0.0953532,-0.14998509000000002,-9.82721655,0.002275,0.000316,0.003136,-76.714157,96.914429,-208.898788,60.187683,24.830152,13.169112,9.283682,-1.0,-1.0,100.074387,0.161186,-0.008873,0.015103,0.312015
879745.569329,-0.10269108,-0.13426947,-9.80909748,0.003999,0.000157,0.004252,-76.852356,96.969269,-208.934113,60.187683,24.830152,13.169112,9.283682,-1.0,-1.0,100.074387,0.161186,-0.008867,0.015106,0.311994
879745.589315,-0.10193571,-0.15717582000000002,-9.832602240000002,0.002754,0.001637,0.004079,-76.935226,96.821075,-208.980515,60.187683,24.830152,13.169112,9.283682,-1.0,-1.0,100.074387,0.161186,-0.00887,0.015118,0.312002
879745.609302,-0.09116433,-0.15148602000000003,-9.81868185,0.004156,-0.000553,0.006508,-77.127853,96.87442,-209.067398,60.187683,24.830152,13.169112,9.283682,-1.0,-1.0,100.074387,0.161186,-0.00887,0.015118,0.312
879745.629288,-0.09714843000000001,-0.14714019,-9.81239364,0.004434,-0.000602,0.005147,-76.983704,96.800613,-209.270645,60.187683,24.830152,13.169112,9.283682,-1.0,-1.0,100.074387,0.161186,-0.008871,0.015133,0.312012
879745.649275,-0.09205704,-0.15642045000000002,-9.81808344,0.002203,0.001052,0.004229,-77.017044,96.768692,-209.016083,60.187683,24.830152,13.169112,9.283682,-1.0,-1.0,100.074387,0.161186,-0.00886,0.015152,0.312015
879745.669262,-0.09310671,-0.1474443,-9.80581113,0.003108,0.000712,0.004578,-76.955612,96.994522,-208.919434,60.187683,24.830152,13.169112,9.283682,-1.0,-1.0,100.074387,0.161186,-0.008846,0.015134,0.312017
879745.689248,-0.10373094000000001,-0.15358536,-9.831101310000001,0.002786,0.000786,0.004222,-77.264084,96.738052,-209.250931,60.187683,24.830152,13.169112,9.283682,-1.0,-1.0,100.074387,0.161186,-0.008837,0.015133,0.312021
879745.709235,-0.08517042000000001,-0.14594337000000002,-9.80281908,0.003114,-0.000257,0.004641,-76.956665,96.866776,-209.251678,60.187683,24.830152,13.169112,9.283682,-1.0,-1.0,100.074387,0.161186,-0.008825,0.015134,0.312023
879745.709235,-0.08517042000000001,-0.14594337000000002,-9.80281908,0.003114,-0.000257,0.004641,-76.956665,96.866776,-209.251678,60.187683,24.830152,13.169112,9.283682,-1.0,-1.0,100.074387,0.161186,-0.008825,0.015134,0.312023
879745.729222,-0.09684432000000001,-0.13981212,-9.808803180000002,0.004153,-0.000708,0.005162,-76.879776,96.779037,-208.921265,60.187683,24.830152,13.169112,9.283682,-1.0,-1.0,100.074387,0.161186,-0.008831,0.015129,0.31201
879745.769195,-0.1038879,-0.13517199,-9.811343970000001,0.004499,-0.000902,0.003973,-77.300583,96.794769,-209.189514,60.187683,24.830152,13.169112,9.283682,-1.0,-1.0,100.074387,0.161186,-0.008831,0.015142,0.312036
879745.789181,-0.08203122,-0.15402681000000001,-9.82586277,0.002394,4.2e-05,0.004441,-77.090088,96.784698,-208.815384,60.187683,24.830152,13.169112,9.283682,-1.0,-1.0,100.074387,0.161186,-0.008834,0.015156,0.312035
879745.829155,-0.09430353000000001,-0.14025357000000002,-9.828109260000002,0.002776,0.000302,0.004183,-77.120575,97.010193,-208.804916,60.187683,24.830152,13.169112,9.283682,-1.0,-1.0,100.074387,0.161186,-0.008824,0.015163,0.312042
879745.829155,-0.09430353000000001,-0.14025357000000002,-9.828109260000002,0.002776,0.000302,0.004183,-77.120575,97.010193,-208.804916,60.187683,24.830152,13.169112,9.283682,-1.0,-1.0,100.074387,0.161186,-0.008824,0.015163,0.312042
879745.869128,-0.08188407,-0.15507648,-9.80760636,0.005159,3.6e-05,0.003837,-77.102768,96.941025,-208.911316,60.187683,24.830152,13.169112,9.283682,-1.0,-1.0,100.074387,0.161186,-0.008823,0.015164,0.312019
879745.869128,-0.08188407,-0.15507648,-9.80760636,0.005159,3.6e-05,0.003837,-77.102768,96.941025,-208.911316,60.187683,24.830152,13.169112,9.283682,-1.0,-1.0,100.074387,0.161186,-0.008823,0.015164,0.312019
879745.909101,-0.09595161,-0.15777423000000002,-9.81373761,0.003143,-0.00039,0.004356,-77.12793,96.756226,-209.111145,60.187683,24.830152,13.169112,9.283682,-1.0,-1.0,100.074387,0.161186,-0.00882,0.015202,0.312007
879745.909101,-0.09595161,-0.15777423000000002,-9.81373761,0.003143,-0.00039,0.004356,-77.12793,96.756226,-209.111145,60.187683,24.830152,13.169112,9.283682,-1.0,-1.0,100.074387,0.161186,-0.00882,0.015202,0.312007
879745.949074,-0.09550035000000001,-0.14969079000000002,-9.82272357,0.004059,0.000481,0.004417,-77.183456,96.655777,-209.230927,60.187683,24.830152,13.169112,9.283682,-1.0,-1.0,100.074387,0.161186,-0.008832,0.015201,0.312003
879745.949074,-0.09550035000000001,-0.14969079000000002,-9.82272357,0.004059,0.000481,0.004417,-77.183456,96.655777,-209.230927,60.187683,24.830152,13.169112,9.283682,-1.0,-1.0,100.074387,0.161186,-0.008832,0.015201,0.312003
879745.989048,-0.08786817,-0.15253569,-9.81987867,0.001645,-0.00194,0.004371,-77.124786,96.8004,-208.661423,60.187683,24.830152,13.169112,9.283682,-1.0,-1.0,100.074387,0.161186,-0.008806,0.015222,0.312004
879745.989048,-0.08786817,-0.15253569,-9.81987867,0.001645,-0.00194,0.004371,-77.124786,96.8004,-208.661423,60.187683,24.830152,13.169112,9.283682,-1.0,-1.0,100.074387,0.161186,-0.008806,0.015222,0.312004
879746.009034,-0.08397360000000001,-0.16151184,-9.8014653,0.003378,-0.000958,0.00522,-77.174469,96.651718,-209.08197,60.187683,24.830152,13.169112,9.283682,-1.0,-1.0,100.074387,0.161186,-0.00881,0.015219,0.312021
879746.009034,-0.08397360000000001,-0.16151184,-9.8014653,0.003378,-0.000958,0.00522,-77.174469,96.651718,-209.08197,60.187683,24.830152,13.169112,9.283682,-1.0,-1.0,100.074387,0.161186,-0.00881,0.015219,0.312021
879746.068994,-0.10193571,-0.14130324,-9.82556847,0.002047,-0.000615,0.00394,-77.175079,96.719315,-208.832947,60.187683,24.830152,13.169112,9.283682,-1.0,-1.0,100.074387,0.161186,-0.008789,0.015226,0.312004
879746.068994,-0.10193571,-0.14130324,-9.82556847,0.002047,-0.000615,0.00394,-77.175079,96.719315,-208.832947,60.187683,24.830152,13.169112,9.283682,-1.0,-1.0,100.074387,0.161186,-0.008789,0.015226,0.312004
879746.108968,-0.09325386000000001,-0.14714019,-9.81688662,0.003361,8.9e-05,0.00462,-77.214676,96.751831,-208.760483,60.187683,24.830152,13.169112,9.283682,-1.0,-1.0,100.074387,0.161186,-0.00877,0.015209,0.312012
879746.128954,-0.09714843000000001,-0.14564907000000002,-9.81823059,0.001529,-9.9e-05,0.005984,-77.047455,96.815125,-209.343445,60.187683,24.830152,13.169112,9.283682,-1.0,-1.0,100.07415,0.18232,-0.00877,0.015218,0.31201
879746.148941,-0.08412075,-0.15897105,-9.812246490000001,0.003312,-0.00055,0.002125,-77.263,96.919724,-209.034943,60.187683,24.830152,13.169112,9.283682,-1.0,-1.0,100.07415,0.18232,-0.008774,0.015193,0.312018
879746.148941,-0.08412075,-0.15897105,-9.812246490000001,0.003312,-0.00055,0.002125,-77.263,96.919724,-209.034943,60.187683,24.830152,13.169112,9.283682,-1.0,-1.0,100.07415,0.18232,-0.008774,0.015193,0.312018
879746.188914,-0.08337519,-0.14579622,-9.81628821,0.00398,-0.00072,0.005159,-76.989029,96.94429,-209.011948,60.187683,24.830152,13.169112,9.283682,-1.0,-1.0,100.07415,0.18232,-0.008768,0.015185,0.312013
879746.188914,-0.08337519,-0.14579622,-9.81628821,0.00398,-0.00072,0.005159,-76.989029,96.94429,-209.011948,60.187683,24.830152,13.169112,9.283682,-1.0,-1.0,100.07415,0.18232,-0.008768,0.015185,0.312013
879746.228887,-0.08772102000000001,-0.14490351,-9.81269775,0.002873,0.00013,0.004806,-76.853119,96.807999,-209.07753,60.187683,24.830152,13.169112,9.283682,-1.0,-1.0,100.07415,0.18232,-0.008783,0.015183,0.312004
879746.228887,-0.08772102000000001,-0.14490351,-9.81269775,0.002873,0.00013,0.004806,-76.853119,96.807999,-209.07753,60.187683,24.830152,13.169112,9.283682,-1.0,-1.0,100.07415,0.18232,-0.008783,0.015183,0.312004
879746.268861,-0.09220419,-0.14624748,-9.81987867,0.003273,-0.000514,0.003182,-77.027359,96.628555,-209.325272,60.187683,24.830152,13.169112,9.283682,-1.0,-1.0,100.07415,0.18232,-0.008779,0.015193,0.312005
879746.268861,-0.09220419,-0.14624748,-9.81987867,0.003273,-0.000514,0.003182,-77.027359,96.628555,-209.325272,60.187683,24.830152,13.169112,9.283682,-1.0,-1.0,100.07415,0.18232,-0.008779,0.015193,0.312005
879746.308834,-0.08667135000000001,-0.15178032,-9.81928026,0.002955,-0.000459,0.004714,-76.984238,96.67804,-208.929428,60.187683,24.830152,13.169112,9.283682,-1.0,-1.0,100.07415,0.18232,-0.008783,0.015191,0.311983
879746.308834,-0.08667135000000001,-0.15178032,-9.81928026,0.002955,-0.000459,0.004714,-76.984238,96.67804,-208.929428,60.187683,24.830152,13.169112,9.283682,-1.0,-1.0,100.07415,0.18232,-0.008783,0.015191,0.311983
879746.308834,-0.08667135000000001,-0.15178032,-9.81928026,0.002955,-0.000459,0.004714,-76.984238,96.67804,-208.929428,60.187683,24.830152,13.169112,9.283682,-1.0,-1.0,100.07415,0.18232,-0.008783,0.015191,0.311983
879746.32882,-0.08846658,-0.14550192,-9.808351920000002,0.004269,-0.000941,0.005864,-77.061691,96.631073,-208.671692,60.187683,24.830152,13.169112,9.283682,-1.0,-1.0,100.07415,0.18232,-0.008773,0.01518,0.31199
879746.38878,-0.10119015,-0.15088761,-9.81059841,0.003039,0.000513,0.005361,-76.963287,96.458923,-209.340378,60.187683,24.830152,13.169112,9.283682,-1.0,-1.0,100.07415,0.18232,-0.008766,0.015188,0.311974
879746.408767,-0.10912644,-0.14354973000000001,-9.82197801,0.001873,-0.001584,0.003892,-76.933716,96.701248,-209.329697,60.187683,24.830152,13.169112,9.283682,-1.0,-1.0,100.07415,0.18232,-0.008761,0.015205,0.311986
879746.428754,-0.08801532000000001,-0.15687171,-9.80086689,0.004433,-0.001263,0.004235,-77.028625,96.737625,-209.385513,60.187683,24.830152,13.169112,9.283682,-1.0,-1.0,100.07415,0.18232,-0.008777,0.015206,0.311978
879746.44874,-0.10448631000000001,-0.14115609,-9.79682517,0.005002,-0.001097,0.004378,-76.946838,96.632477,-209.024475,60.187683,24.830152,13.169112,9.283682,-1.0,-1.0,100.07415,0.18232,-0.00878,0.015226,0.311984
879746.468727,-0.09520605,-0.14804271000000002,-9.83484873,0.003937,9.1e-05,0.005135,-76.865158,96.631989,-209.167664,60.187683,24.830152,13.169112,9.283682,-1.0,-1.0,100.07415,0.18232,-0.00878,0.015281,0.311995
879746.488714,-0.09445068,-0.14594337000000002,-9.80041563,0.004293,-0.000814,0.00543,-76.77594,96.897659,-209.274887,60.187683,24.830152,13.169112,9.283682,-1.0,-1.0,100.07415,0.18232,-0.008791,0.015319,0.312005
879746.5087,-0.07844076,-0.13845834,-9.82616688,0.004449,0.000794,0.004897,-77.131332,96.444962,-209.483185,60.187683,24.830152,13.169112,9.283682,-1.0,-1.0,100.07415,0.18232,-0.00881,0.01535,0.312006
879746.548673,-0.08741691000000001,-0.15178032,-9.82122264,0.003532,-0.000138,0.004847,-76.829529,96.811905,-209.118484,60.187683,24.830152,13.169112,9.283682,-1.0,-1.0,100.07415,0.18232,-0.008825,0.015376,0.312006
879746.548673,-0.08741691000000001,-0.15178032,-9.82122264,0.003532,-0.000138,0.004847,-76.829529,96.811905,-209.118484,60.187683,24.830152,13.169112,9.283682,-1.0,-1.0,100.07415,0.18232,-0.008825,0.015376,0.312006
879746.588647,-0.08576883000000002,-0.1502892,-9.80266212,0.003546,-0.000919,0.004017,-77.121124,96.602829,-209.155182,60.187683,24.830152,13.169112,9.283682,-1.0,-1.0,100.07415,0.18232,-0.008827,0.015379,0.312001
879746.588647,-0.08576883000000002,-0.1502892,-9.80266212,0.003546,-0.000919,0.004017,-77.121124,96.602829,-209.155182,60.187683,24.830152,13.169112,9.283682,-1.0,-1.0,100.07415,0.18232,-0.008827,0.015379,0.312001
879746.608633,-0.08996751000000001,-0.15133887000000001,-9.821821049999999,0.004031,-0.000232,0.002579,-77.070312,96.630081,-209.364807,60.187683,24.830152,13.169112,9.283682,-1.0,-1.0,100.07415,0.18232,-0.008823,0.015396,0.312002
879746.608633,-0.08996751000000001,-0.15133887000000001,-9.821821049999999,0.004031,-0.000232,0.002579,-77.070312,96.630081,-209.364807,60.187683,24.830152,13.169112,9.283682,-1.0,-1.0,100.07415,0.18232,-0.008823,0.015396,0.312002
879746.668593,-0.09520605,-0.15014205,-9.80222067,0.004707,-0.001025,0.004261,-77.100388,96.56337,-209.333252,60.187683,24.830152,13.169112,9.283682,-1.0,-1.0,100.07415,0.18232,-0.008812,0.015411,0.312008
879746.668593,-0.09520605,-0.15014205,-9.80222067,0.004707,-0.001025,0.004261,-77.100388,96.56337,-209.333252,60.187683,24.830152,13.169112,9.283682,-1.0,-1.0,100.07415,0.18232,-0.008812,0.015411,0.312008
879746.708567,-0.09550035000000001,-0.15358536,-9.804015900000001,0.002249,0.001585,0.004236,-76.965164,96.776428,-209.007248,60.187683,24.830152,13.169112,9.283682,-1.0,-1.0,100.07415,0.18232,-0.008824,0.015413,0.312022
879746.708567,-0.09550035000000001,-0.15358536,-9.804015900000001,0.002249,0.001585,0.004236,-76.965164,96.776428,-209.007248,60.187683,24.830152,13.169112,9.283682,-1.0,-1.0,100.07415,0.18232,-0.008824,0.015413,0.312022
879746.728553,-0.09595161,-0.14400099,-9.81434583,0.002249,0.001585,0.004236,-76.991486,96.710083,-209.060196,60.187683,24.830152,13.169112,9.283682,-1.0,-1.0,100.07415,0.18232,-0.008825,0.015401,0.312012
879746.74854,-0.10044459,-0.14385384,-9.82556847,0.002966,0.001385,0.005231,-77.26355,96.531189,-209.05687,60.187683,24.830152,13.169112,9.283682,-1.0,-1.0,100.07415,0.18232,-0.008826,0.015402,0.312009
879746.788513,-0.09924777,-0.15223158,-9.83918475,0.001345,-8.4e-05,0.004931,-77.065582,96.617905,-209.080978,60.187683,24.830152,13.169112,9.283682,-1.0,-1.0,100.07415,0.18232,-0.008825,0.015408,0.312017
879746.788513,-0.09924777,-0.15223158,-9.83918475,0.001345,-8.4e-05,0.004931,-77.065582,96.617905,-209.080978,60.187683,24.830152,13.169112,9.283682,-1.0,-1.0,100.07415,0.18232,-0.008825,0.015408,0.312017
879746.828486,-0.10373094000000001,-0.15373251000000002,-9.80940159,0.00237,-0.00156,0.003065,-76.886765,96.572418,-209.06369,60.187683,24.830152,13.169112,9.283682,-1.0,-1.0,100.07415,0.18232,-0.008829,0.015405,0.312023
879746.828486,-0.10373094000000001,-0.15373251000000002,-9.80940159,0.00237,-0.00156,0.003065,-76.886765,96.572418,-209.06369,60.187683,24.830152,13.169112,9.283682,-1.0,-1.0,100.07415,0.18232,-0.008829,0.015405,0.312023
879746.86846,-0.09640287000000002,-0.14833701000000002,-9.78964425,0.005094,0.00055,0.004233,-76.71524,96.688507,-209.206619,60.187683,24.830152,13.169112,9.283682,-1.0,-1.0,100.07415,0.18232,-0.008837,0.015403,0.311984
879746.86846,-0.09640287000000002,-0.14833701000000002,-9.78964425,0.005094,0.00055,0.004233,-76.71524,96.688507,-209.206619,60.187683,24.830152,13.169112,9.283682,-1.0,-1.0,100.07415,0.18232,-0.008837,0.015403,0.311984
879746.908433,-0.08756406,-0.15732297,-9.78305193,0.003651,-0.000679,0.004806,-76.668564,96.629044,-209.199905,60.187683,24.830152,13.169112,9.283682,-1.0,-1.0,100.07415,0.18232,-0.008832,0.015421,0.311974
879746.908433,-0.08756406,-0.15732297,-9.78305193,0.003651,-0.000679,0.004806,-76.668564,96.629044,-209.199905,60.187683,24.830152,13.169112,9.283682,-1.0,-1.0,100.07415,0.18232,-0.008832,0.015421,0.311974
879746.908433,-0.08756406,-0.15732297,-9.78305193,0.003651,-0.000679,0.004806,-76.668564,96.629044,-209.199905,60.187683,24.830152,13.169112,9.283682,-1.0,-1.0,100.07415,0.18232,-0.008832,0.015421,0.311974
879746.908433,-0.08756406,-0.15732297,-9.78305193,0.003651,-0.000679,0.004806,-76.668564,96.629044,-209.199905,60.187683,24.830152,13.169112,9.283682,-1.0,-1.0,100.07415,0.18232,-0.008832,0.015421,0.311974
879746.98838,-0.09475478999999999,-0.15837263999999998,-9.828266220000001,0.003229,-0.001226,0.004339,-76.441818,96.644073,-208.866806,60.187683,24.830152,13.169112,9.283682,-1.0,-1.0,100.07415,0.18232,-0.008855,0.015419,0.311957
879746.98838,-0.09475478999999999,-0.15837263999999998,-9.828266220000001,0.003229,-0.001226,0.004339,-76.441818,96.644073,-208.866806,60.187683,24.830152,13.169112,9.283682,-1.0,-1.0,100.07415,0.18232,-0.008855,0.015419,0.311957
879747.028353,-0.09655002,-0.14864112000000002,-9.82766781,0.00346,0.000496,0.004807,-76.32341,96.840027,-209.006851,60.187683,24.830152,13.169112,9.283682,-1.0,-1.0,100.07415,0.18232,-0.008854,0.015401,0.31194
879747.028353,-0.09655002,-0.14864112000000002,-9.82766781,0.00346,0.000496,0.004807,-76.32341,96.840027,-209.006851,60.187683,24.830152,13.169112,9.283682,-1.0,-1.0,100.07415,0.18232,-0.008854,0.015401,0.31194
879747.028353,-0.09655002,-0.14864112000000002,-9.82766781,0.00346,0.000496,0.004807,-76.32341,96.840027,-209.006851,60.187683,24.830152,13.169112,9.283682,-1.0,-1.0,100.07415,0.18232,-0.008854,0.015401,0.31194
879747.028353,-0.09655002,-0.14864112000000002,-9.82766781,0.00346,0.000496,0.004807,-76.32341,96.840027,-209.006851,60.187683,24.830152,13.169112,9.283682,-1.0,-1.0,100.07415,0.18232,-0.008854,0.015401,0.31194
879747.108299,-0.09864936,-0.14938668000000002,-9.80251497,0.00281,-3.5e-05,0.00334,-76.237823,96.669586,-209.229645,60.187683,24.830152,13.169112,9.283682,-1.0,-1.0,100.07415,0.18232,-0.008853,0.015373,0.311951
879747.128286,-0.10178856,-0.16286562,-9.82601973,0.00323,-0.001708,0.0037,-76.165421,96.75502,-209.168533,60.187683,24.830152,13.169112,9.283682,-1.0,-1.0,100.07415,0.18232,-0.008852,0.015377,0.311941
879747.148273,-0.09640287000000002,-0.15297714,-9.81344331,0.003652,-0.001345,0.004383,-76.352905,96.710281,-209.274399,60.187683,24.830152,13.169112,9.283682,-1.0,-1.0,100.07415,0.18232,-0.008865,0.015372,0.311941
879747.168259,-0.08262963000000001,-0.15418377,-9.8213796,0.002389,-0.000812,0.004303,-76.185471,96.833282,-209.17775,60.187683,24.830152,13.169112,9.283682,-1.0,-1.0,100.07415,0.18232,-0.00887,0.015378,0.311952
879747.188245,-0.10193571,-0.15163317,-9.813139200000002,0.00386,-0.001381,0.002975,-75.910278,96.710297,-209.22467,60.187683,24.830152,13.169112,9.283682,-1.0,-1.0,100.07415,0.18232,-0.008877,0.015383,0.311941
879747.188245,-0.10193571,-0.15163317,-9.813139200000002,0.00386,-0.001381,0.002975,-75.910278,96.710297,-209.22467,60.187683,24.830152,13.169112,9.283682,-1.0,-1.0,100.07415,0.18232,-0.008877,0.015383,0.311941
879747.188245,-0.10193571,-0.15163317,-9.813139200000002,0.00386,-0.001381,0.002975,-75.910278,96.710297,-209.22467,60.187683,24.830152,13.169112,9.283682,-1.0,-1.0,100.07415,0.18232,-0.008877,0.015383,0.311941
879747.228218,-0.09640287000000002,-0.16226721000000002,-9.836045550000001,0.002892,-0.000646,0.00578,-76.240952,96.58342,-209.166397,60.187683,24.830152,13.169112,9.283682,-1.0,-1.0,100.073593,0.227242,-0.008891,0.015398,0.311937
879747.268192,-0.08801532000000001,-0.15178032,-9.829158930000002,0.004809,-0.000751,0.0052,-76.04715,96.777252,-208.864182,60.187683,24.830152,13.169112,9.283682,-1.0,-1.0,100.073593,0.227242,-0.008893,0.015396,0.311934
879747.288178,-0.09056592000000001,-0.14789556,-9.81239364,0.003068,-0.002139,0.00403,-76.225388,96.550446,-208.978378,60.187683,24.830152,13.169112,9.283682,-1.0,-1.0,100.073593,0.227242,-0.008883,0.015407,0.311935
879747.288178,-0.09056592000000001,-0.14789556,-9.81239364,0.003068,-0.002139,0.00403,-76.225388,96.550446,-208.978378,60.187683,24.830152,13.169112,9.283682,-1.0,-1.0,100.073593,0.227242,-0.008883,0.015407,0.311935
879747.288178,-0.09056592000000001,-0.14789556,-9.81239364,0.003068,-0.002139,0.00403,-76.225388,96.550446,-208.978378,60.187683,24.830152,13.169112,9.283682,-1.0,-1.0,100.073593,0.227242,-0.008883,0.015407,0.311935
879747.288178,-0.09056592000000001,-0.14789556,-9.81239364,0.003068,-0.002139,0.00403,-76.225388,96.550446,-208.978378,60.187683,24.830152,13.169112,9.283682,-1.0,-1.0,100.073593,0.227242,-0.008883,0.015407,0.311935
879747.368125,-0.09894366,-0.15358536,-9.811343970000001,0.003627,-0.000413,0.005141,-75.908401,96.724564,-209.185547,60.187683,24.830152,13.169112,9.283682,-1.0,-1.0,100.073593,0.227242,-0.008867,0.015413,0.311949
879747.388112,-0.09834525,-0.14699304000000002,-9.82377324,0.003688,-0.003017,0.004601,-76.118835,96.794327,-208.767883,60.187683,24.830152,13.169112,9.283682,-1.0,-1.0,100.073593,0.227242,-0.008867,0.015401,0.31195
879747.408098,-0.0865242,-0.14684589,-9.81928026,0.003321,-0.000169,0.004111,-76.10582,96.692307,-209.128586,60.187683,24.830152,13.169112,9.283682,-1.0,-1.0,100.073593,0.227242,-0.008875,0.0154,0.311958
879747.428085,-0.08636724,-0.16136469,-9.80895033,0.003884,3.9e-05,0.004026,-76.11937,96.774323,-208.919708,60.187683,24.830152,13.169112,9.283682,-1.0,-1.0,100.073593,0.227242,-0.008871,0.015392,0.311963
879747.428085,-0.08636724,-0.16136469,-9.80895033,0.003884,3.9e-05,0.004026,-76.11937,96.774323,-208.919708,60.187683,24.830152,13.169112,9.283682,-1.0,-1.0,100.073593,0.227242,-0.008871,0.015392,0.311963
879747.428085,-0.08636724,-0.16136469,-9.80895033,0.003884,3.9e-05,0.004026,-76.11937,96.774323,-208.919708,60.187683,24.830152,13.169112,9.283682,-1.0,-1.0,100.073593,0.227242,-0.008871,0.015392,0.311963
879747.508032,-0.08576883000000002,-0.14474655,-9.81554265,0.003177,-0.00072,0.002713,-76.265701,96.807373,-209.122665,60.187683,24.830152,13.169112,9.283682,-1.0,-1.0,100.073593,0.227242,-0.008861,0.015357,0.31195
879747.508032,-0.08576883000000002,-0.14474655,-9.81554265,0.003177,-0.00072,0.002713,-76.265701,96.807373,-209.122665,60.187683,24.830152,13.169112,9.283682,-1.0,-1.0,100.073593,0.227242,-0.008861,0.015357,0.31195
879747.548005,-0.09999333,-0.15342840000000002,-9.80909748,0.0041,-0.000827,0.004018,-76.212936,96.912506,-208.841614,60.187683,24.830152,13.169112,9.283682,-1.0,-1.0,100.073593,0.227242,-0.008879,0.015358,0.311961
879747.548005,-0.09999333,-0.15342840000000002,-9.80909748,0.0041,-0.000827,0.004018,-76.212936,96.912506,-208.841614,60.187683,24.830152,13.169112,9.283682,-1.0,-1.0,100.073593,0.227242,-0.008879,0.015358,0.311961
879747.548005,-0.09999333,-0.15342840000000002,-9.80909748,0.0041,-0.000827,0.004018,-76.212936,96.912506,-208.841614,60.187683,24.830152,13.169112,9.283682,-1.0,-1.0,100.073593,0.227242,-0.008879,0.015358,0.311961
879747.548005,-0.09999333,-0.15342840000000002,-9.80909748,0.0041,-0.000827,0.004018,-76.212936,96.912506,-208.841614,60.187683,24.830152,13.169112,9.283682,-1.0,-1.0,100.073593,0.227242,-0.008879,0.015358,0.311961
879747.548005,-0.09999333,-0.15342840000000002,-9.80909748,0.0041,-0.000827,0.004018,-76.212936,96.912506,-208.841614,60.187683,24.830152,13.169112,9.283682,-1.0,-1.0,100.073593,0.227242,-0.008879,0.015358,0.311961
879747.548005,-0.09999333,-0.15342840000000002,-9.80909748,0.0041,-0.000827,0.004018,-76.212936,96.912506,-208.841614,60.187683,24.830152,13.169112,9.283682,-1.0,-1.0,100.073593,0.227242,-0.008879,0.015358,0.311961
879747.548005,-0.09999333,-0.15342840000000002,-9.80909748,0.0041,-0.000827,0.004018,-76.212936,96.912506,-208.841614,60.187683,24.830152,13.169112,9.283682,-1.0,-1.0,100.073593,0.227242,-0.008879,0.015358,0.311961
879747.548005,-0.09999333,-0.15342840000000002,-9.80909748,0.0041,-0.000827,0.004018,-76.212936,96.912506,-208.841614,60.187683,24.830152,13.169112,9.283682,-1.0,-1.0,100.073593,0.227242,-0.008879,0.015358,0.311961
879747.567992,-0.09310671,-0.14954364,-9.8358984,0.002529,-0.00168,0.002863,-76.380463,96.588943,-209.105331,60.187683,24.830152,13.169112,9.283682,-1.0,-1.0,100.073593,0.227242,-0.008878,0.015358,0.311954
879747.627952,-0.08772102000000001,-0.1591182,-9.82406754,0.00314,0.000503,0.00436,-76.308868,96.666763,-209.309601,60.187683,24.830152,13.169112,9.283682,-1.0,-1.0,100.073593,0.227242,-0.008876,0.015349,0.311959
879747.707898,-0.09176274,-0.15148602000000003,-9.82406754,0.002879,-0.00037,0.004895,-76.300507,96.550537,-209.035431,60.187683,24.830152,13.169112,9.283682,-1.0,-1.0,100.073593,0.227242,-0.008874,0.015339,0.311927
879747.747872,-0.08696565,-0.15297714,-9.8068608,0.00478,5.4e-05,0.004936,-76.392441,96.439407,-209.023972,60.187689,24.830159,14.416528,8.553891,-1.0,-1.0,100.073593,0.227242,-0.008881,0.015332,0.311935
879747.787845,-0.0928026,-0.14235291,-9.823027680000001,0.003804,-0.000378,0.004832,-76.055573,96.566315,-209.037186,60.187689,24.830159,14.416528,8.553891,-1.0,-1.0,100.073593,0.227242,-0.008893,0.015334,0.311948
879747.807832,-0.09100737,-0.16151184,-9.80131815,0.002781,-0.001162,0.004715,-76.066803,96.559662,-208.839615,60.187689,24.830159,14.416528,8.553891,-1.0,-1.0,100.073593,0.227242,-0.008901,0.015333,0.311959
879747.827818,-0.09864936,-0.15552774,-9.820025820000001,0.00502,-0.001097,0.004369,-75.957199,96.484177,-208.836472,60.187689,24.830159,14.416528,8.553891,-1.0,-1.0,100.073593,0.227242,-0.0089,0.015341,0.311965
879747.827818,-0.09864936,-0.15552774,-9.820025820000001,0.00502,-0.001097,0.004369,-75.957199,96.484177,-208.836472,60.187689,24.830159,14.416528,8.553891,-1.0,-1.0,100.073593,0.227242,-0.0089,0.015341,0.311965
879747.867792,-0.08292393,-0.14340258,-9.82272357,0.002239,0.000202,0.002252,-76.11026,96.501038,-208.776733,60.187689,24.830159,14.416528,8.553891,-1.0,-1.0,100.073593,0.227242,-0.008889,0.015324,0.311957
879747.887778,-0.1013373,-0.16780005,-9.81643536,0.002768,-0.001625,0.005441,-75.943207,96.821228,-209.037094,60.187689,24.830159,14.416528,8.553891,-1.0,-1.0,100.073593,0.227242,-0.008881,0.015321,0.311954
879747.907765,-0.10373094000000001,-0.14998509000000002,-9.81418887,0.003586,-6.1e-05,0.004186,-76.088776,96.642868,-209.115173,60.187689,24.830159,14.416528,8.553891,-1.0,-1.0,100.073593,0.227242,-0.008881,0.015304,0.311961
879747.947739,-0.08576883000000002,-0.14789556,-9.81074556,0.003888,-0.001248,0.00308,-76.213333,96.524216,-209.07756,60.187689,24.830159,14.416528,8.553891,-1.0,-1.0,100.073593,0.227242,-0.008873,0.015318,0.311966
879747.947739,-0.08576883000000002,-0.14789556,-9.81074556,0.003888,-0.001248,0.00308,-76.213333,96.524216,-209.07756,60.187689,24.830159,14.416528,8.553891,-1.0,-1.0,100.073593,0.227242,-0.008873,0.015318,0.311966
879747.987712,-0.09295956000000001,-0.14654178,-9.82990449,0.003938,0.001044,0.005039,-76.209579,96.404495,-208.915695,60.187689,24.830159,14.416528,8.553891,-1.0,-1.0,100.073593,0.227242,-0.008863,0.015348,0.31198
879747.987712,-0.09295956000000001,-0.14654178,-9.82990449,0.003938,0.001044,0.005039,-76.209579,96.404495,-208.915695,60.187689,24.830159,14.416528,8.553891,-1.0,-1.0,100.073593,0.227242,-0.008863,0.015348,0.31198
879748.027685,-0.08712261,-0.15342840000000002,-9.818534699999999,0.004603,-0.003556,0.002717,-76.310501,96.628754,-208.745209,60.187689,24.830159,14.416528,8.553891,-1.0,-1.0,100.073593,0.227242,-0.008855,0.015342,0.311993
879748.047672,-0.0981981,-0.1474443,-9.830502899999999,0.000179,-0.001401,0.002985,-76.307343,96.676987,-208.837036,60.187689,24.830159,14.416528,8.553891,-1.0,-1.0,100.073593,0.227242,-0.008843,0.015334,0.311989
879748.047672,-0.0981981,-0.1474443,-9.830502899999999,0.000179,-0.001401,0.002985,-76.307343,96.676987,-208.837036,60.187689,24.830159,14.416528,8.553891,-1.0,-1.0,100.073593,0.227242,-0.008843,0.015334,0.311989
879748.087645,-0.10014048,-0.15582204,-9.819133110000001,0.004176,0.00216,0.00439,-76.302094,96.436218,-209.196274,60.187689,24.830159,14.416528,8.553891,-1.0,-1.0,100.073593,0.227242,-0.008849,0.015335,0.311991
879748.107632,-0.08532738,-0.16839846000000003,-9.82107549,0.004439,0.002743,0.005275,-76.111176,96.529205,-209.086594,60.187689,24.830159,14.416528,8.553891,-1.0,-1.0,100.073593,0.227242,-0.008838,0.015354,0.311987
879748.127619,-0.09490194,-0.16121754000000002,-9.795334050000001,0.00579,-0.00142,0.002901,-76.191956,96.508652,-209.063766,60.187689,24.830159,14.416528,8.553891,-1.0,-1.0,100.073593,0.227242,-0.008817,0.015367,0.311984
879748.147605,-0.07589016,-0.14474655,-9.81509139,0.002697,-0.000696,0.004428,-76.09375,96.447388,-209.041611,60.187689,24.830159,14.416528,8.553891,-1.0,-1.0,100.073593,0.227242,-0.008815,0.015367,0.311972
879748.167592,-0.08756406,-0.15282999000000003,-9.82721655,0.004526,-0.002019,0.003821,-76.117584,96.490219,-208.919022,60.187689,24.830159,14.416528,8.553891,-1.0,-1.0,100.073593,0.227242,-0.008803,0.015354,0.311976
879748.187579,-0.09355797,-0.14445225,-9.81494424,0.004526,-0.002019,0.003821,-76.245193,96.348618,-209.220428,60.187689,24.830159,14.416528,8.553891,-1.0,-1.0,100.073593,0.227242,-0.0088,0.015354,0.311974
879748.207566,-0.09116433,-0.15672456,-9.82556847,0.002038,0.001354,0.003433,-76.467331,96.528503,-209.299103,60.187689,24.830159,14.416528,8.553891,-1.0,-1.0,100.073593,0.227242,-0.008787,0.015364,0.311981
879748.227552,-0.09265545000000001,-0.14818986,-9.81090252,0.005244,3.3e-05,0.00356,-76.10231,96.537491,-209.1539,60.187689,24.830159,14.416528,8.553891,-1.0,-1.0,100.073593,0.227242,-0.008784,0.015355,0.31198
879748.247539,-0.08741691000000001,-0.15342840000000002,-9.81464013,0.004567,-0.000122,0.003706,-76.25708,96.564117,-209.11145,60.187689,24.830159,14.416528,8.553891,-1.0,-1.0,100.073593,0.227242,-0.008796,0.015373,0.311978
879748.267526,-0.08412075,-0.17198892,-9.80565417,0.002529,5e-06,0.002508,-76.401306,96.373123,-209.212234,60.187689,24.830159,14.416528,8.553891,-1.0,-1.0,100.073143,0.266876,-0.00879,0.015369,0.311983
879748.287512,-0.10747836000000001,-0.15088761,-9.818377739999999,0.004057,-0.003211,0.003123,-76.301132,96.487579,-209.047241,60.187689,24.830159,14.416528,8.553891,-1.0,-1.0,100.073143,0.266876,-0.008793,0.015368,0.311972
879748.307499,-0.08951625,-0.15103476000000002,-9.8213796,0.002064,-0.001438,0.004245,-76.257233,96.471024,-208.996292,60.187689,24.830159,14.416528,8.553891,-1.0,-1.0,100.073143,0.266876,-0.00881,0.015364,0.311969
879748.327486,-0.09100737,-0.15538058999999999,-9.82062423,0.0026,0.000355,0.002576,-76.361069,96.454529,-208.984741,60.187689,24.830159,14.416528,8.553891,-1.0,-1.0,100.073143,0.266876,-0.008828,0.015356,0.311953
879748.347472,-0.08576883000000002,-0.16390548000000002,-9.815689800000001,0.004516,-0.000425,0.003439,-76.276535,96.468781,-208.940338,60.187689,24.830159,14.416528,8.553891,-1.0,-1.0,100.073143,0.266876,-0.008828,0.015377,0.311939
879748.347472,-0.08576883000000002,-0.16390548000000002,-9.815689800000001,0.004516,-0.000425,0.003439,-76.276535,96.468781,-208.940338,60.187689,24.830159,14.416528,8.553891,-1.0,-1.0,100.073143,0.266876,-0.008828,0.015377,0.311939
879748.387446,-0.08712261,-0.1502892,-9.819584370000001,0.0042,0.000634,0.003361,-76.19191,96.561081,-208.981583,60.187689,24.830159,14.416528,8.553891,-1.0,-1.0,100.073143,0.266876,-0.008831,0.015383,0.311947
879748.407433,-0.08906499000000001,-0.15043635,-9.80191656,0.004442,-0.000373,0.004674,-75.937134,96.691406,-209.150925,60.187689,24.830159,14.416528,8.553891,-1.0,-1.0,100.073143,0.266876,-0.008839,0.015387,0.311937
879748.427419,-0.10328949000000001,-0.14818986,-9.81299205,0.003707,0.001389,0.004078,-76.019455,96.703156,-208.909241,60.187689,24.830159,14.416528,8.553891,-1.0,-1.0,100.073143,0.266876,-0.008855,0.015391,0.311943
879748.447406,-0.09176274,-0.14519781,-9.81164808,0.003955,0.000138,0.003435,-76.259506,96.620712,-208.751892,60.187689,24.830159,14.416528,8.553891,-1.0,-1.0,100.073143,0.266876,-0.008856,0.015408,0.311952
879748.467393,-0.08622009,-0.15178032,-9.82841337,0.004935,0.00082,0.003292,-76.219772,96.682892,-209.060776,60.187689,24.830159,14.416528,8.553891,-1.0,-1.0,100.073143,0.266876,-0.008851,0.015422,0.311941
879748.487379,-0.09550035000000001,-0.15956946,-9.80925444,0.003375,-0.000751,0.005763,-76.272278,96.722458,-209.333969,60.187689,24.830159,14.416528,8.553891,-1.0,-1.0,100.073143,0.266876,-0.008852,0.015424,0.311933
879748.487379,-0.09550035000000001,-0.15956946,-9.80925444,0.003375,-0.000751,0.005763,-76.272278,96.722458,-209.333969,60.187689,24.830159,14.416528,8.553891,-1.0,-1.0,100.073143,0.266876,-0.008852,0.015424,0.311933
879748.487379,-0.09550035000000001,-0.15956946,-9.80925444,0.003375,-0.000751,0.005763,-76.272278,96.722458,-209.333969,60.187689,24.830159,14.416528,8.553891,-1.0,-1.0,100.073143,0.266876,-0.008852,0.015424,0.311933
879748.54734,-0.09520605,-0.14998509000000002,-9.8068608,0.004044,-0.000534,0.005866,-76.073715,96.330902,-208.816666,60.187689,24.830159,14.416528,8.553891,-1.0,-1.0,100.073143,0.266876,-0.008869,0.015413,0.311941
879748.567326,-0.10657584,-0.13711437,-9.82646118,0.002268,-0.000818,0.003325,-76.170349,96.649261,-209.02417,60.187689,24.830159,14.416528,8.553891,-1.0,-1.0,100.073143,0.266876,-0.008861,0.015428,0.311964
879748.587313,-0.09894366,-0.16031502,-9.7986204,0.003316,0.000388,0.004687,-76.144958,96.767212,-208.878036,60.187689,24.830159,14.416528,8.553891,-1.0,-1.0,100.073143,0.266876,-0.008866,0.015436,0.311958
879748.6073,-0.08906499000000001,-0.15851979,-9.81418887,0.002597,0.001052,0.003887,-76.107788,96.66217,-208.949234,60.187689,24.830159,14.416528,8.553895,-1.0,-1.0,100.073143,0.266876,-0.008863,0.015443,0.311966
879748.647273,-0.10373094000000001,-0.14385384,-9.79488279,0.002649,-0.000284,0.004928,-76.39093,96.505325,-208.90802,60.187689,24.830159,14.416528,8.553895,-1.0,-1.0,100.073143,0.266876,-0.008854,0.015417,0.31195
879748.647273,-0.10373094000000001,-0.14385384,-9.79488279,0.002649,-0.000284,0.004928,-76.39093,96.505325,-208.90802,60.187689,24.830159,14.416528,8.553895,-1.0,-1.0,100.073143,0.266876,-0.008854,0.015417,0.31195
879748.647273,-0.10373094000000001,-0.14385384,-9.79488279,0.002649,-0.000284,0.004928,-76.39093,96.505325,-208.90802,60.187689,24.830159,14.416528,8.553895,-1.0,-1.0,100.073143,0.266876,-0.008854,0.015417,0.31195
879748.66726,-0.10552617,-0.14400099,-9.81793629,0.003251,-0.001876,0.003048,-76.210159,96.676849,-208.915237,60.187689,24.830159,14.416528,8.553895,-1.0,-1.0,100.073143,0.266876,-0.008864,0.015415,0.311952
879748.72722,-0.09834525,-0.15582204,-9.82586277,0.002419,-0.000175,0.006319,-76.222183,96.502548,-208.906693,60.187689,24.830159,14.416528,8.553895,-1.0,-1.0,100.073143,0.266876,-0.008871,0.015468,0.311978
879748.747207,-0.10059174,-0.13950801,-9.81299205,0.002868,-0.000614,0.004332,-76.242416,96.464798,-208.994843,60.187689,24.830159,14.416528,8.553895,-1.0,-1.0,100.073143,0.266876,-0.008869,0.015464,0.312003
879748.767193,-0.08292393,-0.14564907000000002,-9.83754648,0.003079,-0.000632,0.003526,-76.371765,96.401123,-209.236847,60.187689,24.830159,14.416528,8.553895,-1.0,-1.0,100.073143,0.266876,-0.008867,0.015453,0.311994
879748.767193,-0.08292393,-0.14564907000000002,-9.83754648,0.003079,-0.000632,0.003526,-76.371765,96.401123,-209.236847,60.187689,24.830159,14.416528,8.553895,-1.0,-1.0,100.073143,0.266876,-0.008867,0.015453,0.311994
879748.807167,-0.10882233000000001,-0.13936086,-9.83245509,0.00431,-0.000397,0.004588,-76.337585,96.463623,-209.122635,60.187689,24.830159,14.416528,8.553895,-1.0,-1.0,100.073143,0.266876,-0.008888,0.015441,0.311985
879748.827153,-0.09430353000000001,-0.15297714,-9.78261048,0.005523,0.001004,0.004339,-76.287308,96.493912,-208.986664,60.187689,24.830159,14.416528,8.553895,-1.0,-1.0,100.073143,0.266876,-0.008884,0.015459,0.311972
879748.84714,-0.08277678,-0.14818986,-9.82062423,0.004046,-0.000282,0.00456,-76.217224,96.608521,-209.038956,60.187689,24.830159,14.416528,8.553895,-1.0,-1.0,100.073143,0.266876,-0.008877,0.015477,0.311974
879748.867127,-0.09805095000000001,-0.15672456,-9.82886463,0.002683,0.000906,0.004861,-76.409943,96.485291,-209.198273,60.187689,24.830159,14.416528,8.553895,-1.0,-1.0,100.073143,0.266876,-0.008873,0.015496,0.311968
879748.867127,-0.09805095000000001,-0.15672456,-9.82886463,0.002683,0.000906,0.004861,-76.409943,96.485291,-209.198273,60.187689,24.830159,14.416528,8.553895,-1.0,-1.0,100.073143,0.266876,-0.008873,0.015496,0.311968
879748.867127,-0.09805095000000001,-0.15672456,-9.82886463,0.002683,0.000906,0.004861,-76.409943,96.485291,-209.198273,60.187689,24.830159,14.416528,8.553895,-1.0,-1.0,100.073143,0.266876,-0.008873,0.015496,0.311968
879748.867127,-0.09805095000000001,-0.15672456,-9.82886463,0.002683,0.000906,0.004861,-76.409943,96.485291,-209.198273,60.187689,24.830159,14.416528,8.553895,-1.0,-1.0,100.073143,0.266876,-0.008873,0.015496,0.311968
879748.947074,-0.08996751000000001,-0.15402681000000001,-9.799817220000001,0.004346,-0.002015,0.003875,-76.428055,96.465256,-209.237244,60.187689,24.830159,14.416528,8.553895,-1.0,-1.0,100.073143,0.266876,-0.008893,0.015508,0.311971
879748.947074,-0.08996751000000001,-0.15402681000000001,-9.799817220000001,0.004346,-0.002015,0.003875,-76.428055,96.465256,-209.237244,60.187689,24.830159,14.416528,8.553895,-1.0,-1.0,100.073143,0.266876,-0.008893,0.015508,0.311971
879748.96706,-0.09190989000000001,-0.15792138000000003,-9.82930608,0.004346,-0.002015,0.003875,-76.354828,96.663513,-209.012222,60.187689,24.830159,14.416528,8.553895,-1.0,-1.0,100.073143,0.266876,-0.0089,0.015529,0.311975
879749.007034,-0.10523187,-0.16031502,-9.84637548,0.002565,-0.000721,0.003972,-76.162354,96.75032,-208.883911,60.187689,24.830159,14.416528,8.553895,-1.0,-1.0,100.073143,0.266876,-0.008864,0.015546,0.311958
879749.027021,-0.09056592000000001,-0.15851979,-9.79892451,0.004552,0.001736,0.003057,-76.26207,96.582001,-208.94072,60.187689,24.830159,14.416528,8.553895,-1.0,-1.0,100.073143,0.266876,-0.008869,0.015532,0.311947
879749.047007,-0.09759969,-0.14893542,-9.82841337,0.003873,-0.001631,0.002881,-76.261719,96.650604,-209.124649,60.187689,24.830159,14.416528,8.553895,-1.0,-1.0,100.073143,0.266876,-0.008875,0.015533,0.311948
879749.047007,-0.09759969,-0.14893542,-9.82841337,0.003873,-0.001631,0.002881,-76.261719,96.650604,-209.124649,60.187689,24.830159,14.416528,8.553895,-1.0,-1.0,100.073143,0.266876,-0.008875,0.015533,0.311948
879749.086981,-0.10777265999999999,-0.14429529,-9.80266212,0.002067,-7.1e-05,0.003838,-76.612717,96.365005,-209.190979,60.187689,24.830159,14.416528,8.553895,-1.0,-1.0,100.073143,0.266876,-0.008893,0.015489,0.311944
879749.106968,-0.09595161,-0.15567489,-9.83095416,0.001688,-0.001143,0.004804,-76.324173,96.697601,-208.996674,60.187689,24.830159,14.416528,8.553895,-1.0,-1.0,100.073143,0.266876,-0.008894,0.015478,0.311956
879749.126954,-0.07844076,-0.17198892,-9.80805762,0.004729,-0.002611,0.004917,-76.344925,96.704742,-209.645493,60.187689,24.830159,14.416528,8.553895,-1.0,-1.0,100.073143,0.266876,-0.008881,0.015472,0.311963
879749.126954,-0.07844076,-0.17198892,-9.80805762,0.004729,-0.002611,0.004917,-76.344925,96.704742,-209.645493,60.187689,24.830159,14.416528,8.553895,-1.0,-1.0,100.073143,0.266876,-0.008881,0.015472,0.311963
879749.146941,-0.09310671,-0.16301277,-9.833053500000002,0.003413,-0.000623,0.004303,-76.294144,96.679428,-209.203232,60.187689,24.830159,14.416528,8.553895,-1.0,-1.0,100.073143,0.266876,-0.008877,0.015486,0.311964
879749.186914,-0.09340101,-0.14654178,-9.80131815,0.004594,0.00057,0.004282,-76.053268,96.591873,-209.020172,60.187689,24.830159,14.416528,8.553895,-1.0,-1.0,100.073143,0.266876,-0.008872,0.015464,0.311968
879749.206901,-0.09640287000000002,-0.14998509000000002,-9.80595828,0.00328,-0.001039,0.004266,-76.384842,96.511383,-209.257645,60.187689,24.830159,14.416528,8.553895,-1.0,-1.0,100.073143,0.266876,-0.00888,0.015463,0.311962
879749.206901,-0.09640287000000002,-0.14998509000000002,-9.80595828,0.00328,-0.001039,0.004266,-76.384842,96.511383,-209.257645,60.187689,24.830159,14.416528,8.553895,-1.0,-1.0,100.073143,0.266876,-0.00888,0.015463,0.311962
879749.206901,-0.09640287000000002,-0.14998509000000002,-9.80595828,0.00328,-0.001039,0.004266,-76.384842,96.511383,-209.257645,60.187689,24.830159,14.416528,8.553895,-1.0,-1.0,100.073143,0.266876,-0.00888,0.015463,0.311962
879749.206901,-0.09640287000000002,-0.14998509000000002,-9.80595828,0.00328,-0.001039,0.004266,-76.384842,96.511383,-209.257645,60.187689,24.830159,14.416528,8.553895,-1.0,-1.0,100.073143,0.266876,-0.00888,0.015463,0.311962
879749.286848,-0.09385227000000002,-0.15253569,-9.83724237,0.002458,-0.00077,0.004537,-76.226578,96.424911,-209.145248,60.187689,24.830159,14.416528,8.553895,-1.0,-1.0,100.073143,0.266876,-0.008882,0.015498,0.311942
879749.306835,-0.10208286000000001,-0.15208443,-9.81254079,0.003893,0.000555,0.005358,-76.08107,96.444016,-208.996597,60.187689,24.830159,14.416528,8.553895,-1.0,-1.0,100.073143,0.266876,-0.008883,0.015489,0.311938
879749.326821,-0.09220419,-0.14490351,-9.803711790000001,0.00319,-0.002976,0.002605,-76.111343,96.566757,-209.185898,60.187689,24.830159,14.416528,8.553895,-1.0,-1.0,100.073143,0.266876,-0.008877,0.015483,0.311956
879749.326821,-0.09220419,-0.14490351,-9.803711790000001,0.00319,-0.002976,0.002605,-76.111343,96.566757,-209.185898,60.187689,24.830159,14.416528,8.553895,-1.0,-1.0,100.073143,0.266876,-0.008877,0.015483,0.311956
879749.366795,-0.0896634,-0.14654178,-9.792783450000002,0.003961,-0.000128,0.00455,-76.096664,96.651672,-209.060104,60.187689,24.830159,14.416528,8.553895,-1.0,-1.0,100.072372,0.330292,-0.008897,0.015484,0.311942
879749.386781,-0.10478061,-0.14804271000000002,-9.835594290000001,0.00225,-1e-06,0.002831,-76.129898,96.538269,-209.189087,60.187689,24.830159,14.416528,8.553895,-1.0,-1.0,100.072372,0.330292,-0.008902,0.015481,0.311957
879749.406768,-0.09655002,-0.15373251000000002,-9.81643536,0.00145,0.003256,0.004375,-76.22139,96.346542,-209.199707,60.187689,24.830159,14.416528,8.553895,-1.0,-1.0,100.072372,0.330292,-0.0089,0.015489,0.311969
879749.426755,-0.08876088000000001,-0.15942231,-9.816739470000002,0.000101,0.001496,0.00435,-76.254471,96.473907,-209.076187,60.187689,24.830159,14.416528,8.553895,-1.0,-1.0,100.072372,0.330292,-0.00887,0.01546,0.311972
879749.446742,-0.09624591,-0.16435674000000003,-9.823469130000001,0.004182,-0.001063,0.003918,-76.303314,96.530075,-209.342102,60.187689,24.830159,14.416528,8.553895,-1.0,-1.0,100.072372,0.330292,-0.008875,0.015464,0.311977
879749.466728,-0.10343664,-0.14445225,-9.808351920000002,0.003401,0.002334,0.004349,-76.054184,96.471375,-209.17247,60.187689,24.830159,14.416528,8.553895,-1.0,-1.0,100.072372,0.330292,-0.008808,0.015423,0.311974
879749.486715,-0.10014048,-0.16076628,-9.84697389,0.004188,0.000516,0.003593,-76.142914,96.401779,-209.304092,60.187689,24.830159,14.416528,8.553895,-1.0,-1.0,100.072372,0.330292,-0.008809,0.015447,0.311962
879749.506702,-0.09220419,-0.15253569,-9.81,0.004112,0.000128,0.004626,-76.338455,96.41713,-209.259216,60.187689,24.830159,14.416528,8.553895,-1.0,-1.0,100.072372,0.330292,-0.00879,0.015452,0.311955
879749.506702,-0.09220419,-0.15253569,-9.81,0.004112,0.000128,0.004626,-76.338455,96.41713,-209.259216,60.187689,24.830159,14.416528,8.553895,-1.0,-1.0,100.072372,0.330292,-0.00879,0.015452,0.311955
879749.506702,-0.09220419,-0.15253569,-9.81,0.004112,0.000128,0.004626,-76.338455,96.41713,-209.259216,60.187689,24.830159,14.416528,8.553895,-1.0,-1.0,100.072372,0.330292,-0.00879,0.015452,0.311955
879749.506702,-0.09220419,-0.15253569,-9.81,0.004112,0.000128,0.004626,-76.338455,96.41713,-209.259216,60.187689,24.830159,14.416528,8.553895,-1.0,-1.0,100.072372,0.330292,-0.00879,0.015452,0.311955
879749.606635,-0.0928026,-0.15342840000000002,-9.80760636,0.004398,-0.001713,0.003766,-76.251602,96.550186,-209.583649,60.187689,24.830159,14.416528,8.553895,-1.0,-1.0,100.072372,0.330292,-0.008795,0.015428,0.311956
879749.626622,-0.09160578000000001,-0.14309847,-9.821821049999999,0.003552,-0.000536,0.003326,-76.19751,96.37999,-209.300507,60.187689,24.830159,14.416528,8.553895,-1.0,-1.0,100.072372,0.330292,-0.008795,0.015435,0.311946
879749.646609,-0.08607294000000001,-0.15447807000000002,-9.8242245,0.004475,0.000948,0.004791,-76.293243,96.534302,-209.554626,60.187689,24.830159,14.416528,8.553895,-1.0,-1.0,100.072372,0.330292,-0.008798,0.015426,0.31193
879749.666595,-0.08861373,-0.1474443,-9.81,0.002837,-0.0014,0.003926,-76.305542,96.40303,-209.178925,60.187689,24.830159,14.416528,8.553895,-1.0,-1.0,100.072372,0.330292,-0.0088,0.015427,0.311936
879749.686582,-0.1013373,-0.14385384,-9.815238540000001,0.001114,-0.000427,0.003092,-76.382355,96.512985,-209.137619,60.187689,24.830159,14.416528,8.553895,-1.0,-1.0,100.072372,0.330292,-0.008819,0.015434,0.311931
879749.706569,-0.10537902,-0.16974243,-9.81434583,0.004269,0.000407,0.004377,-76.230621,96.589706,-209.141327,60.187689,24.830159,14.416528,8.553895,-1.0,-1.0,100.072372,0.330292,-0.008828,0.01543,0.311933
879749.726556,-0.08996751000000001,-0.15926535,-9.822272309999999,0.004265,0.000596,0.004918,-76.223145,96.644836,-209.420166,60.187689,24.830159,14.416528,8.553895,-1.0,-1.0,100.072372,0.330292,-0.008826,0.015441,0.311938
879749.746542,-0.09684432000000001,-0.16211025,-9.82122264,0.004265,0.000596,0.004918,-76.207611,96.6521,-209.052429,60.187689,24.830159,14.416528,8.553895,-1.0,-1.0,100.072372,0.330292,-0.008818,0.015448,0.311937
879749.766529,-0.07603731000000001,-0.14654178,-9.803711790000001,0.003126,-7e-05,0.004226,-76.143097,96.587936,-209.337189,60.187689,24.830159,14.416528,8.553895,-1.0,-1.0,100.072372,0.330292,-0.008816,0.015439,0.311929
879749.786516,-0.09011466,-0.14445225,-9.82272357,0.003083,-0.001074,0.004139,-76.113388,96.575027,-209.156418,60.187689,24.830159,14.416528,8.553895,-1.0,-1.0,100.072372,0.330292,-0.008821,0.015434,0.311931
879749.806502,-0.09864936,-0.14654178,-9.800121330000001,0.003439,-2.9e-05,0.003482,-76.223679,96.760941,-209.309464,60.187689,24.830159,14.416528,8.553895,-1.0,-1.0,100.072372,0.330292,-0.008828,0.015445,0.311922
879749.826489,-0.08741691000000001,-0.15373251000000002,-9.817033770000002,0.002437,0.000553,0.004846,-76.301559,96.61882,-209.272003,60.187689,24.830159,14.416528,8.553895,-1.0,-1.0,100.072372,0.330292,-0.008831,0.015445,0.311931
879749.846476,-0.10059174,-0.14190165000000002,-9.82197801,0.003068,-0.000918,0.004566,-76.28244,96.610611,-209.329544,60.187689,24.830159,14.416528,8.553895,-1.0,-1.0,100.072372,0.330292,-0.00882,0.015432,0.311933
879749.846476,-0.10059174,-0.14190165000000002,-9.82197801,0.003068,-0.000918,0.004566,-76.28244,96.610611,-209.329544,60.187689,24.830159,14.416528,8.553895,-1.0,-1.0,100.072372,0.330292,-0.00882,0.015432,0.311933
879749.886449,-0.09295956000000001,-0.15582204,-9.8213796,0.00277,0.000505,0.004058,-76.048615,96.560318,-209.149338,60.187689,24.830159,14.416528,8.553895,-1.0,-1.0,100.072372,0.330292,-0.008814,0.015418,0.311928
879749.906436,-0.09415638000000001,-0.14550192,-9.79413723,0.003362,-0.000696,0.004681,-76.151779,96.702759,-209.219131,60.187689,24.830159,14.416528,8.553895,-1.0,-1.0,100.072372,0.330292,-0.008811,0.015409,0.311927
879749.926423,-0.08996751000000001,-0.15986376000000002,-9.810304109999999,0.003302,-0.000925,0.004487,-76.218689,96.587891,-209.1418,60.187689,24.830159,14.416528,8.553895,-1.0,-1.0,100.072372,0.330292,-0.008807,0.015396,0.311928
879749.946409,-0.08502327,-0.15342840000000002,-9.80236782,0.003812,-0.000329,0.005376,-75.918869,96.59758,-209.309265,60.187689,24.830159,14.416528,8.553895,-1.0,-1.0,100.072372,0.330292,-0.008818,0.015388,0.311942
879749.966396,-0.09759969,-0.15328125,-9.80461431,0.00365,-0.000533,0.004423,-76.085022,96.730347,-209.215469,60.187689,24.830159,14.416528,8.553895,-1.0,-1.0,100.072372,0.330292,-0.008824,0.015381,0.311947
879749.966396,-0.09759969,-0.15328125,-9.80461431,0.00365,-0.000533,0.004423,-76.085022,96.730347,-209.215469,60.187689,24.830159,14.416528,8.553895,-1.0,-1.0,100.072372,0.330292,-0.008824,0.015381,0.311947
879750.00637,-0.08248248000000001,-0.15342840000000002,-9.82212516,0.003304,0.000412,0.00491,-76.110611,96.632233,-209.077759,60.187689,24.830159,14.416528,8.553895,-1.0,-1.0,100.072372,0.330292,-0.008833,0.015375,0.311968
879750.026356,-0.08831943,-0.15103476000000002,-9.807302250000001,0.00284,-0.000555,0.00341,-76.07399,96.660065,-209.071198,60.187689,24.830159,14.416528,8.553895,-1.0,-1.0,100.072372,0.330292,-0.008823,0.015382,0.31196
879750.046343,-0.09714843000000001,-0.14714019,-9.82332198,0.002852,-0.000519,0.004962,-76.087875,96.566254,-209.015091,60.187689,24.830159,14.416528,8.553895,-1.0,-1.0,100.072372,0.330292,-0.008828,0.01537,0.311961
879750.06633,-0.09759969,-0.15297714,-9.801171,0.003233,0.001024,0.004343,-75.943481,96.60907,-208.809311,60.187689,24.830159,14.416528,8.553895,-1.0,-1.0,100.072372,0.330292,-0.008822,0.015351,0.311973
879750.086316,-0.0896634,-0.15806852999999998,-9.811795230000001,0.001875,-0.000351,0.003164,-75.969147,96.783203,-209.102707,60.187689,24.830159,14.416528,8.553895,-1.0,-1.0,100.072372,0.330292,-0.008816,0.015354,0.311978
879750.106303,-0.11661147000000001,-0.15492933000000003,-9.82661814,0.001478,-0.000248,0.003983,-75.914139,96.688416,-208.715561,60.187689,24.830159,14.416528,8.553895,-1.0,-1.0,100.072372,0.330292,-0.008814,0.015344,0.311998
879750.12629,-0.08412075,-0.15074046,-9.81239364,0.001999,-0.000364,0.004404,-76.029022,96.659119,-208.949921,60.187689,24.830159,14.416528,8.553895,-1.0,-1.0,100.072372,0.330292,-0.008808,0.015315,0.311997
879750.146277,-0.09056592000000001,-0.15687171,-9.818534699999999,0.004282,-0.00019,0.005073,-76.103607,96.669296,-209.105804,60.187689,24.830159,14.416528,8.553895,-1.0,-1.0,100.072372,0.330292,-0.00881,0.015301,0.311995
879750.146277,-0.09056592000000001,-0.15687171,-9.818534699999999,0.004282,-0.00019,0.005073,-76.103607,96.669296,-209.105804,60.187689,24.830159,14.416528,8.553895,-1.0,-1.0,100.072372,0.330292,-0.00881,0.015301,0.311995
879750.166263,-0.09550035000000001,-0.14923953,-9.80760636,0.003102,0.000564,0.003289,-76.020981,96.657913,-209.025742,60.187689,24.830159,14.416528,8.553895,-1.0,-1.0,100.072372,0.330292,-0.008819,0.015304,0.311993
879750.226223,-0.08816247,-0.15358536,-9.813590460000002,0.002331,0.000295,0.005544,-76.001801,96.73851,-209.076019,60.187689,24.830159,14.416528,8.553895,-1.0,-1.0,100.072372,0.330292,-0.008814,0.015322,0.311978
879750.24621,-0.09355797,-0.16959528000000001,-9.82766781,0.002451,-0.001301,0.003729,-76.089951,96.655975,-208.938599,60.187689,24.830159,14.416528,8.553895,-1.0,-1.0,100.072372,0.330292,-0.008801,0.015327,0.311981
879750.266197,-0.06945480000000001,-0.15282999000000003,-9.79413723,0.004331,-0.000462,0.004079,-76.089951,96.655975,-208.938599,60.187689,24.830159,14.416528,8.553895,-1.0,-1.0,100.072372,0.330292,-0.008804,0.015325,0.31199
879750.286184,-0.09475478999999999,-0.15657741,-9.82556847,0.00334,0.000211,0.005395,-75.981659,96.57666,-208.718018,60.187689,24.830159,14.416528,8.553895,-1.0,-1.0,100.072372,0.330292,-0.008804,0.015325,0.311986
879750.30617,-0.09968922,-0.15193728,-9.80251497,0.004343,-0.000714,0.003841,-76.270157,96.800491,-208.91449,60.187689,24.830159,14.416528,8.553895,-1.0,-1.0,100.072372,0.330292,-0.008813,0.015333,0.312
879750.326157,-0.08861373,-0.14534496,-9.82586277,0.003123,-0.000222,0.005098,-76.139252,96.726105,-208.910141,60.187689,24.830159,14.416528,8.553895,-1.0,-1.0,100.072372,0.330292,-0.008805,0.015361,0.312008
879750.346144,-0.10537902,-0.14684589,-9.82272357,0.003477,-0.000363,0.005373,-76.109024,96.621445,-209.07309,60.187689,24.830159,14.416528,8.553895,-1.0,-1.0,100.072372,0.330292,-0.008813,0.015377,0.312022
879750.346144,-0.10537902,-0.14684589,-9.82272357,0.003477,-0.000363,0.005373,-76.109024,96.621445,-209.07309,60.187689,24.830159,14.416528,8.553895,-1.0,-1.0,100.072372,0.330292,-0.008813,0.015377,0.312022
879750.386117,-0.09879651,-0.16046217000000002,-9.81239364,0.002794,0.000405,0.003568,-75.96315,96.752121,-209.189774,60.187689,24.830159,14.416528,8.553895,-1.0,-1.0,100.072372,0.330292,-0.008825,0.015416,0.312034
879750.406104,-0.09295956000000001,-0.15672456,-9.816739470000002,0.004062,0.000556,0.004972,-75.846039,96.78392,-209.326828,60.187689,24.830159,14.416528,8.553895,-1.0,-1.0,100.072372,0.330292,-0.008828,0.015435,0.312035
879750.426091,-0.09894366,-0.14954364,-9.81554265,0.002122,0.000736,0.003712,-75.834091,96.83876,-209.138779,60.187689,24.830159,14.416528,8.553895,-1.0,-1.0,100.071716,0.38578,-0.008831,0.015427,0.312036
879750.446077,-0.09595161,-0.15133887000000001,-9.80266212,0.002428,0.001386,0.003265,-75.866531,96.935471,-208.999115,60.187689,24.830159,14.416528,8.553895,-1.0,-1.0,100.071716,0.38578,-0.008843,0.015424,0.312044
879750.446077,-0.09595161,-0.15133887000000001,-9.80266212,0.002428,0.001386,0.003265,-75.866531,96.935471,-208.999115,60.187689,24.830159,14.416528,8.553895,-1.0,-1.0,100.071716,0.38578,-0.008843,0.015424,0.312044
879750.446077,-0.09595161,-0.15133887000000001,-9.80266212,0.002428,0.001386,0.003265,-75.866531,96.935471,-208.999115,60.187689,24.830159,14.416528,8.553895,-1.0,-1.0,100.071716,0.38578,-0.008843,0.015424,0.312044
879750.506037,-0.08562168,-0.16794720000000002,-9.80805762,0.003425,-0.000813,0.004636,-76.0522,96.509933,-209.093155,60.187689,24.830159,14.416528,8.553895,-1.0,-1.0,100.071716,0.38578,-0.008873,0.015464,0.312031
879750.526024,-0.09325386000000001,-0.16061913,-9.82332198,0.003159,-0.001661,0.005692,-75.949799,96.679337,-208.878204,60.187689,24.830159,14.416528,8.553895,-1.0,-1.0,100.071716,0.38578,-0.008876,0.015457,0.312052
879750.546011,-0.10238697000000001,-0.14519781,-9.81404172,0.002605,0.000748,0.005488,-75.934052,96.564407,-209.166977,60.187689,24.830159,14.416528,8.553895,-1.0,-1.0,100.071716,0.38578,-0.008901,0.015457,0.312046
879750.565998,-0.10537902,-0.14983794,-9.79218504,0.003907,-0.000762,0.0044,-76.04129,96.571198,-209.188812,60.187689,24.830159,14.416528,8.553895,-1.0,-1.0,100.071716,0.38578,-0.008906,0.015454,0.312036
879750.585984,-0.1013373,-0.14160735,-9.82901178,0.001898,0.000399,0.004816,-75.96991,96.590836,-208.981903,60.187689,24.830159,14.416528,8.553895,-1.0,-1.0,100.071716,0.38578,-0.00892,0.015463,0.312033
879750.605971,-0.08667135000000001,-0.15418377,-9.80041563,0.002225,-0.000886,0.005439,-75.843124,96.745163,-209.220856,60.187689,24.830159,14.416528,8.553895,-1.0,-1.0,100.071716,0.38578,-0.008926,0.015461,0.312029
879750.625958,-0.08696565,-0.15253569,-9.81793629,0.003727,-0.000465,0.004128,-75.910934,96.781906,-209.070633,60.187689,24.830159,14.416528,8.553895,-1.0,-1.0,100.071716,0.38578,-0.008928,0.015473,0.312038
879750.645944,-0.09805095000000001,-0.16315992,-9.8128449,0.002829,-0.000505,0.005098,-76.021591,96.599106,-208.799179,60.187689,24.830159,14.416528,8.553895,-1.0,-1.0,100.071716,0.38578,-0.008942,0.015483,0.312049
879750.665931,-0.09011466,-0.15552774,-9.82152675,0.004917,-0.000764,0.003929,-76.081177,96.492844,-209.080307,60.187689,24.830159,14.416528,8.553895,-1.0,-1.0,100.071716,0.38578,-0.008946,0.015496,0.312071
879750.685918,-0.08756406,-0.15342840000000002,-9.82078119,0.000982,-0.001043,0.004353,-76.235168,96.483673,-209.107727,60.187689,24.830159,14.416528,8.553895,-1.0,-1.0,100.071716,0.38578,-0.008956,0.015512,0.312071
879750.705905,-0.08816247,-0.14699304000000002,-9.81239364,0.001948,-4.5e-05,0.003745,-76.001816,96.590271,-209.194595,60.187689,24.830159,14.416528,8.553895,-1.0,-1.0,100.071716,0.38578,-0.008948,0.015511,0.312074
879750.725891,-0.09954207,-0.14624748,-9.815689800000001,0.002862,0.000533,0.002498,-76.017624,96.47876,-209.08107,60.187689,24.830159,14.416528,8.553895,-1.0,-1.0,100.071716,0.38578,-0.00895,0.015501,0.312081
879750.745878,-0.09774684000000002,-0.14938668000000002,-9.80461431,0.004829,0.00014,0.005894,-75.987015,96.626068,-209.23085,60.187689,24.830159,14.416528,8.553895,-1.0,-1.0,100.071716,0.38578,-0.008957,0.015507,0.31205
879750.745878,-0.09774684000000002,-0.14938668000000002,-9.80461431,0.004829,0.00014,0.005894,-75.987015,96.626068,-209.23085,60.187689,24.830159,14.416528,8.553895,-1.0,-1.0,100.071716,0.38578,-0.008957,0.015507,0.31205
879750.785852,-0.09609875999999999,-0.14983794,-9.821821049999999,0.002886,-0.000215,0.005025,-75.924393,96.518967,-208.644562,60.187689,24.830159,14.416528,8.553895,-1.0,-1.0,100.071716,0.38578,-0.008964,0.015572,0.31205
879750.805838,-0.09624591,-0.15074046,-9.80490861,0.003217,-0.001822,0.005249,-75.835922,96.702682,-208.768143,60.187689,24.830159,14.416528,8.553895,-1.0,-1.0,100.071716,0.38578,-0.008968,0.015565,0.312061
879750.825825,-0.09011466,-0.15851979,-9.81808344,0.003488,0.000272,0.003777,-76.012009,96.568726,-208.850555,60.187689,24.830159,14.416528,8.553895,-1.0,-1.0,100.071716,0.38578,-0.00898,0.015581,0.312067
879750.845812,-0.07903917,-0.14954364,-9.80550702,0.004311,-0.000576,0.004781,-76.092545,96.442215,-209.077545,60.187689,24.830159,14.416528,8.553895,-1.0,-1.0,100.071716,0.38578,-0.008977,0.015584,0.312083
879750.865798,-0.09460764,-0.15642045000000002,-9.823469130000001,0.003493,0.000739,0.003827,-76.023636,96.592896,-208.978195,60.187689,24.830159,14.416528,8.553895,-1.0,-1.0,100.071716,0.38578,-0.008989,0.015595,0.312077
879750.885785,-0.09520605,-0.15074046,-9.8213796,0.003411,-4.6e-05,0.003508,-75.973831,96.47702,-209.030289,60.187689,24.830159,14.416528,8.553895,-1.0,-1.0,100.071716,0.38578,-0.008987,0.015586,0.312074
879750.905772,-0.09430353000000001,-0.13785993,-9.80820477,0.003912,-0.000992,0.005525,-75.831741,96.454987,-209.101456,60.187689,24.830159,14.416528,8.553895,-1.0,-1.0,100.071716,0.38578,-0.009003,0.015574,0.312091
879750.945745,-0.09879651,-0.16046217000000002,-9.81254079,0.002785,0.000442,0.004905,-75.856628,96.689087,-208.925049,60.187689,24.830159,14.416528,8.553895,-1.0,-1.0,100.071716,0.38578,-0.009011,0.015564,0.312114
879750.965732,-0.09116433,-0.16076628,-9.81119682,0.002056,-0.000149,0.005812,-76.030609,96.602097,-209.121674,60.187689,24.830159,14.416528,8.553895,-1.0,-1.0,100.071716,0.38578,-0.009005,0.015561,0.312116
