timestamp,accel_x,accel_y,accel_z,gyro_x,gyro_y,gyro_z,mag_x,mag_y,mag_z,gps_lat,gps_lon,gps_alt,gps_accuracy,gps_speed,gps_course,pressure,altitude,roll,pitch,yaw
275980.926101,9.30315654,2.01436578,1.1047041,-0.002011,0.031099,-0.013321,-16.672531,123.059937,-139.131073,60.187966,24.830274,18.646513,4.663132,0.14949,-1.0,102.065491,-0.993511,1.675757,-0.221051,-1.401774
275980.946085,9.22815909,1.9130186700000003,1.09407006,-0.027744,0.056273,-0.029253,-16.171173,123.183777,-139.435684,60.187966,24.830274,18.646513,4.663132,0.14949,-1.0,102.065491,-0.993511,1.676256,-0.221259,-1.401906
275980.986051,9.273814830000001,1.9681116300000001,1.0910780100000002,-0.052706,0.096601,-0.049272,-16.216431,123.059494,-139.51767,60.187966,24.830274,18.646513,4.663132,0.14949,-1.0,102.065491,-0.993511,1.678697,-0.222374,-1.400685
275980.986051,9.273814830000001,1.9681116300000001,1.0910780100000002,-0.052706,0.096601,-0.049272,-16.216431,123.059494,-139.51767,60.187966,24.830274,18.646513,4.663132,0.14949,-1.0,102.065491,-0.993511,1.678697,-0.222374,-1.400685
275981.026017,9.62902512,2.16988371,1.00681011,-0.046159,0.126871,-0.037407,-16.559341,123.073486,-139.13205,60.187966,24.830274,18.646513,4.663132,0.14949,-1.0,102.065491,-0.993511,1.682985,-0.224169,-1.398328
275981.026017,9.62902512,2.16988371,1.00681011,-0.046159,0.126871,-0.037407,-16.559341,123.073486,-139.13205,60.187966,24.830274,18.646513,4.663132,0.14949,-1.0,102.065491,-0.993511,1.682985,-0.224169,-1.398328
275981.065983,9.727821630000001,2.09728971,1.26592164,-0.051091,0.1073,-0.005124,-16.635666,122.957779,-138.90416,60.187966,24.830274,18.646513,4.663132,0.14949,-1.0,102.065491,-0.993511,1.688487,-0.225649,-1.396097
275981.085966,9.6133095,2.01540564,1.29840255,-0.071971,0.082977,-0.003278,-16.2883,123.291397,-138.72789,60.187966,24.830274,18.646513,4.663132,0.14949,-1.0,102.065491,-0.993511,1.691162,-0.225857,-1.395077
275981.085966,9.6133095,2.01540564,1.29840255,-0.071971,0.082977,-0.003278,-16.2883,123.291397,-138.72789,60.187966,24.830274,18.646513,4.663132,0.14949,-1.0,102.065491,-0.993511,1.691162,-0.225857,-1.395077
275981.125933,9.6622614,2.15402094,1.22775093,-0.085914,0.031125,-0.002098,-16.72522,123.310745,-138.661484,60.187966,24.830274,18.646513,4.663132,0.14949,-1.0,102.065491,-0.993511,1.695174,-0.225789,-1.392018
275981.145916,9.703718460000001,2.2219748100000003,1.1560496400000002,-0.061232,-0.003597,0.003624,-16.987534,123.109451,-138.469238,60.187966,24.830274,18.646513,4.663132,0.14949,-1.0,102.065491,-0.993511,1.696484,-0.225704,-1.39009
275981.145916,9.703718460000001,2.2219748100000003,1.1560496400000002,-0.061232,-0.003597,0.003624,-16.987534,123.109451,-138.469238,60.187966,24.830274,18.646513,4.663132,0.14949,-1.0,102.065491,-0.993511,1.696484,-0.225704,-1.39009
275981.145916,9.703718460000001,2.2219748100000003,1.1560496400000002,-0.061232,-0.003597,0.003624,-16.987534,123.109451,-138.469238,60.187966,24.830274,18.646513,4.663132,0.14949,-1.0,102.065491,-0.993511,1.696484,-0.225704,-1.39009
275981.205865,9.46287315,2.14624161,1.24316244,-0.063276,-0.049062,0.022122,-16.494934,123.344299,-138.573013,60.187966,24.830274,18.646513,4.663132,0.14949,-1.0,102.065491,-0.993511,1.696265,-0.22518,-1.386288
275981.225848,9.37455372,2.2924792800000002,1.1560496400000002,-0.040995,-0.034008,0.026519,-16.624298,122.794647,-138.365143,60.187966,24.830274,18.646513,4.663132,0.14949,-1.0,102.065491,-0.993511,1.695497,-0.224785,-1.385006
275981.225848,9.37455372,2.2924792800000002,1.1560496400000002,-0.040995,-0.034008,0.026519,-16.624298,122.794647,-138.365143,60.187966,24.830274,18.646513,4.663132,0.14949,-1.0,102.065491,-0.993511,1.695497,-0.224785,-1.385006
275981.265814,9.243129150000001,2.3685264,1.0835929800000001,0.041921,0.014513,0.035302,-16.610397,123.081512,-138.578461,60.187935,24.830318,18.833735,13.84716,0.295854,-1.0,102.065491,-0.993511,1.694509,-0.223703,-1.38335
275981.285798,9.13535649,2.29996431,1.1485646100000002,0.079104,0.040032,0.043877,-16.860947,123.138535,-138.368134,60.187935,24.830318,18.833735,13.84716,0.295854,-1.0,102.065491,-0.993511,1.694447,-0.223198,-1.383688
275981.305781,8.980123050000001,2.2159907100000003,1.2600748800000001,0.103428,0.062841,0.052549,-16.958984,122.78717,-138.308105,60.187935,24.830318,18.833735,13.84716,0.295854,-1.0,102.065491,-0.993511,1.694726,-0.222636,-1.384888
275981.325764,8.86292298,2.23081362,1.25035317,0.123077,0.088584,0.064266,-16.211777,122.967163,-138.91626,60.187935,24.830318,18.833735,13.84716,0.295854,-1.0,102.065491,-0.993511,1.695338,-0.222008,-1.386755
275981.345747,8.780440500000001,2.24174196,1.32249591,0.14363,0.130337,0.091053,-16.565353,123.001343,-138.491028,60.187935,24.830318,18.833735,13.84716,0.295854,-1.0,102.065491,-0.993511,1.696288,-0.221216,-1.389105
275981.36573,8.598415950000001,2.23679772,1.3644140400000002,0.164078,0.185813,0.137049,-16.550171,123.144028,-138.544281,60.187935,24.830318,18.833735,13.84716,0.295854,-1.0,102.065491,-0.993511,1.697786,-0.220141,-1.391921
275981.385713,8.36790057,2.05043715,1.4756300100000002,0.158147,0.252898,0.182113,-16.869507,122.865753,-138.066208,60.187935,24.830318,18.833735,13.84716,0.295854,-1.0,102.065491,-0.993511,1.70012,-0.218422,-1.395257
275981.405696,8.2598238,1.89565497,1.5760746,0.134773,0.317838,0.219953,-16.787521,122.756104,-138.024017,60.187935,24.830318,18.833735,13.84716,0.295854,-1.0,102.065491,-0.993511,1.70364,-0.215804,-1.398924
275981.425679,8.25788142,1.9091339100000002,1.65361284,0.104213,0.390153,0.256724,-16.433777,122.847122,-137.587173,60.187935,24.830318,18.833735,13.84716,0.295854,-1.0,102.065491,-0.993511,1.708512,-0.212311,-1.402423
275981.445662,8.394397380000001,1.93113774,1.6521119100000001,0.08526,0.498426,0.307462,-16.407974,122.398239,-137.299698,60.187935,24.830318,18.833735,13.84716,0.295854,-1.0,102.065491,-0.993511,1.714832,-0.208071,-1.405474
275981.445662,8.394397380000001,1.93113774,1.6521119100000001,0.08526,0.498426,0.307462,-16.407974,122.398239,-137.299698,60.187935,24.830318,18.833735,13.84716,0.295854,-1.0,102.065491,-0.993511,1.714832,-0.208071,-1.405474
275981.485629,8.58853728,1.5447905100000001,1.7670753000000001,0.027483,0.703516,0.356649,-16.781418,122.061249,-135.960327,60.187935,24.830318,18.833735,13.84716,0.295854,-1.0,102.065491,-0.993511,1.733444,-0.196779,-1.410652
275981.505612,8.538692670000001,1.3232512800000003,1.88757153,-0.01527,0.780865,0.32778,-16.700394,121.996094,-135.558853,60.187935,24.830318,18.833735,13.84716,0.295854,-1.0,102.065491,-0.993511,1.746064,-0.189976,-1.41275
275981.545578,8.399184660000001,1.14272766,2.0332206,-0.089589,0.913964,0.206632,-17.164413,121.496017,-134.110397,60.187935,24.830318,18.833735,13.84716,0.295854,-1.0,102.065491,-0.993511,1.77656,-0.177236,-1.413185
275981.545578,8.399184660000001,1.14272766,2.0332206,-0.089589,0.913964,0.206632,-17.164413,121.496017,-134.110397,60.187935,24.830318,18.833735,13.84716,0.295854,-1.0,102.065491,-0.993511,1.77656,-0.177236,-1.413185
275981.585544,8.49887388,1.04587353,2.50788726,-0.169593,1.023085,0.061371,-17.316971,121.317947,-133.504013,60.187935,24.830318,18.833735,13.84716,0.295854,-1.0,102.065491,-0.993511,1.81321,-0.168352,-1.408529
275981.605527,8.57656908,1.14496434,2.73930516,-0.216334,1.065749,0.010126,-17.783234,121.308411,-132.522125,60.187935,24.830318,18.833735,13.84716,0.295854,-1.0,102.065491,-0.993511,1.833538,-0.165732,-1.40535
275981.625511,8.57701053,1.1557455300000001,2.90021859,-0.259506,1.101039,-0.014222,-17.691315,121.466202,-131.69133,60.187935,24.830318,18.833735,13.84716,0.295854,-1.0,102.065491,-0.993511,1.854979,-0.164056,-1.400691
275981.645494,8.45037324,1.12715919,3.1145769000000003,-0.307504,1.138803,-0.024646,-18.212387,121.465179,-130.976196,60.187935,24.830318,18.833735,13.84716,0.295854,-1.0,102.065491,-0.993511,1.877415,-0.162796,-1.395375
275981.645494,8.45037324,1.12715919,3.1145769000000003,-0.307504,1.138803,-0.024646,-18.212387,121.465179,-130.976196,60.187935,24.830318,18.833735,13.84716,0.295854,-1.0,102.065491,-0.993511,1.877415,-0.162796,-1.395375
275981.665477,8.67805353,1.42054686,3.3958394100000002,-0.303415,1.166738,0.03788,-23.807648,118.499908,-124.423386,60.187935,24.830318,18.833735,13.84716,0.295854,-1.0,102.065491,-0.993511,1.900798,-0.161461,-1.389749
275981.665477,8.67805353,1.42054686,3.3958394100000002,-0.303415,1.166738,0.03788,-23.807648,118.499908,-124.423386,60.187935,24.830318,18.833735,13.84716,0.295854,-1.0,102.065491,-0.993511,1.900798,-0.161461,-1.389749
275981.665477,8.67805353,1.42054686,3.3958394100000002,-0.303415,1.166738,0.03788,-23.807648,118.499908,-124.423386,60.187935,24.830318,18.833735,13.84716,0.295854,-1.0,102.065491,-0.993511,1.900798,-0.161461,-1.389749
275981.665477,8.67805353,1.42054686,3.3958394100000002,-0.303415,1.166738,0.03788,-23.807648,118.499908,-124.423386,60.187935,24.830318,18.833735,13.84716,0.295854,-1.0,102.065491,-0.993511,1.900798,-0.161461,-1.389749
275981.665477,8.67805353,1.42054686,3.3958394100000002,-0.303415,1.166738,0.03788,-23.807648,118.499908,-124.423386,60.187935,24.830318,18.833735,13.84716,0.295854,-1.0,102.065491,-0.993511,1.900798,-0.161461,-1.389749
275981.665477,8.67805353,1.42054686,3.3958394100000002,-0.303415,1.166738,0.03788,-23.807648,118.499908,-124.423386,60.187935,24.830318,18.833735,13.84716,0.295854,-1.0,102.065491,-0.993511,1.900798,-0.161461,-1.389749
275981.705443,8.18946648,1.60376823,3.7082388600000002,-0.293279,1.238357,0.076795,-20.190414,120.725052,-127.441895,60.187935,24.830318,18.833735,13.84716,0.295854,-1.0,102.065491,-0.993511,1.949928,-0.156326,-1.371836
275981.785375,8.31385728,0.80187921,4.1971202100000005,-0.368687,1.481164,0.334211,-22.609283,119.422287,-122.276367,60.187935,24.830318,18.833735,13.84716,0.295854,-1.0,102.065491,-0.993511,2.055164,-0.135622,-1.353009
275981.845325,7.522003890000001,0.7286868000000001,5.17473576,-0.515344,1.675791,0.298341,-27.547623,116.831207,-115.571609,60.187935,24.830318,18.833735,13.84716,0.295854,-1.0,102.065491,-0.993511,2.145784,-0.106914,-1.340059
275981.865308,7.566462810000001,0.91265373,5.2814685599999995,-0.479644,1.696108,0.296037,-26.677139,117.219864,-116.792648,60.187935,24.830318,18.833735,13.84716,0.295854,-1.0,102.065491,-0.993511,2.178176,-0.096335,-1.331031
275981.885291,7.146889110000001,1.2651662700000001,5.4660339,-0.399268,1.586604,0.345289,-29.363174,115.875076,-113.048508,60.187935,24.830318,18.833735,13.84716,0.295854,-1.0,102.065491,-0.993511,2.211063,-0.085849,-1.326233
275981.905274,7.375167810000001,1.1795445900000001,6.10909902,-0.367552,1.50404,0.394308,-32.858505,114.040924,-109.305618,60.187935,24.830318,18.833735,13.84716,0.295854,-1.0,102.065491,-0.993511,2.24426,-0.075519,-1.322828
275981.925257,7.33220001,0.8264336400000001,6.2405235900000005,-0.331935,1.448237,0.348638,-30.212494,115.717087,-113.097641,60.187935,24.830318,18.833735,13.84716,0.295854,-1.0,102.065491,-0.993511,2.27669,-0.064994,-1.321504
275981.94524,7.40764872,0.37855809,6.195466260000001,-0.275541,1.378888,0.283361,-30.753708,115.718384,-112.474091,60.187935,24.830318,18.833735,13.84716,0.295854,-1.0,102.065491,-0.993511,2.307355,-0.054701,-1.32128
275981.94524,7.40764872,0.37855809,6.195466260000001,-0.275541,1.378888,0.283361,-30.753708,115.718384,-112.474091,60.187935,24.830318,18.833735,13.84716,0.295854,-1.0,102.065491,-0.993511,2.307355,-0.054701,-1.32128
275981.985207,6.27211179,0.51118929,6.73284825,-0.18332,1.39684,0.124672,-32.416611,114.893661,-110.994064,60.187935,24.830318,18.833735,13.84716,0.295854,-1.0,102.064171,-0.882534,2.364083,-0.038868,-1.320756
275981.985207,6.27211179,0.51118929,6.73284825,-0.18332,1.39684,0.124672,-32.416611,114.893661,-110.994064,60.187935,24.830318,18.833735,13.84716,0.295854,-1.0,102.064171,-0.882534,2.364083,-0.038868,-1.320756
275982.025173,6.55502238,0.62465175,7.164998370000001,-0.050535,1.445894,0.027265,-34.842621,114.739731,-109.572739,60.187935,24.830318,18.833735,13.84716,0.295854,-1.0,102.064171,-0.882534,2.420144,-0.029857,-1.319645
275982.025173,6.55502238,0.62465175,7.164998370000001,-0.050535,1.445894,0.027265,-34.842621,114.739731,-109.572739,60.187935,24.830318,18.833735,13.84716,0.295854,-1.0,102.064171,-0.882534,2.420144,-0.029857,-1.319645
275982.025173,6.55502238,0.62465175,7.164998370000001,-0.050535,1.445894,0.027265,-34.842621,114.739731,-109.572739,60.187935,24.830318,18.833735,13.84716,0.295854,-1.0,102.064171,-0.882534,2.420144,-0.029857,-1.319645
275982.065139,5.214260250000001,0.10733121,7.469471340000001,0.022832,1.540765,-0.038502,-37.025925,114.501617,-108.215195,60.187935,24.830318,18.833735,13.84716,0.295854,-1.0,102.064171,-0.882534,2.477923,-0.027401,-1.318908
275982.105105,5.42801034,0.54845748,7.997268960000001,0.0499,1.62137,-0.163613,-39.916061,114.302856,-106.567368,60.187935,24.830318,18.833735,13.84716,0.295854,-1.0,102.064171,-0.882534,2.539182,-0.029016,-1.317818
275982.125089,4.73495346,0.66371517,8.03498841,0.066545,1.710417,-0.180848,-40.900269,114.709351,-106.842056,60.187935,24.830318,18.833735,13.84716,0.295854,-1.0,102.064171,-0.882534,2.571192,-0.031106,-1.315883
275982.145072,4.0478806800000005,0.55983708,8.42508306,0.071521,1.812334,-0.1859,-42.567078,114.643448,-106.0336,60.187935,24.830318,18.833735,13.84716,0.295854,-1.0,102.064171,-0.882534,2.604405,-0.033869,-1.313453
275982.185038,4.32585684,0.33335360999999997,9.13804443,0.07131,1.862095,-0.328153,-46.332047,114.578659,-104.862488,60.187935,24.830318,18.833735,13.84716,0.295854,-1.0,102.064171,-0.882534,2.676407,-0.040125,-1.307796
275982.205021,3.8972971800000002,0.25147935000000005,9.27651258,0.054411,1.832796,-0.397236,-47.524719,114.879028,-104.457779,60.187935,24.830318,18.833735,13.84716,0.295854,-1.0,102.064171,-0.882534,2.713721,-0.043907,-1.303291
275982.225004,3.83532741,0.41583609000000005,9.56615283,0.038453,1.721864,-0.459658,-48.983536,115.122955,-104.588684,60.187935,24.830318,18.833735,13.84716,0.295854,-1.0,102.064171,-0.882534,2.751071,-0.047958,-1.297071
275982.244987,3.75090255,0.6515998199999999,9.72901845,0.029728,1.567559,-0.515709,-50.694153,114.994186,-104.067429,60.18793,24.830314,19.234575,13.745886,0.129585,-1.0,102.064171,-0.882534,2.787185,-0.051911,-1.289427
275982.26497,3.42802602,0.82748331,9.874814670000001,0.032108,1.458606,-0.54447,-50.694153,114.994186,-104.067429,60.18793,24.830314,19.234575,13.745886,0.129585,-1.0,102.064171,-0.882534,2.82067,-0.055772,-1.280379
275982.26497,3.42802602,0.82748331,9.874814670000001,0.032108,1.458606,-0.54447,-50.694153,114.994186,-104.067429,60.18793,24.830314,19.234575,13.745886,0.129585,-1.0,102.064171,-0.882534,2.82067,-0.055772,-1.280379
275982.304937,3.08987532,0.86520276,10.38405177,0.042409,1.277817,-0.545684,-53.749222,115.039688,-103.784027,60.18793,24.830314,19.234575,13.745886,0.129585,-1.0,102.064171,-0.882534,2.880631,-0.063204,-1.259831
275982.32492,3.13897437,1.07806014,10.52745435,0.069783,1.086798,-0.517687,-54.856873,115.301193,-104.276566,60.18793,24.830314,19.234575,13.745886,0.129585,-1.0,102.064171,-0.882534,2.908386,-0.066619,-1.24915
275982.344903,2.7930443400000002,1.3233984300000001,10.637032050000002,0.114004,0.903739,-0.480422,-55.91658,115.479889,-104.090897,60.18793,24.830314,19.234575,13.745886,0.129585,-1.0,102.064171,-0.882534,2.933016,-0.069925,-1.238833
275982.344903,2.7930443400000002,1.3233984300000001,10.637032050000002,0.114004,0.903739,-0.480422,-55.91658,115.479889,-104.090897,60.18793,24.830314,19.234575,13.745886,0.129585,-1.0,102.064171,-0.882534,2.933016,-0.069925,-1.238833
275982.344903,2.7930443400000002,1.3233984300000001,10.637032050000002,0.114004,0.903739,-0.480422,-55.91658,115.479889,-104.090897,60.18793,24.830314,19.234575,13.745886,0.129585,-1.0,102.064171,-0.882534,2.933016,-0.069925,-1.238833
275982.344903,2.7930443400000002,1.3233984300000001,10.637032050000002,0.114004,0.903739,-0.480422,-55.91658,115.479889,-104.090897,60.18793,24.830314,19.234575,13.745886,0.129585,-1.0,102.064171,-0.882534,2.933016,-0.069925,-1.238833
275982.424835,1.74671955,0.75562506,10.427912280000001,0.025314,0.292832,-0.275984,-58.773361,115.406082,-104.440704,60.18793,24.830314,19.234575,13.745886,0.129585,-1.0,102.064171,-0.882534,2.993937,-0.085778,-1.205758
275982.444819,1.75001571,0.85247919,10.463836500000001,-0.055849,0.228161,-0.197333,-58.637863,115.68251,-104.726181,60.18793,24.830314,19.234575,13.745886,0.129585,-1.0,102.064171,-0.882534,3.001051,-0.088029,-1.199678
275982.464802,1.793268,0.9466355700000001,10.44407916,-0.134425,0.172538,-0.095492,-59.098267,115.138428,-104.139648,60.18793,24.830314,19.234575,13.745886,0.129585,-1.0,102.064171,-0.882534,3.006857,-0.088439,-1.194747
275982.484785,1.53969912,0.77943393,10.176442740000002,-0.228276,0.171308,0.006781,-58.903381,115.380051,-104.664261,60.18793,24.830314,19.234575,13.745886,0.129585,-1.0,102.064171,-0.882534,3.011175,-0.087005,-1.191338
275982.504768,1.6341498,0.5996558700000001,10.189764720000001,-0.325131,0.161125,0.070442,-59.284424,115.003967,-104.563751,60.18793,24.830314,19.234575,13.745886,0.129585,-1.0,102.064171,-0.882534,3.014699,-0.083654,-1.189797
275982.524751,1.6271160300000003,0.50535234,10.393940250000002,-0.41124,0.167599,0.095156,-59.148758,115.038864,-104.329941,60.18793,24.830314,19.234575,13.745886,0.129585,-1.0,102.064171,-0.882534,3.018058,-0.078212,-1.189782
275982.544734,1.3638156300000002,0.55864026,10.666069649999999,-0.461382,0.218576,0.127923,-59.921356,114.34581,-103.721802,60.18793,24.830314,19.234575,13.745886,0.129585,-1.0,102.064171,-0.882534,3.021193,-0.070782,-1.190456
275982.564717,1.10350728,0.6914088,10.73552445,-0.464572,0.273252,0.185355,-59.638992,114.255188,-103.679291,60.18793,24.830314,19.234575,13.745886,0.129585,-1.0,102.064171,-0.882534,3.024841,-0.061859,-1.191486
275982.584701,0.96908085,0.75862692,10.64810754,-0.428702,0.282455,0.223742,-60.310028,113.843933,-103.735672,60.18793,24.830314,19.234575,13.745886,0.129585,-1.0,102.064171,-0.882534,3.029627,-0.052218,-1.193382
275982.604684,0.8707356,0.6974027100000001,10.480160340000001,-0.366948,0.259258,0.214342,-60.667984,113.470627,-103.888245,60.18793,24.830314,19.234575,13.745886,0.129585,-1.0,102.064171,-0.882534,3.03514,-0.042754,-1.19638
275982.624667,0.8975365200000001,0.51972399,10.44168552,-0.287919,0.223004,0.181682,-60.935303,113.410843,-103.357056,60.18793,24.830314,19.234575,13.745886,0.129585,-1.0,102.064171,-0.882534,3.040501,-0.034243,-1.199924
275982.64465,0.9650391300000001,0.27991854,10.42956036,-0.198395,0.175043,0.156764,-61.485138,112.947388,-102.671677,60.18793,24.830314,19.234575,13.745886,0.129585,-1.0,102.064171,-0.882534,3.045354,-0.027181,-1.203126
275982.64465,0.9650391300000001,0.27991854,10.42956036,-0.198395,0.175043,0.156764,-61.485138,112.947388,-102.671677,60.18793,24.830314,19.234575,13.745886,0.129585,-1.0,102.064171,-0.882534,3.045354,-0.027181,-1.203126
275982.684616,0.82507986,0.0754389,10.18347651,-0.054921,0.131731,0.129091,-61.247726,112.81897,-103.203232,60.18793,24.830314,19.234575,13.745886,0.129585,-1.0,102.064171,-0.882534,3.052446,-0.018337,-1.208478
275982.704599,0.80861868,0.17214588000000003,10.32118929,0.003706,0.157135,0.138831,-61.220139,112.890411,-103.678864,60.18793,24.830314,19.234575,13.745886,0.129585,-1.0,102.064171,-0.882534,3.055054,-0.016261,-1.210824
275982.724583,0.90890631,0.31763799,10.489440600000002,0.069862,0.170885,0.154208,-61.446655,112.856476,-103.366501,60.18793,24.830314,19.234575,13.745886,0.129585,-1.0,102.064171,-0.882534,3.05788,-0.015404,-1.213337
275982.744566,0.9307629900000001,0.31959018000000006,10.50590178,0.130029,0.172011,0.172643,-61.402756,113.024597,-103.614929,60.18793,24.830314,19.234575,13.745886,0.129585,-1.0,102.064171,-0.882534,3.061118,-0.0158,-1.21619
275982.784532,0.91624419,0.12558762,10.81980216,0.182152,0.155613,0.167323,-61.536697,113.335266,-103.550186,60.18793,24.830314,19.234575,13.745886,0.129585,-1.0,102.064171,-0.882534,3.067861,-0.020224,-1.223097
275982.784532,0.91624419,0.12558762,10.81980216,0.182152,0.155613,0.167323,-61.536697,113.335266,-103.550186,60.18793,24.830314,19.234575,13.745886,0.129585,-1.0,102.064171,-0.882534,3.067861,-0.020224,-1.223097
275982.804515,0.7821218700000001,0.16705449,10.561141890000002,0.172236,0.141641,0.158741,-61.745178,113.450424,-103.637512,60.18793,24.830314,19.234575,13.745886,0.129585,-1.0,102.064171,-0.882534,3.071098,-0.02349,-1.226668
275982.844481,0.39772683000000003,-0.00928026,9.979899390000002,0.086415,0.15895,0.139735,-61.340988,113.895767,-103.947922,60.18793,24.830314,19.234575,13.745886,0.129585,-1.0,102.064171,-0.882534,3.076838,-0.029731,-1.233339
275982.844481,0.39772683000000003,-0.00928026,9.979899390000002,0.086415,0.15895,0.139735,-61.340988,113.895767,-103.947922,60.18793,24.830314,19.234575,13.745886,0.129585,-1.0,102.064171,-0.882534,3.076838,-0.029731,-1.233339
275982.864465,0.42257556000000007,-0.06811083000000001,9.85460607,0.012875,0.150202,0.106809,-61.322235,114.008987,-103.892532,60.18793,24.830314,19.234575,13.745886,0.129585,-1.0,102.064171,-0.882534,3.079878,-0.03188,-1.236429
275982.904431,0.40954788000000003,-0.025594290000000002,9.760008240000001,-0.117705,0.122688,0.065678,-61.900665,113.813324,-103.931335,60.18793,24.830314,19.234575,13.745886,0.129585,-1.0,102.064171,-0.882534,3.085786,-0.032293,-1.240663
275982.924414,0.41553198,0.02604555,9.68186178,-0.174195,0.094061,0.045101,-61.943512,113.591888,-103.914551,60.18793,24.830314,19.234575,13.745886,0.129585,-1.0,102.064171,-0.882534,3.088379,-0.030549,-1.241964
275982.944397,0.39412656000000007,-0.04699971,9.71375409,-0.229325,0.083837,0.018562,-61.943512,113.591888,-103.914551,60.18793,24.830314,19.234575,13.745886,0.129585,-1.0,102.064171,-0.882534,3.090505,-0.027603,-1.242896
275982.944397,0.39412656000000007,-0.04699971,9.71375409,-0.229325,0.083837,0.018562,-61.943512,113.591888,-103.914551,60.18793,24.830314,19.234575,13.745886,0.129585,-1.0,102.064171,-0.882534,3.090505,-0.027603,-1.242896
275982.96438,0.4451778,0.0026977500000000005,9.7143525,-0.260673,0.074151,-0.007409,-62.319534,113.161636,-103.601334,60.18793,24.830314,19.234575,13.745886,0.129585,-1.0,102.064171,-0.882534,3.092237,-0.023548,-1.243294
275983.004347,0.21584943000000004,-0.37706697,11.30134563,-0.224062,0.131196,-0.068051,-62.428192,112.727081,-103.142181,60.18793,24.830314,19.234575,13.745886,0.129585,-1.0,102.064171,-0.882534,3.095223,-0.01325,-1.253389
275983.004347,0.21584943000000004,-0.37706697,11.30134563,-0.224062,0.131196,-0.068051,-62.428192,112.727081,-103.142181,60.18793,24.830314,19.234575,13.745886,0.129585,-1.0,102.064171,-0.882534,3.095223,-0.01325,-1.253389
275983.044313,0.22228479,0.26839179,9.83185668,-0.054321,0.35983,-0.078202,-63.250977,112.666016,-103.457626,60.18793,24.830314,19.234575,13.745886,0.129585,-1.0,102.063087,-0.792694,3.102302,-0.004076,-1.261034
275983.064296,0.44951382000000006,0.8963397000000001,10.19515041,0.032875,0.234647,-0.075951,-63.785828,112.777863,-103.749664,60.18793,24.830314,19.234575,13.745886,0.129585,-1.0,102.063087,-0.792694,3.107621,-0.002422,-1.263694
275983.084279,-0.23096664,-0.19893699,9.77661657,0.057208,0.331379,-0.064469,-64.229599,112.883636,-103.231949,60.18793,24.830314,19.234575,13.745886,0.129585,-1.0,102.063087,-0.792694,3.113621,-0.002233,-1.266747
275983.104262,0.15971661,-0.38828961,9.74967831,0.009228,0.354535,-0.056637,-64.130661,113.242218,-103.479309,60.18793,24.830314,19.234575,13.745886,0.129585,-1.0,102.063087,-0.792694,3.119649,-0.003044,-1.26966
275983.124245,0.03577707,-0.38544471,9.60971904,-0.029162,0.324751,-0.053059,-63.736618,113.189438,-103.685654,60.18793,24.830314,19.234575,13.745886,0.129585,-1.0,102.063087,-0.792694,3.126384,-0.00372,-1.273297
275983.144229,-0.18172044,-0.5234616,9.63875664,-0.080777,0.328691,-0.031783,-63.712234,112.935104,-103.567673,60.18793,24.830314,19.234575,13.745886,0.129585,-1.0,102.063087,-0.792694,3.132874,-0.003465,-1.277646
275983.164212,-0.05658408,-0.33485454,9.3967047,-0.082544,0.311675,-0.01747,-63.824707,112.854126,-103.40509,60.18793,24.830314,19.234575,13.745886,0.129585,-1.0,102.063087,-0.792694,3.139291,-0.002395,-1.282382
275983.164212,-0.05658408,-0.33485454,9.3967047,-0.082544,0.311675,-0.01747,-63.824707,112.854126,-103.40509,60.18793,24.830314,19.234575,13.745886,0.129585,-1.0,102.063087,-0.792694,3.139291,-0.002395,-1.282382
275983.164212,-0.05658408,-0.33485454,9.3967047,-0.082544,0.311675,-0.01747,-63.824707,112.854126,-103.40509,60.18793,24.830314,19.234575,13.745886,0.129585,-1.0,102.063087,-0.792694,3.139291,-0.002395,-1.282382
275983.164212,-0.05658408,-0.33485454,9.3967047,-0.082544,0.311675,-0.01747,-63.824707,112.854126,-103.40509,60.18793,24.830314,19.234575,13.745886,0.129585,-1.0,102.063087,-0.792694,3.139291,-0.002395,-1.282382
275983.164212,-0.05658408,-0.33485454,9.3967047,-0.082544,0.311675,-0.01747,-63.824707,112.854126,-103.40509,60.18793,24.830314,19.234575,13.745886,0.129585,-1.0,102.063087,-0.792694,3.139291,-0.002395,-1.282382
275983.164212,-0.05658408,-0.33485454,9.3967047,-0.082544,0.311675,-0.01747,-63.824707,112.854126,-103.40509,60.18793,24.830314,19.234575,13.745886,0.129585,-1.0,102.063087,-0.792694,3.139291,-0.002395,-1.282382
275983.164212,-0.05658408,-0.33485454,9.3967047,-0.082544,0.311675,-0.01747,-63.824707,112.854126,-103.40509,60.18793,24.830314,19.234575,13.745886,0.129585,-1.0,102.063087,-0.792694,3.139291,-0.002395,-1.282382
275983.164212,-0.05658408,-0.33485454,9.3967047,-0.082544,0.311675,-0.01747,-63.824707,112.854126,-103.40509,60.18793,24.830314,19.234575,13.745886,0.129585,-1.0,102.063087,-0.792694,3.139291,-0.002395,-1.282382
275983.164212,-0.05658408,-0.33485454,9.3967047,-0.082544,0.311675,-0.01747,-63.824707,112.854126,-103.40509,60.18793,24.830314,19.234575,13.745886,0.129585,-1.0,102.063087,-0.792694,3.139291,-0.002395,-1.282382
275983.224161,0.33978897,0.95022603,10.079137350000002,0.15697,0.254477,0.076321,-65.916946,113.036713,-103.601273,60.18793,24.830314,19.234575,13.745886,0.129585,-1.0,102.063087,-0.792694,-3.125223,-0.008114,-1.296942
275983.304094,-0.34398765000000003,0.24129657000000002,9.70626906,-0.00719,0.026771,0.056419,-67.100372,113.255539,-103.243317,60.187928,24.830313,19.431265,13.340889,0.139851,-1.0,102.063087,-0.792694,-3.11936,-0.011504,-1.315458
275983.384026,-0.62779095,0.54905589,9.708662700000001,-0.047214,-0.005462,-0.096031,-68.647537,112.451447,-103.876404,60.187928,24.830313,19.431265,13.340889,0.139851,-1.0,102.063087,-0.792694,-3.119101,-0.010006,-1.324411
275983.40401,-0.50579379,0.55608966,10.16102142,-0.059471,-0.005682,-0.105734,-68.590149,112.687424,-104.435059,60.187928,24.830313,19.431265,13.340889,0.139851,-1.0,102.063087,-0.792694,-3.118843,-0.009186,-1.323591
275983.443976,0.19250163000000003,-0.22617936000000002,9.82197801,-0.019249,-0.024971,0.081364,-67.474213,111.198914,-104.456863,60.187928,24.830313,19.431265,13.340889,0.139851,-1.0,102.063087,-0.792694,-3.118856,-0.006601,-1.32084
275983.463959,0.24189498,-0.48634056000000003,10.1746377,0.026211,0.01097,0.08916,-65.639557,110.836548,-104.655319,60.187928,24.830313,19.431265,13.340889,0.139851,-1.0,102.063087,-0.792694,-3.118945,-0.005827,-1.321475
275983.463959,0.24189498,-0.48634056000000003,10.1746377,0.026211,0.01097,0.08916,-65.639557,110.836548,-104.655319,60.187928,24.830313,19.431265,13.340889,0.139851,-1.0,102.063087,-0.792694,-3.118945,-0.005827,-1.321475
275983.503925,-0.13621185,-0.58004568,9.49924863,0.008786,-0.008184,-0.010717,-64.582413,110.718887,-104.469803,60.187928,24.830313,19.431265,13.340889,0.139851,-1.0,102.063087,-0.792694,-3.119167,-0.005951,-1.324026
275983.503925,-0.13621185,-0.58004568,9.49924863,0.008786,-0.008184,-0.010717,-64.582413,110.718887,-104.469803,60.187928,24.830313,19.431265,13.340889,0.139851,-1.0,102.063087,-0.792694,-3.119167,-0.005951,-1.324026
275983.543892,-0.12379239,-0.14729715000000002,9.755809560000001,0.003961,-0.005236,0.042228,-65.194397,111.020798,-104.859985,60.187928,24.830313,19.431265,13.340889,0.139851,-1.0,102.063087,-0.792694,-3.119155,-0.005696,-1.323133
275983.543892,-0.12379239,-0.14729715000000002,9.755809560000001,0.003961,-0.005236,0.042228,-65.194397,111.020798,-104.859985,60.187928,24.830313,19.431265,13.340889,0.139851,-1.0,102.063087,-0.792694,-3.119155,-0.005696,-1.323133
275983.563875,-0.25222491,-0.008377740000000002,9.81643536,0.007067,0.008113,0.133134,-65.376785,111.363358,-104.714325,60.187928,24.830313,19.431265,13.340889,0.139851,-1.0,102.063087,-0.792694,-3.118982,-0.005675,-1.323003
275983.603841,-0.67958775,0.3614985,9.711350640000001,0.000567,0.003243,0.070441,-65.457153,111.129745,-104.781128,60.187928,24.830313,19.431265,13.340889,0.139851,-1.0,102.063087,-0.792694,-3.11907,-0.005763,-1.32761
275983.623824,-0.81416133,0.79140213,9.815238540000001,0.016596,-0.001932,-0.040194,-65.457153,111.129745,-104.781128,60.187928,24.830313,19.431265,13.340889,0.139851,-1.0,102.063087,-0.792694,-3.119014,-0.006157,-1.330267
275983.623824,-0.81416133,0.79140213,9.815238540000001,0.016596,-0.001932,-0.040194,-65.457153,111.129745,-104.781128,60.187928,24.830313,19.431265,13.340889,0.139851,-1.0,102.063087,-0.792694,-3.119014,-0.006157,-1.330267
275983.643807,-0.3182364,0.38515041,9.787849020000001,-0.009894,-0.003193,-0.055545,-65.618591,111.243423,-105.097244,60.187928,24.830313,19.431265,13.340889,0.139851,-1.0,102.063087,-0.792694,-3.118958,-0.006259,-1.330402
275983.683774,0.19878984000000002,0.12379239,9.79413723,-0.002897,0.002491,0.021349,-65.669144,111.393204,-104.908829,60.187928,24.830313,19.431265,13.340889,0.139851,-1.0,102.063087,-0.792694,-3.119052,-0.006008,-1.328282
275983.703757,-0.16061913,-0.329616,9.69713595,-0.004623,-0.002174,0.021056,-65.017807,111.319351,-104.861923,60.187928,24.830313,19.431265,13.340889,0.139851,-1.0,102.063087,-0.792694,-3.119063,-0.005701,-1.328186
275983.703757,-0.16061913,-0.329616,9.69713595,-0.004623,-0.002174,0.021056,-65.017807,111.319351,-104.861923,60.187928,24.830313,19.431265,13.340889,0.139851,-1.0,102.063087,-0.792694,-3.119063,-0.005701,-1.328186
275983.743723,-0.49502241,-0.25147935000000005,9.78230637,0.009421,-0.004292,0.000662,-63.828598,111.682419,-104.88382,60.187928,24.830313,19.431265,13.340889,0.139851,-1.0,102.063087,-0.792694,-3.118997,-0.005532,-1.328787
275983.763706,-0.26494848000000004,-0.00509139,9.784405710000001,0.005922,0.001915,0.004668,-64.010803,112.026749,-105.188873,60.187928,24.830313,19.431265,13.340889,0.139851,-1.0,102.063087,-0.792694,-3.118973,-0.005521,-1.328736
275983.783689,-0.09355797,0.29369178,9.82107549,0.008333,-0.00274,0.004887,-65.050278,111.34761,-104.456741,60.187928,24.830313,19.431265,13.340889,0.139851,-1.0,102.063087,-0.792694,-3.119035,-0.00567,-1.328715
275983.803673,-0.19518957000000003,0.34024023,9.79009551,0.008333,-0.00274,0.004887,-64.82251,111.481674,-104.985626,60.187928,24.830313,19.431265,13.340889,0.139851,-1.0,102.063087,-0.792694,-3.119029,-0.005804,-1.328738
275983.823656,-0.18471249,0.24444558,9.77737194,-0.003246,-0.002705,0.006163,-65.019287,111.548828,-105.117828,60.187928,24.830313,19.431265,13.340889,0.139851,-1.0,102.063087,-0.792694,-3.119037,-0.005836,-1.328733
275983.823656,-0.18471249,0.24444558,9.77737194,-0.003246,-0.002705,0.006163,-65.019287,111.548828,-105.117828,60.187928,24.830313,19.431265,13.340889,0.139851,-1.0,102.063087,-0.792694,-3.119037,-0.005836,-1.328733
275983.823656,-0.18471249,0.24444558,9.77737194,-0.003246,-0.002705,0.006163,-65.019287,111.548828,-105.117828,60.187928,24.830313,19.431265,13.340889,0.139851,-1.0,102.063087,-0.792694,-3.119037,-0.005836,-1.328733
275983.863622,-0.21840003000000002,-0.14654178,9.78261048,0.002162,-7.6e-05,0.001695,-64.220612,111.807465,-105.019196,60.187928,24.830313,19.431265,13.340889,0.139851,-1.0,102.063087,-0.792694,-3.119028,-0.005694,-1.32876
275983.903588,-0.23845167,-0.038170710000000004,9.784101600000001,0.0044,-0.000514,0.002393,-64.373459,111.580658,-104.715149,60.187928,24.830313,19.431265,13.340889,0.139851,-1.0,102.063087,-0.792694,-3.119004,-0.005635,-1.328705
275983.923571,-0.21555513,0.16061913,9.78993855,0.004914,-0.000145,0.002324,-64.522324,111.558548,-105.123703,60.187928,24.830313,19.431265,13.340889,0.139851,-1.0,102.063087,-0.792694,-3.119014,-0.005682,-1.328726
275983.943555,-0.20776599,0.19295289,9.77856876,0.002447,-2.6e-05,0.004291,-64.76384,111.529984,-104.822861,60.187928,24.830313,19.431265,13.340889,0.139851,-1.0,102.063087,-0.792694,-3.119009,-0.00574,-1.328725
275983.963538,-0.20522520000000002,0.19040229,9.77751909,0.000182,-0.002295,0.004435,-64.635544,111.600067,-104.824692,60.187928,24.830313,19.431265,13.340889,0.139851,-1.0,102.063087,-0.792694,-3.119003,-0.005777,-1.328706
275983.983521,-0.22199049,0.06675705000000001,9.78500412,0.001564,3.5e-05,0.005557,-64.569275,111.613129,-105.048721,60.187928,24.830313,19.431265,13.340889,0.139851,-1.0,102.063087,-0.792694,-3.118992,-0.005758,-1.32871
275984.003504,-0.23007393000000004,-0.07724394000000001,9.78904584,0.002447,-0.000255,0.003956,-64.240402,111.976913,-105.218399,60.187928,24.830313,19.431265,13.340889,0.139851,-1.0,102.063087,-0.792694,-3.118991,-0.005708,-1.328714
275984.023487,-0.25297047,-0.07469334000000001,9.78634809,0.004771,-0.002072,0.004445,-64.106628,111.912064,-105.250092,60.187928,24.830313,19.431265,13.340889,0.139851,-1.0,102.063087,-0.792694,-3.118995,-0.005678,-1.328708
275984.063453,-0.22722903,0.10208286000000001,9.79368597,0.004115,-6.2e-05,0.003637,-64.359985,111.823166,-105.027466,60.187928,24.830313,19.431265,13.340889,0.139851,-1.0,102.063087,-0.792694,-3.119005,-0.005758,-1.328681
275984.063453,-0.22722903,0.10208286000000001,9.79368597,0.004115,-6.2e-05,0.003637,-64.359985,111.823166,-105.027466,60.187928,24.830313,19.431265,13.340889,0.139851,-1.0,102.063087,-0.792694,-3.119005,-0.005758,-1.328681
275984.10342,-0.21106215,0.11780829000000001,9.78290478,0.001714,0.000296,0.004805,-64.59433,111.708908,-104.738632,60.187928,24.830313,19.431265,13.340889,0.139851,-1.0,102.063087,-0.792694,-3.119006,-0.005826,-1.328665
275984.10342,-0.21106215,0.11780829000000001,9.78290478,0.001714,0.000296,0.004805,-64.59433,111.708908,-104.738632,60.187928,24.830313,19.431265,13.340889,0.139851,-1.0,102.063087,-0.792694,-3.119006,-0.005826,-1.328665
275984.143386,-0.23576373,-0.02110131,9.77333022,0.001682,0.000735,0.003515,-64.510818,111.757858,-104.941284,60.187928,24.830313,19.431265,13.340889,0.139851,-1.0,102.063087,-0.792694,-3.119005,-0.005759,-1.328675
275984.143386,-0.23576373,-0.02110131,9.77333022,0.001682,0.000735,0.003515,-64.510818,111.757858,-104.941284,60.187928,24.830313,19.431265,13.340889,0.139851,-1.0,102.063087,-0.792694,-3.119005,-0.005759,-1.328675
275984.143386,-0.23576373,-0.02110131,9.77333022,0.001682,0.000735,0.003515,-64.510818,111.757858,-104.941284,60.187928,24.830313,19.431265,13.340889,0.139851,-1.0,102.063087,-0.792694,-3.119005,-0.005759,-1.328675
275984.203335,-0.21720321,0.11929941000000001,9.78036399,0.002595,0.000721,0.00478,-64.307663,111.830704,-104.916031,60.187928,24.830313,19.431265,13.340889,0.139851,-1.0,102.063087,-0.792694,-3.119014,-0.005825,-1.328725
275984.223319,-0.22992678000000003,0.11256975000000001,9.791586630000001,0.002096,0.001737,0.002728,-64.479752,111.765961,-104.754028,60.187928,24.830313,19.431265,13.340889,0.139851,-1.0,102.063087,-0.792694,-3.118996,-0.005818,-1.32873
275984.223319,-0.22992678000000003,0.11256975000000001,9.791586630000001,0.002096,0.001737,0.002728,-64.479752,111.765961,-104.754028,60.187928,24.830313,19.431265,13.340889,0.139851,-1.0,102.063087,-0.792694,-3.118996,-0.005818,-1.32873
275984.263285,-0.22588506000000003,-0.00688662,9.79024266,0.002497,-0.000538,0.003168,-64.456924,111.779938,-104.93457,60.187933,24.830321,19.009005,13.276494,0.203766,-1.0,102.063087,-0.792694,-3.118988,-0.005756,-1.328729
275984.263285,-0.22588506000000003,-0.00688662,9.79024266,0.002497,-0.000538,0.003168,-64.456924,111.779938,-104.93457,60.187933,24.830321,19.009005,13.276494,0.203766,-1.0,102.063087,-0.792694,-3.118988,-0.005756,-1.328729
275984.303251,-0.23067234,0.0375723,9.77960862,0.004592,-0.001165,0.004501,-64.554947,111.770309,-104.637115,60.187933,24.830321,19.009005,13.276494,0.203766,-1.0,102.063087,-0.792694,-3.119006,-0.005787,-1.328733
275984.303251,-0.23067234,0.0375723,9.77960862,0.004592,-0.001165,0.004501,-64.554947,111.770309,-104.637115,60.187933,24.830321,19.009005,13.276494,0.203766,-1.0,102.063087,-0.792694,-3.119006,-0.005787,-1.328733
275984.343217,-0.22108797000000002,0.15433092,9.775419750000001,0.003243,0.001734,0.005066,-64.456604,111.910706,-104.75032,60.187933,24.830321,19.009005,13.276494,0.203766,-1.0,102.063087,-0.792694,-3.119014,-0.00588,-1.328739
275984.343217,-0.22108797000000002,0.15433092,9.775419750000001,0.003243,0.001734,0.005066,-64.456604,111.910706,-104.75032,60.187933,24.830321,19.009005,13.276494,0.203766,-1.0,102.063087,-0.792694,-3.119014,-0.00588,-1.328739
275984.383184,-0.21959685,0.09415638000000001,9.78290478,0.002617,0.000327,0.003746,-64.399368,111.808517,-104.855621,60.187933,24.830321,19.009005,13.276494,0.203766,-1.0,102.063087,-0.792694,-3.11899,-0.005875,-1.328762
275984.403167,-0.23486121000000001,0.03202965,9.76628664,0.002617,0.000327,0.003746,-64.849426,111.631668,-104.399307,60.187933,24.830321,19.009005,13.276494,0.203766,-1.0,102.063087,-0.792694,-3.119002,-0.005836,-1.328737
275984.403167,-0.23486121000000001,0.03202965,9.76628664,0.002617,0.000327,0.003746,-64.849426,111.631668,-104.399307,60.187933,24.830321,19.009005,13.276494,0.203766,-1.0,102.063087,-0.792694,-3.119002,-0.005836,-1.328737
275984.443133,-0.23995260000000002,-0.04909905,9.767787570000001,0.003586,-0.000478,0.001669,-64.351593,111.896317,-104.620041,60.187933,24.830321,19.009005,13.276494,0.203766,-1.0,102.063087,-0.792694,-3.119001,-0.005794,-1.328757
275984.443133,-0.23995260000000002,-0.04909905,9.767787570000001,0.003586,-0.000478,0.001669,-64.351593,111.896317,-104.620041,60.187933,24.830321,19.009005,13.276494,0.203766,-1.0,102.063087,-0.792694,-3.119001,-0.005794,-1.328757
275984.443133,-0.23995260000000002,-0.04909905,9.767787570000001,0.003586,-0.000478,0.001669,-64.351593,111.896317,-104.620041,60.187933,24.830321,19.009005,13.276494,0.203766,-1.0,102.063087,-0.792694,-3.119001,-0.005794,-1.328757
275984.503083,-0.23770611,0.16914402,9.752366250000001,-0.000617,0.000913,0.00299,-64.664734,111.722321,-104.861801,60.187933,24.830321,19.009005,13.276494,0.203766,-1.0,102.063087,-0.792694,-3.119016,-0.005879,-1.328753
275984.523066,-0.17184177000000003,0.28994436,9.79562835,-0.000617,0.000913,0.00299,-64.73555,111.676773,-104.443832,60.187933,24.830321,19.009005,13.276494,0.203766,-1.0,102.063087,-0.792694,-3.119033,-0.005924,-1.328744
275984.543049,-0.22108797000000002,0.14429529,9.793087560000002,0.003842,0.000955,0.005106,-64.565948,111.825714,-105.236755,60.187933,24.830321,19.009005,13.276494,0.203766,-1.0,102.063087,-0.792694,-3.119022,-0.00593,-1.328704
275984.543049,-0.22108797000000002,0.14429529,9.793087560000002,0.003842,0.000955,0.005106,-64.565948,111.825714,-105.236755,60.187933,24.830321,19.009005,13.276494,0.203766,-1.0,102.063087,-0.792694,-3.119022,-0.00593,-1.328704
275984.583015,-0.23605803000000003,-0.10208286000000001,9.77886306,0.004402,-0.002532,0.002685,-64.81662,111.411118,-104.531708,60.187933,24.830321,19.009005,13.276494,0.203766,-1.0,102.063087,-0.792694,-3.119034,-0.005822,-1.328683
275984.602998,-0.25282332,-0.09190989000000001,9.77826465,0.006493,0.000429,0.006183,-63.957077,111.780212,-105.31076,60.187933,24.830321,19.009005,13.276494,0.203766,-1.0,102.063087,-0.792694,-3.119035,-0.005805,-1.328643
275984.622982,-0.23920704,0.02215098,9.77018121,0.002239,-0.001552,0.008092,-64.574631,111.845352,-105.310623,60.187933,24.830321,19.009005,13.276494,0.203766,-1.0,102.063087,-0.792694,-3.119056,-0.005819,-1.328628
275984.642965,-0.22976981999999999,0.18905832000000003,9.78515127,0.004269,0.00014,0.005311,-64.856461,111.696823,-104.91774,60.187933,24.830321,19.009005,13.276494,0.203766,-1.0,102.063087,-0.792694,-3.119054,-0.005917,-1.328696
275984.662948,-0.1850166,0.21420135,9.799522920000001,0.002668,-0.000972,0.006338,-64.911743,111.428055,-104.854675,60.187933,24.830321,19.009005,13.276494,0.203766,-1.0,102.063087,-0.792694,-3.119056,-0.005971,-1.328766
275984.682931,-0.18576216000000004,0.21120930000000002,9.77871591,-0.002221,-0.003698,-0.00088,-64.876694,111.411728,-104.899551,60.187933,24.830321,19.009005,13.276494,0.203766,-1.0,102.063087,-0.792694,-3.119067,-0.005979,-1.328816
275984.702914,-0.24174783000000002,0.10972485000000001,9.77871591,-0.001311,0.000962,-0.000206,-64.582184,111.511093,-105.183182,60.187933,24.830321,19.009005,13.276494,0.203766,-1.0,102.063087,-0.792694,-3.119055,-0.005962,-1.328843
275984.722897,-0.22213764000000003,-0.07229970000000001,9.78634809,0.001523,-0.001818,0.006125,-64.343307,111.737534,-104.95079,60.187933,24.830321,19.009005,13.276494,0.203766,-1.0,102.063087,-0.792694,-3.119054,-0.005861,-1.328697
275984.742881,-0.27018702,-0.14759145,9.77302611,0.005966,0.001598,0.004254,-64.496124,111.599319,-105.036972,60.187933,24.830321,19.009005,13.276494,0.203766,-1.0,102.063087,-0.792694,-3.119073,-0.005809,-1.328674
275984.742881,-0.27018702,-0.14759145,9.77302611,0.005966,0.001598,0.004254,-64.496124,111.599319,-105.036972,60.187933,24.830321,19.009005,13.276494,0.203766,-1.0,102.063087,-0.792694,-3.119073,-0.005809,-1.328674
275984.782847,-0.20881566000000001,0.06840513000000001,9.759556980000001,0.006055,0.002594,0.003806,-64.633804,111.623016,-105.055527,60.187933,24.830321,19.009005,13.276494,0.203766,-1.0,102.063087,-0.792694,-3.119058,-0.005841,-1.328711
275984.822813,-0.22318731000000003,0.17154747,9.77646942,0.003123,-0.001244,0.004678,-65.140503,111.383545,-104.640259,60.187933,24.830321,19.009005,13.276494,0.203766,-1.0,102.063087,-0.792694,-3.119045,-0.005987,-1.328717
275984.822813,-0.22318731000000003,0.17154747,9.77646942,0.003123,-0.001244,0.004678,-65.140503,111.383545,-104.640259,60.187933,24.830321,19.009005,13.276494,0.203766,-1.0,102.063087,-0.792694,-3.119045,-0.005987,-1.328717
275984.862779,-0.21255327,0.09100737,9.77467419,-0.000139,0.000804,0.001621,-64.50946,111.577942,-105.0923,60.187933,24.830321,19.009005,13.276494,0.203766,-1.0,102.063087,-0.792694,-3.119045,-0.005968,-1.328763
275984.862779,-0.21255327,0.09100737,9.77467419,-0.000139,0.000804,0.001621,-64.50946,111.577942,-105.0923,60.187933,24.830321,19.009005,13.276494,0.203766,-1.0,102.063087,-0.792694,-3.119045,-0.005968,-1.328763
275984.902746,-0.25836597,-0.10492776000000001,9.763451550000001,0.004372,0.000216,0.002234,-64.380203,111.504517,-104.966553,60.187933,24.830321,19.009005,13.276494,0.203766,-1.0,102.063087,-0.792694,-3.119044,-0.005876,-1.328672
275984.922729,-0.22304016000000002,-0.02499588,9.780815250000002,0.00538,0.000797,0.002396,-64.53035,111.409485,-104.414886,60.187933,24.830321,19.009005,13.276494,0.203766,-1.0,102.063087,-0.792694,-3.119046,-0.005878,-1.328687
275984.922729,-0.22304016000000002,-0.02499588,9.780815250000002,0.00538,0.000797,0.002396,-64.53035,111.409485,-104.414886,60.187933,24.830321,19.009005,13.276494,0.203766,-1.0,102.063087,-0.792694,-3.119046,-0.005878,-1.328687
275984.942712,-0.22438413000000001,0.09609875999999999,9.78620094,0.005564,0.00115,0.003008,-64.494659,111.623215,-104.863708,60.187933,24.830321,19.009005,13.276494,0.203766,-1.0,102.063087,-0.792694,-3.119046,-0.005921,-1.328675
275984.942712,-0.22438413000000001,0.09609875999999999,9.78620094,0.005564,0.00115,0.003008,-64.494659,111.623215,-104.863708,60.187933,24.830321,19.009005,13.276494,0.203766,-1.0,102.063087,-0.792694,-3.119046,-0.005921,-1.328675
275985.002662,-0.23081949000000002,0.045351630000000004,9.79323471,0.001091,0.000104,0.005409,-64.410507,111.828506,-105.069199,60.187933,24.830321,19.009005,13.276494,0.203766,-1.0,102.063087,-0.792694,-3.119034,-0.005955,-1.328648
275985.002662,-0.23081949000000002,0.045351630000000004,9.79323471,0.001091,0.000104,0.005409,-64.410507,111.828506,-105.069199,60.187933,24.830321,19.009005,13.276494,0.203766,-1.0,102.063087,-0.792694,-3.119034,-0.005955,-1.328648
275985.022645,-0.21959685,-0.056878380000000006,9.77482134,0.001091,0.000104,0.005409,-64.816666,111.293976,-104.651306,60.187933,24.830321,19.009005,13.276494,0.203766,-1.0,102.063087,-0.792694,-3.119023,-0.005911,-1.328663
275985.042628,-0.21914559000000003,-0.055230299999999996,9.784248750000001,0.000995,0.002251,0.005687,-64.41925,111.619019,-105.007431,60.187933,24.830321,19.009005,13.276494,0.203766,-1.0,102.063087,-0.792694,-3.119017,-0.005885,-1.328675
275985.042628,-0.21914559000000003,-0.055230299999999996,9.784248750000001,0.000995,0.002251,0.005687,-64.41925,111.619019,-105.007431,60.187933,24.830321,19.009005,13.276494,0.203766,-1.0,102.063087,-0.792694,-3.119017,-0.005885,-1.328675
275985.102577,-0.20582361000000002,0.1764819,9.79682517,0.001351,-3.2e-05,0.003902,-65.146149,111.33461,-104.723465,60.187933,24.830321,19.009005,13.276494,0.203766,-1.0,102.063087,-0.792694,-3.118983,-0.005928,-1.328684
275985.122561,-0.22917141000000002,0.11436498,9.79817895,0.001351,-3.2e-05,0.003902,-65.44725,111.068039,-104.194656,60.187933,24.830321,19.009005,13.276494,0.203766,-1.0,102.063087,-0.792694,-3.118972,-0.005928,-1.328664
275985.142544,-0.22872015,0.01212516,9.77751909,0.0022,-0.000844,0.001697,-64.265579,111.460663,-104.769714,60.187933,24.830321,19.009005,13.276494,0.203766,-1.0,102.063087,-0.792694,-3.118972,-0.005886,-1.328668
275985.142544,-0.22872015,0.01212516,9.77751909,0.0022,-0.000844,0.001697,-64.265579,111.460663,-104.769714,60.187933,24.830321,19.009005,13.276494,0.203766,-1.0,102.063087,-0.792694,-3.118972,-0.005886,-1.328668
275985.18251,-0.23785326,0.00344331,9.77632227,0.003238,-0.001017,0.005278,-64.648758,111.625214,-104.9319,60.187933,24.830321,19.009005,13.276494,0.203766,-1.0,102.063087,-0.792694,-3.11899,-0.005845,-1.328641
275985.202493,-0.22108797000000002,0.06452037000000001,9.77452704,0.002831,-0.002093,0.003506,-64.964615,111.594666,-104.666061,60.187933,24.830321,19.009005,13.276494,0.203766,-1.0,102.064003,-0.86668,-3.118998,-0.005885,-1.328645
275985.222476,-0.22153923,0.11945637,9.787397760000001,0.002457,-0.001495,0.004181,-64.621964,111.624756,-105.029556,60.187933,24.830321,19.009005,13.276494,0.203766,-1.0,102.064003,-0.86668,-3.119002,-0.005928,-1.328647
275985.222476,-0.22153923,0.11945637,9.787397760000001,0.002457,-0.001495,0.004181,-64.621964,111.624756,-105.029556,60.187933,24.830321,19.009005,13.276494,0.203766,-1.0,102.064003,-0.86668,-3.119002,-0.005928,-1.328647
275985.262443,-0.2342628,0.05927202,9.780511140000002,0.002769,7.9e-05,0.003469,-64.571091,111.553757,-105.108093,60.187932,24.830315,19.116617,14.573407,0.0,-1.0,102.064003,-0.86668,-3.119011,-0.00588,-1.328644
275985.262443,-0.2342628,0.05927202,9.780511140000002,0.002769,7.9e-05,0.003469,-64.571091,111.553757,-105.108093,60.187932,24.830315,19.116617,14.573407,0.0,-1.0,102.064003,-0.86668,-3.119011,-0.00588,-1.328644
275985.30241,-0.22632651000000004,-0.00643536,9.77781339,0.002927,0.000147,0.003801,-64.507477,111.748962,-104.868271,60.187932,24.830315,19.116617,14.573407,0.0,-1.0,102.064003,-0.86668,-3.119007,-0.005797,-1.32864
275985.322393,-0.22558095000000003,0.04266369,9.775723860000001,0.002354,0.000462,0.003604,-64.636169,111.480164,-105.047455,60.187932,24.830315,19.116617,14.573407,0.0,-1.0,102.064003,-0.86668,-3.119015,-0.005816,-1.328631
275985.342377,-0.22139208000000002,0.09220419,9.779167170000001,0.003059,-0.000902,0.00523,-64.590546,111.636841,-105.088577,60.187932,24.830315,19.116617,14.573407,0.0,-1.0,102.064003,-0.86668,-3.119031,-0.005857,-1.328608
275985.342377,-0.22139208000000002,0.09220419,9.779167170000001,0.003059,-0.000902,0.00523,-64.590546,111.636841,-105.088577,60.187932,24.830315,19.116617,14.573407,0.0,-1.0,102.064003,-0.86668,-3.119031,-0.005857,-1.328608
275985.342377,-0.22139208000000002,0.09220419,9.779167170000001,0.003059,-0.000902,0.00523,-64.590546,111.636841,-105.088577,60.187932,24.830315,19.116617,14.573407,0.0,-1.0,102.064003,-0.86668,-3.119031,-0.005857,-1.328608
275985.402326,-0.23291883000000002,0.038621970000000005,9.791135370000001,0.001803,-0.000283,0.00443,-64.665939,111.670792,-105.064819,60.187932,24.830315,19.116617,14.573407,0.0,-1.0,102.064003,-0.86668,-3.119029,-0.005824,-1.328614
275985.422309,-0.23830452000000002,0.01302768,9.772133400000001,0.005186,-0.00128,0.004992,-64.406464,111.674622,-105.252625,60.187932,24.830315,19.116617,14.573407,0.0,-1.0,102.064003,-0.86668,-3.119017,-0.005805,-1.328608
275985.422309,-0.23830452000000002,0.01302768,9.772133400000001,0.005186,-0.00128,0.004992,-64.406464,111.674622,-105.252625,60.187932,24.830315,19.116617,14.573407,0.0,-1.0,102.064003,-0.86668,-3.119017,-0.005805,-1.328608
275985.462276,-0.22467843,0.059576130000000005,9.77377167,0.003262,0.000211,0.003649,-64.850784,111.471237,-104.893768,60.187932,24.830315,19.116617,14.573407,0.0,-1.0,102.064003,-0.86668,-3.119013,-0.005829,-1.328609
275985.482259,-0.21195486000000002,0.06960195,9.78814332,0.003163,-0.00125,0.004022,-64.506424,111.679779,-105.117538,60.187932,24.830315,19.116617,14.573407,0.0,-1.0,102.064003,-0.86668,-3.119027,-0.005842,-1.328636
275985.502242,-0.22648347000000002,0.07439904,9.787692060000001,0.003218,0.000754,0.004298,-64.453278,111.630875,-105.009399,60.187932,24.830315,19.116617,14.573407,0.0,-1.0,102.064003,-0.86668,-3.119031,-0.00585,-1.328642
275985.522225,-0.21809592,0.06196977,9.795029940000001,0.002018,-0.000622,0.003395,-64.579681,111.789322,-104.732086,60.187932,24.830315,19.116617,14.573407,0.0,-1.0,102.064003,-0.86668,-3.119041,-0.005846,-1.328645
275985.542208,-0.22408002000000002,0.03831786,9.77347737,0.001562,-0.001482,0.003604,-64.870529,111.371735,-104.766586,60.187932,24.830315,19.116617,14.573407,0.0,-1.0,102.064003,-0.86668,-3.119036,-0.005841,-1.328647
275985.562191,-0.22408002000000002,0.04879494,9.77946147,0.002602,-0.001803,0.004692,-64.496124,111.700623,-104.799103,60.187932,24.830315,19.116617,14.573407,0.0,-1.0,102.064003,-0.86668,-3.119041,-0.005836,-1.328645
275985.582175,-0.22797459,0.04445892,9.77362452,0.003449,-0.000656,0.00496,-64.341232,111.728561,-105.184097,60.187932,24.830315,19.116617,14.573407,0.0,-1.0,102.064003,-0.86668,-3.119036,-0.005853,-1.328654
275985.62214,-0.21884148000000003,0.06960195,9.775272600000001,0.004673,0.000899,0.003599,-64.856506,111.557907,-104.9814,60.187932,24.830315,19.116617,14.573407,0.0,-1.0,102.064003,-0.86668,-3.119026,-0.005877,-1.328644
275985.62214,-0.21884148000000003,0.06960195,9.775272600000001,0.004673,0.000899,0.003599,-64.856506,111.557907,-104.9814,60.187932,24.830315,19.116617,14.573407,0.0,-1.0,102.064003,-0.86668,-3.119026,-0.005877,-1.328644
275985.642124,-0.22363857000000004,0.05328792,9.76404996,0.002778,-0.000588,0.00426,-64.549957,111.643921,-104.82782,60.187932,24.830315,19.116617,14.573407,0.0,-1.0,102.064003,-0.86668,-3.119023,-0.005878,-1.328657
275985.642124,-0.22363857000000004,0.05328792,9.76404996,0.002778,-0.000588,0.00426,-64.549957,111.643921,-104.82782,60.187932,24.830315,19.116617,14.573407,0.0,-1.0,102.064003,-0.86668,-3.119023,-0.005878,-1.328657
275985.702074,-0.21989115,0.03967164,9.7664436,0.002261,-0.000265,0.002279,-64.331467,111.887558,-105.106033,60.187932,24.830315,19.116617,14.573407,0.0,-1.0,102.064003,-0.86668,-3.119025,-0.005841,-1.328655
275985.702074,-0.21989115,0.03967164,9.7664436,0.002261,-0.000265,0.002279,-64.331467,111.887558,-105.106033,60.187932,24.830315,19.116617,14.573407,0.0,-1.0,102.064003,-0.86668,-3.119025,-0.005841,-1.328655
275985.74204,-0.21510387,0.06930765,9.77377167,0.003708,-0.000965,0.005532,-64.675476,111.583008,-104.543884,60.187932,24.830315,19.116617,14.573407,0.0,-1.0,102.064003,-0.86668,-3.119029,-0.005837,-1.328664
275985.74204,-0.21510387,0.06930765,9.77377167,0.003708,-0.000965,0.005532,-64.675476,111.583008,-104.543884,60.187932,24.830315,19.116617,14.573407,0.0,-1.0,102.064003,-0.86668,-3.119029,-0.005837,-1.328664
275985.782005,-0.22483539,0.045351630000000004,9.77108373,0.002065,0.001609,0.005579,-64.557785,111.593597,-104.970581,60.187932,24.830315,19.116617,14.573407,0.0,-1.0,102.064003,-0.86668,-3.119025,-0.005829,-1.328669
275985.782005,-0.22483539,0.045351630000000004,9.77108373,0.002065,0.001609,0.005579,-64.557785,111.593597,-104.970581,60.187932,24.830315,19.116617,14.573407,0.0,-1.0,102.064003,-0.86668,-3.119025,-0.005829,-1.328669
275985.782005,-0.22483539,0.045351630000000004,9.77108373,0.002065,0.001609,0.005579,-64.557785,111.593597,-104.970581,60.187932,24.830315,19.116617,14.573407,0.0,-1.0,102.064003,-0.86668,-3.119025,-0.005829,-1.328669
275985.821973,-0.2314179,0.0464013,9.77677353,0.002954,-0.000838,0.004296,-64.90358,111.393723,-104.915161,60.187932,24.830315,19.116617,14.573407,0.0,-1.0,102.064003,-0.86668,-3.119012,-0.005802,-1.32868
275985.861939,-0.21720321,0.04730382,9.7894971,0.003172,-0.000636,0.003927,-64.690628,111.691605,-104.839462,60.187932,24.830315,19.116617,14.573407,0.0,-1.0,102.064003,-0.86668,-3.11902,-0.005793,-1.328664
275985.861939,-0.21720321,0.04730382,9.7894971,0.003172,-0.000636,0.003927,-64.690628,111.691605,-104.839462,60.187932,24.830315,19.116617,14.573407,0.0,-1.0,102.064003,-0.86668,-3.11902,-0.005793,-1.328664
275985.901905,-0.21704625,0.04221243000000001,9.78605379,0.002388,0.000829,0.004094,-64.749878,111.600433,-104.620712,60.187932,24.830315,19.116617,14.573407,0.0,-1.0,102.064003,-0.86668,-3.119022,-0.005798,-1.328652
275985.921889,-0.22318731000000003,0.046107,9.77452704,0.003091,-0.001953,0.004446,-64.665527,111.639206,-105.332779,60.187932,24.830315,19.116617,14.573407,0.0,-1.0,102.064003,-0.86668,-3.119023,-0.005778,-1.328652
275985.941871,-0.21899844000000002,0.04371336,9.793087560000002,0.002834,-0.001263,0.004355,-64.563049,111.81778,-105.667191,60.187932,24.830315,19.116617,14.573407,0.0,-1.0,102.064003,-0.86668,-3.119024,-0.005781,-1.328654
275985.941871,-0.21899844000000002,0.04371336,9.793087560000002,0.002834,-0.001263,0.004355,-64.563049,111.81778,-105.667191,60.187932,24.830315,19.116617,14.573407,0.0,-1.0,102.064003,-0.86668,-3.119024,-0.005781,-1.328654
275985.941871,-0.21899844000000002,0.04371336,9.793087560000002,0.002834,-0.001263,0.004355,-64.563049,111.81778,-105.667191,60.187932,24.830315,19.116617,14.573407,0.0,-1.0,102.064003,-0.86668,-3.119024,-0.005781,-1.328654
275985.981838,-0.21031659,0.04371336,9.78829047,0.003009,0.000481,0.002833,-64.856094,111.499115,-104.837677,60.187932,24.830315,19.116617,14.573407,0.0,-1.0,102.064003,-0.86668,-3.119028,-0.005778,-1.328656
275986.021805,-0.21884148000000003,0.05643693,9.78290478,0.003497,-0.000295,0.002668,-64.701538,111.638351,-104.828781,60.187932,24.830315,19.116617,14.573407,0.0,-1.0,102.064003,-0.86668,-3.119038,-0.005758,-1.328654
275986.041788,-0.22902426,0.04056435,9.771378030000001,0.003277,0.000603,0.005722,-64.454987,111.833252,-105.298264,60.187932,24.830315,19.116617,14.573407,0.0,-1.0,102.064003,-0.86668,-3.119034,-0.005755,-1.328633
275986.061771,-0.21840003000000002,0.05223825,9.790988220000001,0.002327,-0.001179,0.003858,-64.785828,111.656265,-105.162811,60.187932,24.830315,19.116617,14.573407,0.0,-1.0,102.064003,-0.86668,-3.11903,-0.005748,-1.328648
275986.081754,-0.21240612000000003,0.04730382,9.79233219,0.001941,-0.000306,0.002643,-65.172745,111.674591,-104.728912,60.187932,24.830315,19.116617,14.573407,0.0,-1.0,102.064003,-0.86668,-3.119038,-0.00575,-1.328651
275986.101737,-0.22512969000000002,0.04939335000000001,9.77946147,0.001731,-0.000357,0.002803,-64.877411,111.60405,-105.253326,60.187932,24.830315,19.116617,14.573407,0.0,-1.0,102.064003,-0.86668,-3.11904,-0.005749,-1.328637
275986.12172,-0.22887711000000002,0.05747679,9.775871010000001,0.002905,-0.000925,0.00424,-64.730072,111.653244,-105.410324,60.187932,24.830315,19.116617,14.573407,0.0,-1.0,102.064003,-0.86668,-3.119043,-0.005749,-1.328623
275986.141704,-0.22063671,0.055534410000000006,9.780815250000002,0.00475,0.000121,0.004462,-64.604126,111.64537,-105.221222,60.187932,24.830315,19.116617,14.573407,0.0,-1.0,102.064003,-0.86668,-3.119043,-0.005733,-1.328613
275986.161687,-0.23081949000000002,0.06287229,9.78245352,0.002551,-0.000287,0.00376,-65.199463,111.324921,-104.661499,60.187932,24.830315,19.116617,14.573407,0.0,-1.0,102.064003,-0.86668,-3.119032,-0.005726,-1.328616
275986.18167,-0.22648347000000002,0.053886329999999996,9.78545538,0.00214,0.000108,0.003417,-64.631393,111.649155,-105.224045,60.187932,24.830315,19.116617,14.573407,0.0,-1.0,102.064003,-0.86668,-3.119033,-0.005718,-1.328595
275986.201653,-0.22304016000000002,0.053886329999999996,9.79398027,0.003553,-2.7e-05,0.003339,-64.755295,111.441315,-105.018875,60.187932,24.830315,19.116617,14.573407,0.0,-1.0,102.064003,-0.86668,-3.119041,-0.005709,-1.328596
275986.201653,-0.22304016000000002,0.053886329999999996,9.79398027,0.003553,-2.7e-05,0.003339,-64.755295,111.441315,-105.018875,60.187932,24.830315,19.116617,14.573407,0.0,-1.0,102.064003,-0.86668,-3.119041,-0.005709,-1.328596
275986.24162,-0.22768029,0.051198389999999996,9.791135370000001,0.004067,-0.00063,0.004336,-65.175278,111.176971,-104.560364,60.187932,24.830315,19.116617,14.872673,0.0,-1.0,102.064003,-0.86668,-3.119043,-0.005705,-1.32859
275986.24162,-0.22768029,0.051198389999999996,9.791135370000001,0.004067,-0.00063,0.004336,-65.175278,111.176971,-104.560364,60.187932,24.830315,19.116617,14.872673,0.0,-1.0,102.064003,-0.86668,-3.119043,-0.005705,-1.32859
275986.301568,-0.22572810000000001,0.05463189,9.78529842,0.003223,-0.001735,0.003881,-64.674713,111.597626,-104.756897,60.187932,24.830315,19.116617,14.872673,0.0,-1.0,102.065201,-0.967087,-3.119029,-0.005698,-1.328584
275986.301568,-0.22572810000000001,0.05463189,9.78529842,0.003223,-0.001735,0.003881,-64.674713,111.597626,-104.756897,60.187932,24.830315,19.116617,14.872673,0.0,-1.0,102.065201,-0.967087,-3.119029,-0.005698,-1.328584
275986.341535,-0.22812174000000002,0.0520911,9.780658290000002,0.002552,-0.000166,0.004057,-64.815002,111.410507,-105.043289,60.187932,24.830315,19.116617,14.872673,0.0,-1.0,102.065201,-0.967087,-3.11904,-0.005706,-1.328592
275986.341535,-0.22812174000000002,0.0520911,9.780658290000002,0.002552,-0.000166,0.004057,-64.815002,111.410507,-105.043289,60.187932,24.830315,19.116617,14.872673,0.0,-1.0,102.065201,-0.967087,-3.11904,-0.005706,-1.328592
275986.381501,-0.22153923,0.04984461,9.78245352,0.00398,0.000394,0.00453,-64.605499,111.553802,-105.026062,60.187932,24.830315,19.116617,14.872673,0.0,-1.0,102.065201,-0.967087,-3.119037,-0.005686,-1.328591
275986.381501,-0.22153923,0.04984461,9.78245352,0.00398,0.000394,0.00453,-64.605499,111.553802,-105.026062,60.187932,24.830315,19.116617,14.872673,0.0,-1.0,102.065201,-0.967087,-3.119037,-0.005686,-1.328591
275986.401484,-0.22527684,0.062116920000000006,9.791292330000001,0.00398,0.000394,0.00453,-64.774872,111.667023,-105.039749,60.187932,24.830315,19.116617,14.872673,0.0,-1.0,102.065201,-0.967087,-3.119047,-0.00568,-1.328589
275986.421467,-0.22872015,0.050590170000000004,9.775871010000001,0.002608,0.000977,0.003531,-64.85704,111.475113,-105.330978,60.187932,24.830315,19.116617,14.872673,0.0,-1.0,102.065201,-0.967087,-3.11906,-0.005683,-1.328582
275986.441451,-0.23216346000000002,0.04999176,9.79488279,0.002274,-0.000354,0.004603,-64.835739,111.277664,-104.948517,60.187932,24.830315,19.116617,14.872673,0.0,-1.0,102.065201,-0.967087,-3.119045,-0.00569,-1.328572
275986.461434,-0.21120930000000002,0.05747679,9.78215922,0.000968,-0.000131,0.004327,-64.781708,111.491791,-105.112595,60.187932,24.830315,19.116617,14.872673,0.0,-1.0,102.065201,-0.967087,-3.119039,-0.00569,-1.32857
