timestamp,accel_x,accel_y,accel_z,gyro_x,gyro_y,gyro_z,mag_x,mag_y,mag_z,gps_lat,gps_lon,gps_alt,gps_accuracy,gps_speed,gps_course,pressure,altitude,roll,pitch,yaw
207147.898714,-0.08517042000000001,-0.16375833,-9.787093650000001,0.000525,-0.00392,0.004413,-38.115768,155.395721,-201.732071,60.18768,24.830126,12.915765,9.620208,-1.0,-1.0,101.633934,-0.396347,-0.009191,0.01593,-0.728881
207147.97864,-0.10912644,-0.15223158,-9.846522629999999,0.005789,0.003309,0.005468,-38.081055,155.446793,-201.738571,60.18768,24.830126,12.915765,9.620208,-1.0,-1.0,101.633934,-0.396347,-0.009285,0.015896,-0.728892
207148.018603,-0.08772102000000001,-0.16046217000000002,-9.81373761,0.002833,-0.000961,0.004389,-38.198776,155.473724,-201.525238,60.18768,24.830126,12.915765,9.620208,-1.0,-1.0,101.633934,-0.396347,-0.009293,0.015887,-0.728893
207148.038584,-0.09655002,-0.15582204,-9.8302086,0.003682,0.000968,0.00488,-38.006851,155.416443,-201.41333,60.18768,24.830126,12.915765,9.620208,-1.0,-1.0,101.633934,-0.396347,-0.009269,0.015889,-0.728895
207148.058566,-0.08622009,-0.17318574,-9.808803180000002,0.002344,-0.000399,0.005357,-38.016525,155.548676,-201.62767,60.18768,24.830126,12.915765,9.620208,-1.0,-1.0,101.633934,-0.396347,-0.009275,0.015888,-0.728898
207148.078547,-0.0953532,-0.16256151,-9.82197801,0.0044,0.000469,0.004908,-38.048553,155.324112,-201.557098,60.18768,24.830126,12.915765,9.620208,-1.0,-1.0,101.633934,-0.396347,-0.009269,0.015889,-0.728902
207148.098529,-0.08188407,-0.15462522000000004,-9.807155100000001,0.00424,9e-06,0.003864,-38.046631,155.313553,-201.604034,60.18768,24.830126,12.915765,9.620208,-1.0,-1.0,101.633934,-0.396347,-0.009269,0.015899,-0.728893
207148.098529,-0.08188407,-0.15462522000000004,-9.807155100000001,0.00424,9e-06,0.003864,-38.046631,155.313553,-201.604034,60.18768,24.830126,12.915765,9.620208,-1.0,-1.0,101.633934,-0.396347,-0.009269,0.015899,-0.728893
207148.138492,-0.09100737,-0.15762708,-9.82062423,0.003506,-0.000576,0.005159,-38.061951,155.33728,-201.742157,60.18768,24.830126,12.915765,9.620208,-1.0,-1.0,101.633934,-0.396347,-0.009251,0.015892,-0.728901
207148.158473,-0.09160578000000001,-0.15971661,-9.807459210000001,0.003792,-0.000362,0.004547,-38.305435,155.315948,-201.447784,60.18768,24.830126,12.915765,9.620208,-1.0,-1.0,101.633934,-0.396347,-0.009258,0.015898,-0.728899
207148.178455,-0.09340101,-0.14923953,-9.82122264,0.003046,-0.000656,0.005669,-38.305435,155.315948,-201.447784,60.18768,24.830126,12.915765,9.620208,-1.0,-1.0,101.633934,-0.396347,-0.009252,0.015903,-0.728893
207148.198436,-0.08816247,-0.16270866,-9.807459210000001,0.00511,-0.001234,0.005965,-38.303085,155.259689,-201.571472,60.18768,24.830126,12.915765,9.620208,-1.0,-1.0,101.633934,-0.396347,-0.009253,0.015908,-0.728888
207148.218418,-0.08876088000000001,-0.16136469,-9.82197801,0.003845,6.6e-05,0.004508,-38.12439,155.364441,-201.740936,60.18768,24.830126,12.915765,9.620208,-1.0,-1.0,101.633934,-0.396347,-0.009264,0.015913,-0.728882
207148.238399,-0.09205704,-0.15088761,-9.81868185,0.002964,0.001388,0.004855,-38.136414,155.34436,-201.560822,60.18768,24.830126,12.915765,9.620208,-1.0,-1.0,101.633934,-0.396347,-0.009256,0.015936,-0.728879
207148.258381,-0.0865242,-0.16974243,-9.81494424,0.003171,-0.001108,0.004172,-38.18808,155.42099,-201.624649,60.18768,24.830126,12.915765,9.620208,-1.0,-1.0,101.633934,-0.396347,-0.00924,0.01594,-0.728892
207148.278362,-0.07933347,-0.14938668000000002,-9.82841337,0.003836,-0.000872,0.004499,-37.974854,155.395996,-201.659271,60.18768,24.830126,12.915765,9.620208,-1.0,-1.0,101.633934,-0.396347,-0.009224,0.01594,-0.728898
207148.298344,-0.09564750000000001,-0.15747012000000002,-9.795334050000001,0.003915,6.5e-05,0.003959,-37.972092,155.497055,-201.946762,60.18768,24.830126,12.915765,9.620208,-1.0,-1.0,101.633934,-0.396347,-0.009225,0.015937,-0.728907
207148.318325,-0.09759969,-0.15986376000000002,-9.81449298,0.001511,-0.000512,0.003788,-38.032089,155.335831,-201.62262,60.18768,24.830126,12.915765,9.620208,-1.0,-1.0,101.633934,-0.396347,-0.009233,0.015938,-0.728912
207148.338307,-0.10164141000000002,-0.16794720000000002,-9.81509139,0.001253,0.001123,0.00488,-37.87645,155.378326,-201.818115,60.18768,24.830126,12.915765,9.620208,-1.0,-1.0,101.633934,-0.396347,-0.009238,0.015934,-0.72892
207148.338307,-0.10164141000000002,-0.16794720000000002,-9.81509139,0.001253,0.001123,0.00488,-37.87645,155.378326,-201.818115,60.18768,24.830126,12.915765,9.620208,-1.0,-1.0,101.633934,-0.396347,-0.009238,0.015934,-0.72892
207148.37827,-0.08935929000000001,-0.16525926000000002,-9.81823059,0.002992,0.000676,0.00371,-38.024017,155.230194,-201.607437,60.18768,24.830126,12.915765,9.620208,-1.0,-1.0,101.633934,-0.396347,-0.009241,0.015915,-0.728927
207148.398251,-0.09295956000000001,-0.16406244,-9.823469130000001,0.003069,0.000635,0.003181,-37.847626,155.290726,-201.758636,60.18768,24.830126,12.915765,9.620208,-1.0,-1.0,101.633934,-0.396347,-0.009244,0.015914,-0.728916
207148.418233,-0.0981981,-0.16899687,-9.823027680000001,0.002155,-0.001283,0.005077,-38.135773,155.332275,-201.298004,60.18768,24.830126,12.915765,9.620208,-1.0,-1.0,101.633934,-0.396347,-0.009239,0.015913,-0.728916
207148.438214,-0.0865242,-0.14773860000000003,-9.823174830000001,0.00365,-0.000701,0.003557,-38.094055,155.203781,-201.700256,60.18768,24.830126,12.915765,9.620208,-1.0,-1.0,101.633934,-0.396347,-0.009248,0.015896,-0.728901
207148.458196,-0.09894366,-0.15837263999999998,-9.80895033,0.002234,-0.00014,0.00427,-38.0728,155.491898,-201.642471,60.18768,24.830126,12.915765,9.620208,-1.0,-1.0,101.633934,-0.396347,-0.009252,0.015903,-0.728906
207148.478177,-0.09475478999999999,-0.16959528000000001,-9.819584370000001,0.003103,-0.000923,0.005617,-38.128952,155.188965,-201.694016,60.18768,24.830126,12.915765,9.620208,-1.0,-1.0,101.633934,-0.396347,-0.009258,0.015901,-0.728904
207148.498159,-0.09145863,-0.15956946,-9.81194238,0.002618,-8e-06,0.003005,-38.166306,155.262466,-201.614075,60.18768,24.830126,12.915765,9.620208,-1.0,-1.0,101.633934,-0.396347,-0.009268,0.015887,-0.728888
207148.51814,-0.08741691000000001,-0.16136469,-9.828707670000002,0.00273,-0.000767,0.003663,-38.116257,155.587601,-201.247391,60.18768,24.830126,12.915765,9.620208,-1.0,-1.0,101.633934,-0.396347,-0.009264,0.015894,-0.728897
207148.538122,-0.10687995,-0.16315992,-9.81583695,0.003463,0.001067,0.003864,-38.129059,155.220703,-201.400558,60.18768,24.830126,12.915765,9.620208,-1.0,-1.0,101.633934,-0.396347,-0.009258,0.015898,-0.728899
207148.558103,-0.08007903000000001,-0.14729715000000002,-9.82497006,0.003226,-0.001089,0.005077,-38.309021,155.242279,-201.715073,60.18768,24.830126,12.915765,9.620208,-1.0,-1.0,101.633934,-0.396347,-0.009253,0.015906,-0.728904
207148.578085,-0.09190989000000001,-0.16031502,-9.829158930000002,0.002533,-0.001256,0.003813,-38.169388,155.380707,-201.581177,60.18768,24.830126,12.915765,9.620208,-1.0,-1.0,101.633934,-0.396347,-0.009264,0.015917,-0.728892
207148.598066,-0.08921214,-0.1704978,-9.821821049999999,0.004827,0.000464,0.004545,-38.197449,155.460052,-201.646454,60.18768,24.830126,12.915765,9.620208,-1.0,-1.0,101.633934,-0.396347,-0.009271,0.015908,-0.728892
207148.618048,-0.09086022,-0.15822549000000002,-9.82197801,0.001088,0.000189,0.004641,-37.988617,155.408325,-201.805725,60.18768,24.830126,12.915765,9.620208,-1.0,-1.0,101.633934,-0.396347,-0.009275,0.01592,-0.728888
207148.638029,-0.08996751000000001,-0.16630893,-9.8216739,0.003632,-0.00219,0.003879,-37.937241,155.383514,-201.382172,60.18768,24.830126,12.915765,9.620208,-1.0,-1.0,101.633934,-0.396347,-0.009283,0.015903,-0.728891
207148.658011,-0.08726976,-0.16375833,-9.82721655,0.002557,0.000222,0.004488,-38.048523,155.319702,-201.793594,60.18768,24.830126,12.915765,9.620208,-1.0,-1.0,101.633934,-0.396347,-0.009292,0.01591,-0.728899
207148.677992,-0.09520605,-0.14998509000000002,-9.82212516,0.002859,-3.8e-05,0.004755,-37.992371,155.364548,-201.689728,60.18768,24.830126,12.915765,9.620208,-1.0,-1.0,101.633934,-0.396347,-0.009303,0.015914,-0.728891
207148.697974,-0.09999333,-0.16466085000000003,-9.83274939,0.00412,-0.000405,0.003483,-38.122284,155.357346,-201.679291,60.18768,24.830126,12.915765,9.620208,-1.0,-1.0,101.633934,-0.396347,-0.009302,0.015911,-0.728884
207148.717956,-0.09086022,-0.16690734000000002,-9.828707670000002,0.003682,-0.000269,0.004856,-38.027145,155.234482,-201.88118,60.18768,24.830126,12.915765,9.620208,-1.0,-1.0,101.633934,-0.396347,-0.009298,0.015918,-0.728899
207148.737937,-0.10059174,-0.1619631,-9.81329616,0.004009,-0.000737,0.005695,-38.045456,155.390442,-201.922607,60.18768,24.830126,12.915765,9.620208,-1.0,-1.0,101.633934,-0.396347,-0.009316,0.015929,-0.728877
207148.7779,-0.11092167,-0.1619631,-9.81987867,0.004296,-0.000307,0.004611,-38.111252,155.332428,-201.819138,60.18768,24.830126,12.915765,9.620208,-1.0,-1.0,101.633934,-0.396347,-0.009292,0.015953,-0.728857
207148.7779,-0.11092167,-0.1619631,-9.81987867,0.004296,-0.000307,0.004611,-38.111252,155.332428,-201.819138,60.18768,24.830126,12.915765,9.620208,-1.0,-1.0,101.633934,-0.396347,-0.009292,0.015953,-0.728857
207148.817863,-0.08996751000000001,-0.15492933000000003,-9.81119682,0.003246,-0.000901,0.003992,-38.155441,155.160294,-201.875732,60.18768,24.830126,12.915765,9.620208,-1.0,-1.0,101.633934,-0.396347,-0.009301,0.015963,-0.728848
207148.817863,-0.08996751000000001,-0.15492933000000003,-9.81119682,0.003246,-0.000901,0.003992,-38.155441,155.160294,-201.875732,60.18768,24.830126,12.915765,9.620208,-1.0,-1.0,101.633934,-0.396347,-0.009301,0.015963,-0.728848
207148.857826,-0.07724394000000001,-0.16211025,-9.831258270000001,0.004213,-0.000348,0.005421,-38.113785,155.407257,-201.830673,60.18768,24.830126,12.915765,9.620208,-1.0,-1.0,101.633934,-0.396347,-0.009308,0.015953,-0.728838
207148.857826,-0.07724394000000001,-0.16211025,-9.831258270000001,0.004213,-0.000348,0.005421,-38.113785,155.407257,-201.830673,60.18768,24.830126,12.915765,9.620208,-1.0,-1.0,101.633934,-0.396347,-0.009308,0.015953,-0.728838
207148.897789,-0.08382645000000001,-0.15223158,-9.82542132,0.003494,-0.00025,0.004019,-38.278183,155.36348,-201.610413,60.18768,24.830126,12.915765,9.620208,-1.0,-1.0,101.633934,-0.396347,-0.009301,0.015938,-0.728822
207148.897789,-0.08382645000000001,-0.15223158,-9.82542132,0.003494,-0.00025,0.004019,-38.278183,155.36348,-201.610413,60.18768,24.830126,12.915765,9.620208,-1.0,-1.0,101.633934,-0.396347,-0.009301,0.015938,-0.728822
207148.937752,-0.08906499000000001,-0.15986376000000002,-9.8159841,0.003666,0.001067,0.00379,-37.956268,155.39296,-201.581009,60.18768,24.830126,12.915765,9.620208,-1.0,-1.0,101.633934,-0.396347,-0.009293,0.015929,-0.728805
207148.937752,-0.08906499000000001,-0.15986376000000002,-9.8159841,0.003666,0.001067,0.00379,-37.956268,155.39296,-201.581009,60.18768,24.830126,12.915765,9.620208,-1.0,-1.0,101.633934,-0.396347,-0.009293,0.015929,-0.728805
207148.977715,-0.07903917,-0.16046217000000002,-9.833946209999999,0.004646,-0.000274,0.004126,-38.045654,155.235077,-201.717743,60.18768,24.830126,12.915765,9.620208,-1.0,-1.0,101.634033,-0.406918,-0.009279,0.015924,-0.728809
207148.977715,-0.07903917,-0.16046217000000002,-9.833946209999999,0.004646,-0.000274,0.004126,-38.045654,155.235077,-201.717743,60.18768,24.830126,12.915765,9.620208,-1.0,-1.0,101.634033,-0.406918,-0.009279,0.015924,-0.728809
207149.017678,-0.09100737,-0.16406244,-9.83664396,0.002043,-0.000517,0.006979,-37.899963,155.365997,-201.725204,60.18768,24.830126,12.915765,9.620208,-1.0,-1.0,101.634033,-0.406918,-0.009288,0.01592,-0.728802
207149.03766,-0.10328949000000001,-0.15612615,-9.82661814,0.003682,0.001279,0.005063,-38.091751,155.265991,-201.602722,60.18768,24.830126,12.915765,9.620208,-1.0,-1.0,101.634033,-0.406918,-0.009296,0.015916,-0.728791
207149.057641,-0.09504909,-0.15418377,-9.82241946,0.002421,-0.000575,0.006168,-38.091873,155.279816,-201.410156,60.18768,24.830126,12.915765,9.620208,-1.0,-1.0,101.634033,-0.406918,-0.00928,0.015924,-0.72879
207149.077623,-0.09984618,-0.16630893,-9.811343970000001,0.002796,-0.00047,0.004591,-37.932266,155.582291,-201.747162,60.18768,24.830126,12.915765,9.620208,-1.0,-1.0,101.634033,-0.406918,-0.00927,0.015919,-0.728779
207149.097604,-0.07559586,-0.16615197,-9.81793629,0.003328,0.000723,0.003681,-38.100983,155.369766,-202.05423,60.18768,24.830126,12.915765,9.620208,-1.0,-1.0,101.634033,-0.406918,-0.00926,0.015917,-0.728785
207149.117586,-0.09580446000000001,-0.15133887000000001,-9.81777933,0.003328,0.000723,0.003681,-37.987991,155.563156,-201.846695,60.18768,24.830126,12.915765,9.620208,-1.0,-1.0,101.634033,-0.406918,-0.009249,0.015925,-0.728786
207149.137568,-0.09624591,-0.16406244,-9.81329616,0.003626,-0.000468,0.003349,-38.11882,155.239212,-201.931,60.18768,24.830126,12.915765,9.620208,-1.0,-1.0,101.634033,-0.406918,-0.009248,0.015924,-0.728799
207149.157549,-0.08532738,-0.15866694,-9.83065986,0.004821,-0.000741,0.003946,-38.246155,155.361252,-201.656876,60.18768,24.830126,12.915765,9.620208,-1.0,-1.0,101.634033,-0.406918,-0.009239,0.015919,-0.728797
207149.177531,-0.10792962,-0.16899687,-9.813139200000002,0.003427,-0.000453,0.003584,-38.220139,155.306747,-201.903122,60.18768,24.830126,12.915765,9.620208,-1.0,-1.0,101.634033,-0.406918,-0.009245,0.015934,-0.728797
207149.197512,-0.08576883000000002,-0.1588239,-9.81074556,0.003975,-0.001588,0.00353,-38.308746,155.219376,-201.453705,60.18768,24.830126,12.915765,9.620208,-1.0,-1.0,101.634033,-0.406918,-0.009242,0.015927,-0.728799
207149.217494,-0.09774684000000002,-0.16690734000000002,-9.81045126,0.002459,-0.001023,0.004088,-38.168411,155.151871,-201.897598,60.18768,24.830126,12.915765,9.620208,-1.0,-1.0,101.634033,-0.406918,-0.009246,0.015923,-0.728804
207149.217494,-0.09774684000000002,-0.16690734000000002,-9.81045126,0.002459,-0.001023,0.004088,-38.168411,155.151871,-201.897598,60.18768,24.830126,12.915765,9.620208,-1.0,-1.0,101.634033,-0.406918,-0.009246,0.015923,-0.728804
207149.257457,-0.09100737,-0.16466085000000003,-9.816141060000001,0.003272,-0.000127,0.003496,-38.469879,155.301682,-201.62355,60.18768,24.830126,12.915765,9.620208,-1.0,-1.0,101.634033,-0.406918,-0.009244,0.015936,-0.728813
207149.277438,-0.09550035000000001,-0.16884972000000004,-9.819133110000001,0.003064,0.000344,0.004356,-38.267578,155.101593,-201.771942,60.18768,24.830126,12.915765,9.620208,-1.0,-1.0,101.634033,-0.406918,-0.009247,0.015944,-0.728816
207149.29742,-0.08636724,-0.15942231,-9.81823059,0.003627,-0.001272,0.004996,-38.240036,155.298035,-201.458221,60.18768,24.830126,12.915765,9.620208,-1.0,-1.0,101.634033,-0.406918,-0.009241,0.015967,-0.728819
207149.317401,-0.10313253,-0.14594337000000002,-9.818829,0.003371,-0.000368,0.004802,-38.118851,155.093674,-201.443497,60.18768,24.830126,12.915765,9.620208,-1.0,-1.0,101.634033,-0.406918,-0.009248,0.015981,-0.728819
207149.337383,-0.09640287000000002,-0.15538058999999999,-9.81777933,0.003469,0.000123,0.003622,-38.291611,155.449677,-201.622086,60.18768,24.830126,12.915765,9.620208,-1.0,-1.0,101.634033,-0.406918,-0.009247,0.015977,-0.728815
207149.357364,-0.09655002,-0.1588239,-9.81344331,0.004896,-0.001527,0.004952,-38.296127,155.225616,-201.443008,60.18768,24.830126,12.915765,9.620208,-1.0,-1.0,101.634033,-0.406918,-0.009241,0.015988,-0.728809
207149.377346,-0.08831943,-0.16435674000000003,-9.803260530000001,0.003512,0.000322,0.004605,-38.337448,155.117371,-201.858261,60.18768,24.830126,12.915765,9.620208,-1.0,-1.0,101.634033,-0.406918,-0.009254,0.016,-0.728812
207149.397328,-0.08876088000000001,-0.16301277,-9.830807010000001,0.00391,-0.00035,0.003268,-38.235962,155.298264,-201.93045,60.18768,24.830126,12.915765,9.620208,-1.0,-1.0,101.634033,-0.406918,-0.009237,0.016005,-0.72881
207149.417309,-0.08801532000000001,-0.15717582000000002,-9.81164808,0.004046,-0.000313,0.004777,-38.247681,155.210205,-201.723816,60.18768,24.830126,12.915765,9.620208,-1.0,-1.0,101.634033,-0.406918,-0.009232,0.016015,-0.728819
207149.457272,-0.09220419,-0.15866694,-9.823174830000001,0.003855,-6e-06,0.004227,-38.343964,155.128418,-201.905975,60.18768,24.830126,12.915765,9.620208,-1.0,-1.0,101.634033,-0.406918,-0.009213,0.016008,-0.728826
207149.457272,-0.09220419,-0.15866694,-9.823174830000001,0.003855,-6e-06,0.004227,-38.343964,155.128418,-201.905975,60.18768,24.830126,12.915765,9.620208,-1.0,-1.0,101.634033,-0.406918,-0.009213,0.016008,-0.728826
207149.497235,-0.08712261,-0.16839846000000003,-9.827069400000001,0.00155,-0.000298,0.004184,-38.509552,155.093689,-201.50296,60.18768,24.830126,12.915765,9.620208,-1.0,-1.0,101.634033,-0.406918,-0.009201,0.015993,-0.728842
207149.497235,-0.08712261,-0.16839846000000003,-9.827069400000001,0.00155,-0.000298,0.004184,-38.509552,155.093689,-201.50296,60.18768,24.830126,12.915765,9.620208,-1.0,-1.0,101.634033,-0.406918,-0.009201,0.015993,-0.728842
207149.537198,-0.08622009,-0.16780005,-9.816582510000002,0.00262,-0.00035,0.004928,-38.400925,155.160461,-201.807159,60.18768,24.830126,12.915765,9.620208,-1.0,-1.0,101.634033,-0.406918,-0.009194,0.015984,-0.728837
207149.537198,-0.08622009,-0.16780005,-9.816582510000002,0.00262,-0.00035,0.004928,-38.400925,155.160461,-201.807159,60.18768,24.830126,12.915765,9.620208,-1.0,-1.0,101.634033,-0.406918,-0.009194,0.015984,-0.728837
207149.577161,-0.09550035000000001,-0.16165899,-9.82586277,0.003721,-0.000222,0.005594,-38.159439,155.244995,-201.538467,60.18768,24.830126,12.915765,9.620208,-1.0,-1.0,101.634033,-0.406918,-0.009166,0.01599,-0.728826
207149.577161,-0.09550035000000001,-0.16165899,-9.82586277,0.003721,-0.000222,0.005594,-38.159439,155.244995,-201.538467,60.18768,24.830126,12.915765,9.620208,-1.0,-1.0,101.634033,-0.406918,-0.009166,0.01599,-0.728826
207149.617125,-0.08023599000000001,-0.16270866,-9.823174830000001,0.003493,0.000215,0.003098,-38.215515,155.068115,-201.800705,60.18768,24.830126,12.915765,9.620208,-1.0,-1.0,101.634033,-0.406918,-0.009159,0.015965,-0.728841
207149.617125,-0.08023599000000001,-0.16270866,-9.823174830000001,0.003493,0.000215,0.003098,-38.215515,155.068115,-201.800705,60.18768,24.830126,12.915765,9.620208,-1.0,-1.0,101.634033,-0.406918,-0.009159,0.015965,-0.728841
207149.657088,-0.09595161,-0.16600482,-9.82272357,0.003297,-0.001305,0.003551,-38.262283,155.222214,-201.970886,60.18768,24.830126,12.915765,9.620208,-1.0,-1.0,101.634033,-0.406918,-0.009129,0.015961,-0.728855
207149.677069,-0.08322804,-0.14354973000000001,-9.8216739,0.004814,-0.00049,0.002222,-38.140915,155.278564,-201.782516,60.18768,24.830126,12.915765,9.620208,-1.0,-1.0,101.634033,-0.406918,-0.009138,0.015969,-0.728863
207149.697051,-0.09430353000000001,-0.16061913,-9.82241946,0.001929,-0.000761,0.003422,-38.161957,155.434784,-202.052856,60.18768,24.830126,12.915765,9.620208,-1.0,-1.0,101.634033,-0.406918,-0.00913,0.015979,-0.728885
207149.717032,-0.09011466,-0.16151184,-9.82272357,0.0022,-0.001233,0.003239,-37.981644,155.402573,-201.812943,60.18768,24.830126,12.915765,9.620208,-1.0,-1.0,101.634033,-0.406918,-0.009116,0.015966,-0.728898
207149.737014,-0.08861373,-0.17035065,-9.8216739,0.00266,-0.000204,0.004397,-38.163544,155.094498,-201.902603,60.18768,24.830126,12.915765,9.620208,-1.0,-1.0,101.634033,-0.406918,-0.009114,0.015954,-0.728911
207149.756995,-0.08921214,-0.16315992,-9.81194238,0.00266,-0.000204,0.004397,-38.117386,155.395874,-201.845444,60.18768,24.830126,12.915765,9.620208,-1.0,-1.0,101.634033,-0.406918,-0.009114,0.015943,-0.728912
207149.776977,-0.10298538000000002,-0.16870257000000002,-9.823469130000001,0.003982,8.3e-05,0.004459,-38.078827,155.275452,-201.8535,60.18768,24.830126,12.915765,9.620208,-1.0,-1.0,101.634033,-0.406918,-0.00911,0.015939,-0.728924
207149.796958,-0.09774684000000002,-0.16091343000000002,-9.82646118,0.003809,-6e-05,0.005189,-38.158875,155.308273,-201.78212,60.18768,24.830126,12.915765,9.620208,-1.0,-1.0,101.634033,-0.406918,-0.009105,0.015935,-0.728921
207149.81694,-0.0928026,-0.15866694,-9.832150980000002,0.003849,0.00046,0.00533,-38.161591,155.217789,-201.543549,60.18768,24.830126,12.915765,9.620208,-1.0,-1.0,101.634033,-0.406918,-0.00911,0.015947,-0.728924
207149.836922,-0.09894366,-0.16061913,-9.8216739,0.003849,0.00046,0.00533,-38.288727,155.1875,-202.061295,60.18768,24.830126,12.915765,9.620208,-1.0,-1.0,101.634033,-0.406918,-0.009096,0.015952,-0.728926
207149.856903,-0.07963758,-0.15342840000000002,-9.811049670000001,0.003376,-0.000391,0.002303,-38.249359,155.288208,-201.808655,60.18768,24.830126,12.915765,9.620208,-1.0,-1.0,101.634033,-0.406918,-0.009093,0.015955,-0.728936
207149.876885,-0.08741691000000001,-0.1474443,-9.832602240000002,0.003429,0.001181,0.00352,-38.172272,155.217407,-201.773895,60.18768,24.830126,12.915765,9.620208,-1.0,-1.0,101.634033,-0.406918,-0.009091,0.015952,-0.728958
207149.896866,-0.09460764,-0.15418377,-9.811795230000001,0.002776,-0.000651,0.004901,-38.121277,155.280334,-201.868576,60.18768,24.830126,12.915765,9.620208,-1.0,-1.0,101.634033,-0.406918,-0.009087,0.015962,-0.728972
207149.916848,-0.10269108,-0.15926535,-9.81209934,0.003337,-0.000755,0.00517,-38.145004,155.284653,-201.555878,60.18768,24.830126,12.915765,9.620208,-1.0,-1.0,101.634033,-0.406918,-0.009092,0.015973,-0.728987
207149.936829,-0.08756406,-0.16076628,-9.839037600000001,0.002905,0.000427,0.004589,-38.266418,155.207764,-201.60675,60.18768,24.830126,12.915765,9.620208,-1.0,-1.0,101.634033,-0.406918,-0.009089,0.015981,-0.728996
207149.956811,-0.10119015,-0.15986376000000002,-9.823174830000001,0.001565,-0.000915,0.003298,-38.330521,155.161255,-201.712143,60.18768,24.830126,12.915765,9.620208,-1.0,-1.0,101.634033,-0.406918,-0.009081,0.015979,-0.728998
207149.976792,-0.09744273000000002,-0.17139051000000002,-9.82122264,0.002951,-0.000797,0.00341,-38.107101,155.398636,-201.833313,60.18768,24.830126,12.915765,9.620208,-1.0,-1.0,101.634033,-0.406918,-0.009082,0.015969,-0.729014
207149.996774,-0.08053028999999999,-0.16330707,-9.82616688,0.002529,-0.001003,0.005663,-38.089355,155.277527,-201.970764,60.18768,24.830126,12.915765,9.620208,-1.0,-1.0,101.634033,-0.406918,-0.009082,0.015968,-0.729029
207150.016756,-0.09415638000000001,-0.14818986,-9.82107549,0.004612,0.0006,0.003394,-38.012802,155.584549,-202.055847,60.18768,24.830126,12.915765,9.620208,-1.0,-1.0,101.634064,-0.406918,-0.009087,0.015968,-0.729028
207150.036737,-0.08471916,-0.16211025,-9.82032993,0.003697,-0.001073,0.003597,-38.125381,155.425049,-202.069077,60.18768,24.830126,12.915765,9.620208,-1.0,-1.0,101.634064,-0.406918,-0.009085,0.015994,-0.729049
207150.056719,-0.09026181000000001,-0.16660323000000002,-9.812246490000001,0.002989,-0.00052,0.004115,-38.131302,155.335388,-201.910812,60.18768,24.830126,12.915765,9.620208,-1.0,-1.0,101.634064,-0.406918,-0.009101,0.015996,-0.729058
207150.096682,-0.08756406,-0.15118191,-9.812246490000001,0.002562,-0.000638,0.004475,-38.092529,155.505371,-202.027695,60.18768,24.830126,12.915765,9.620208,-1.0,-1.0,101.634064,-0.406918,-0.009095,0.015994,-0.729047
207150.096682,-0.08756406,-0.15118191,-9.812246490000001,0.002562,-0.000638,0.004475,-38.092529,155.505371,-202.027695,60.18768,24.830126,12.915765,9.620208,-1.0,-1.0,101.634064,-0.406918,-0.009095,0.015994,-0.729047
207150.136645,-0.09145863,-0.16690734000000002,-9.823626090000001,0.002695,-0.000715,0.004508,-38.084641,155.510818,-202.122894,60.18768,24.830126,12.915765,9.620208,-1.0,-1.0,101.634064,-0.406918,-0.009096,0.016004,-0.729054
207150.136645,-0.09145863,-0.16690734000000002,-9.823626090000001,0.002695,-0.000715,0.004508,-38.084641,155.510818,-202.122894,60.18768,24.830126,12.915765,9.620208,-1.0,-1.0,101.634064,-0.406918,-0.009096,0.016004,-0.729054
207150.176608,-0.09490194,-0.15418377,-9.81494424,0.003542,-0.001039,0.003718,-37.980835,155.210144,-201.617661,60.18768,24.830126,12.915765,9.620208,-1.0,-1.0,101.634064,-0.406918,-0.009122,0.016013,-0.729079
207150.176608,-0.09490194,-0.15418377,-9.81494424,0.003542,-0.001039,0.003718,-37.980835,155.210144,-201.617661,60.18768,24.830126,12.915765,9.620208,-1.0,-1.0,101.634064,-0.406918,-0.009122,0.016013,-0.729079
207150.216571,-0.09490194,-0.15373251000000002,-9.81643536,0.003012,-0.000968,0.004722,-38.070755,155.491058,-202.176819,60.18768,24.830126,12.915765,9.620208,-1.0,-1.0,101.634064,-0.406918,-0.009135,0.016024,-0.72909
207150.216571,-0.09490194,-0.15373251000000002,-9.81643536,0.003012,-0.000968,0.004722,-38.070755,155.491058,-202.176819,60.18768,24.830126,12.915765,9.620208,-1.0,-1.0,101.634064,-0.406918,-0.009135,0.016024,-0.72909
207150.256534,-0.08906499000000001,-0.15866694,-9.816582510000002,0.002111,-0.000434,0.004022,-38.062332,155.371201,-202.204849,60.18768,24.830126,12.915765,9.620208,-1.0,-1.0,101.634064,-0.406918,-0.009149,0.016022,-0.72909
207150.276516,-0.10927359,-0.16046217000000002,-9.831101310000001,0.002919,-0.00051,0.00387,-38.159637,155.337708,-201.861526,60.18768,24.830126,12.915765,9.620208,-1.0,-1.0,101.634064,-0.406918,-0.009149,0.016015,-0.729089
207150.296497,-0.08232552,-0.15822549000000002,-9.823626090000001,0.002417,-0.000552,0.0056,-37.961853,155.437378,-201.913452,60.18768,24.830126,12.915765,9.620208,-1.0,-1.0,101.634064,-0.406918,-0.009153,0.016011,-0.729112
207150.296497,-0.08232552,-0.15822549000000002,-9.823626090000001,0.002417,-0.000552,0.0056,-37.961853,155.437378,-201.913452,60.18768,24.830126,12.915765,9.620208,-1.0,-1.0,101.634064,-0.406918,-0.009153,0.016011,-0.729112
207150.336461,-0.08308089000000002,-0.15822549000000002,-9.82901178,0.00276,0.000761,0.004057,-37.986832,155.390778,-201.829605,60.18768,24.830126,12.915765,9.620208,-1.0,-1.0,101.634064,-0.406918,-0.00917,0.015985,-0.729109
207150.336461,-0.08308089000000002,-0.15822549000000002,-9.82901178,0.00276,0.000761,0.004057,-37.986832,155.390778,-201.829605,60.18768,24.830126,12.915765,9.620208,-1.0,-1.0,101.634064,-0.406918,-0.00917,0.015985,-0.729109
207150.376424,-0.09040896000000001,-0.15866694,-9.820182780000001,0.002949,5.8e-05,0.002901,-38.094406,155.296539,-201.7845,60.18768,24.830126,12.915765,9.620208,-1.0,-1.0,101.634064,-0.406918,-0.009164,0.01597,-0.72911
207150.376424,-0.09040896000000001,-0.15866694,-9.820182780000001,0.002949,5.8e-05,0.002901,-38.094406,155.296539,-201.7845,60.18768,24.830126,12.915765,9.620208,-1.0,-1.0,101.634064,-0.406918,-0.009164,0.01597,-0.72911
207150.416387,-0.08712261,-0.15657741,-9.82241946,0.003621,0.000223,0.006047,-38.043228,155.522476,-201.621643,60.18768,24.830126,12.915765,9.620208,-1.0,-1.0,101.634064,-0.406918,-0.009179,0.015958,-0.72912
207150.436369,-0.08981055,-0.16630893,-9.817033770000002,0.003864,-0.000376,0.004106,-37.948074,155.381088,-201.660904,60.18768,24.830126,12.915765,9.620208,-1.0,-1.0,101.634064,-0.406918,-0.009177,0.015958,-0.729106
207150.45635,-0.09011466,-0.16136469,-9.81777933,0.002596,-0.000679,0.004741,-38.003983,155.509628,-202.2668,60.18768,24.830126,12.915765,9.620208,-1.0,-1.0,101.634064,-0.406918,-0.009183,0.015958,-0.729121
207150.476332,-0.10463346000000001,-0.15806852999999998,-9.82946304,0.003509,0.000376,0.0039,-37.952072,155.331223,-201.880554,60.18768,24.830126,12.915765,9.620208,-1.0,-1.0,101.634064,-0.406918,-0.009171,0.015948,-0.729126
207150.496313,-0.09026181000000001,-0.16315992,-9.819427410000001,0.002705,-0.001536,0.002883,-38.200531,155.286469,-202.089417,60.18768,24.830126,12.915765,9.620208,-1.0,-1.0,101.634064,-0.406918,-0.009175,0.015943,-0.729119
207150.516295,-0.09415638000000001,-0.16734879000000003,-9.81209934,0.002368,-0.000432,0.004646,-38.195038,155.20015,-201.857956,60.18768,24.830126,12.915765,9.620208,-1.0,-1.0,101.634064,-0.406918,-0.009182,0.015937,-0.729131
207150.536276,-0.08846658,-0.16136469,-9.83379906,0.003369,0.000112,0.006128,-38.079285,155.336075,-202.041077,60.18768,24.830126,12.915765,9.620208,-1.0,-1.0,101.634064,-0.406918,-0.00918,0.015943,-0.729141
207150.556258,-0.08053028999999999,-0.15538058999999999,-9.82542132,0.002641,-0.001818,0.004541,-38.147324,155.35582,-201.850037,60.18768,24.830126,12.915765,9.620208,-1.0,-1.0,101.634064,-0.406918,-0.009179,0.015954,-0.729133
207150.57624,-0.09714843000000001,-0.15088761,-9.82107549,0.002215,0.000331,0.005587,-38.194916,155.179214,-201.824768,60.18768,24.830126,12.915765,9.620208,-1.0,-1.0,101.634064,-0.406918,-0.009189,0.015956,-0.729147
207150.596221,-0.09805095000000001,-0.15358536,-9.81299205,0.002503,-0.001266,0.006454,-38.189087,155.591583,-201.848694,60.18768,24.830126,12.915765,9.620208,-1.0,-1.0,101.634064,-0.406918,-0.009186,0.015954,-0.72914
207150.616203,-0.08576883000000002,-0.16002072,-9.82646118,0.003539,-0.000138,0.0038,-38.087662,155.452499,-201.894852,60.18768,24.830126,12.915765,9.620208,-1.0,-1.0,101.634064,-0.406918,-0.009196,0.015954,-0.72914
207150.636184,-0.10269108,-0.164808,-9.823469130000001,0.002929,0.000215,0.005262,-38.192383,155.56897,-201.74176,60.18768,24.830126,12.915765,9.620208,-1.0,-1.0,101.634064,-0.406918,-0.009194,0.015966,-0.72915
207150.656166,-0.10193571,-0.16450389,-9.82646118,0.002556,-0.001868,0.005225,-37.954895,155.53035,-201.582443,60.18768,24.830126,12.915765,9.620208,-1.0,-1.0,101.634064,-0.406918,-0.009209,0.015964,-0.729158
207150.676147,-0.07708698000000001,-0.15328125,-9.819427410000001,0.000752,-0.001088,0.003412,-38.034195,155.393204,-201.950714,60.18768,24.830126,12.915765,9.620208,-1.0,-1.0,101.634064,-0.406918,-0.009218,0.015958,-0.729165
207150.696129,-0.09714843000000001,-0.15462522000000004,-9.82332198,0.003628,-0.000301,0.005471,-38.0354,155.387207,-201.961304,60.18768,24.830126,12.915765,9.620208,-1.0,-1.0,101.634064,-0.406918,-0.009231,0.015939,-0.729176
207150.716111,-0.09100737,-0.15897105,-9.819133110000001,0.003923,-0.000318,0.005498,-38.148926,155.406876,-202.166489,60.18768,24.830126,12.915765,9.620208,-1.0,-1.0,101.634064,-0.406918,-0.009233,0.015938,-0.729179
207150.736092,-0.09100737,-0.14878827,-9.823626090000001,0.003397,-0.000377,0.004382,-37.955154,155.675186,-201.683472,60.18768,24.830126,12.915765,9.620208,-1.0,-1.0,101.634064,-0.406918,-0.009244,0.015949,-0.729175
207150.756074,-0.09100737,-0.15313410000000002,-9.82841337,0.002747,-0.000109,0.005868,-38.129379,155.361923,-201.648117,60.18768,24.830126,12.915765,9.620208,-1.0,-1.0,101.634064,-0.406918,-0.009241,0.015958,-0.729187
207150.776055,-0.10208286000000001,-0.16555356,-9.822870720000001,0.003035,0.000642,0.005373,-38.108795,155.323456,-201.741562,60.18768,24.830126,12.915765,9.620208,-1.0,-1.0,101.634064,-0.406918,-0.009246,0.015953,-0.729193
207150.796037,-0.0836793,-0.16660323000000002,-9.835594290000001,0.002973,-0.001623,0.003456,-38.110718,155.238083,-201.387604,60.18768,24.830126,12.915765,9.620208,-1.0,-1.0,101.634064,-0.406918,-0.009242,0.015963,-0.729194
207150.816019,-0.09295956000000001,-0.16256151,-9.823469130000001,0.002746,0.000647,0.00403,-38.038712,155.2948,-201.297729,60.18768,24.830126,12.915765,9.620208,-1.0,-1.0,101.634064,-0.406918,-0.009266,0.015958,-0.729209
207150.855982,-0.08592579,-0.15193728,-9.82886463,0.003951,-0.000545,0.004932,-38.172302,155.15918,-201.641037,60.18768,24.830126,12.915765,9.620208,-1.0,-1.0,101.634064,-0.406918,-0.009271,0.015948,-0.729206
207150.855982,-0.08592579,-0.15193728,-9.82886463,0.003951,-0.000545,0.004932,-38.172302,155.15918,-201.641037,60.18768,24.830126,12.915765,9.620208,-1.0,-1.0,101.634064,-0.406918,-0.009271,0.015948,-0.729206
207150.875963,-0.09669717,-0.16794720000000002,-9.82272357,0.003672,-3.4e-05,0.006229,-38.070068,155.249741,-201.735458,60.18768,24.830126,12.915765,9.620208,-1.0,-1.0,101.634064,-0.406918,-0.009283,0.01594,-0.729212
207150.875963,-0.09669717,-0.16794720000000002,-9.82272357,0.003672,-3.4e-05,0.006229,-38.070068,155.249741,-201.735458,60.18768,24.830126,12.915765,9.620208,-1.0,-1.0,101.634064,-0.406918,-0.009283,0.01594,-0.729212
207150.875963,-0.09669717,-0.16794720000000002,-9.82272357,0.003672,-3.4e-05,0.006229,-38.070068,155.249741,-201.735458,60.18768,24.830126,12.915765,9.620208,-1.0,-1.0,101.634064,-0.406918,-0.009283,0.01594,-0.729212
207150.935908,-0.08217837000000001,-0.17258733,-9.831101310000001,0.004133,0.000655,0.005849,-38.140686,155.19133,-201.39534,60.18768,24.830126,12.915765,9.620208,-1.0,-1.0,101.634064,-0.406918,-0.009286,0.015934,-0.729207
207150.97587,-0.0868185,-0.16914402,-9.819731520000001,0.001641,-0.000993,0.003497,-38.035812,155.363388,-201.593658,60.18768,24.830126,12.915765,9.620208,-1.0,-1.0,101.634064,-0.406918,-0.009292,0.015915,-0.72921
207150.995853,-0.09805095000000001,-0.16600482,-9.82107549,0.003066,-0.001401,0.004643,-38.133514,155.312485,-202.024811,60.18768,24.830126,12.915765,9.620208,-1.0,-1.0,101.634064,-0.406918,-0.00929,0.015905,-0.729212
207151.015834,-0.10119015,-0.15956946,-9.818829,0.003191,-0.00097,0.003967,-38.079376,155.401184,-201.979019,60.18768,24.830126,12.915765,9.620208,-1.0,-1.0,101.634064,-0.406918,-0.009297,0.015904,-0.729212
207151.015834,-0.10119015,-0.15956946,-9.818829,0.003191,-0.00097,0.003967,-38.079376,155.401184,-201.979019,60.18768,24.830126,12.915765,9.620208,-1.0,-1.0,101.634064,-0.406918,-0.009297,0.015904,-0.729212
207151.055798,-0.08981055,-0.14923953,-9.81418887,0.003515,0.000511,0.004449,-38.061523,155.345352,-201.84407,60.18768,24.830126,12.915765,9.620208,-1.0,-1.0,101.634064,-0.406918,-0.009308,0.01591,-0.729214
207151.075779,-0.09040896000000001,-0.16765290000000002,-9.82466595,0.004467,0.000297,0.00358,-37.941391,155.547729,-201.892883,60.18768,24.830126,12.915765,9.620208,-1.0,-1.0,101.634064,-0.406918,-0.009295,0.015926,-0.729213
207151.095761,-0.09744273000000002,-0.17035065,-9.82511721,0.003776,-0.001046,0.00467,-37.971085,155.375397,-202.110275,60.18768,24.830126,12.915765,9.620208,-1.0,-1.0,101.634094,-0.412201,-0.009287,0.015938,-0.729226
207151.115742,-0.09385227000000002,-0.16600482,-9.81643536,0.004421,-0.000192,0.004636,-38.048645,155.472488,-202.015182,60.18768,24.830126,12.915765,9.620208,-1.0,-1.0,101.634094,-0.412201,-0.009287,0.015957,-0.729237
207151.135724,-0.09729558,-0.15956946,-9.820182780000001,0.004515,-0.000436,0.005475,-37.962814,155.464874,-202.236938,60.18768,24.830126,12.915765,9.620208,-1.0,-1.0,101.634094,-0.412201,-0.00929,0.015978,-0.729243
207151.155706,-0.09056592000000001,-0.16630893,-9.81209934,0.003087,0.000416,0.005028,-37.861465,155.440948,-201.873871,60.18768,24.830126,12.915765,9.620208,-1.0,-1.0,101.634094,-0.412201,-0.009294,0.015983,-0.729233
207151.175687,-0.09669717,-0.17214588000000003,-9.82511721,0.003639,-0.000176,0.005421,-37.829666,155.476013,-201.961685,60.18768,24.830126,12.915765,9.620208,-1.0,-1.0,101.634094,-0.412201,-0.009292,0.015978,-0.729234
207151.195669,-0.10298538000000002,-0.16136469,-9.82257642,0.002742,0.000304,0.005608,-37.937012,155.54364,-201.856506,60.18768,24.830126,12.915765,9.620208,-1.0,-1.0,101.634094,-0.412201,-0.009294,0.015987,-0.72924
207151.21565,-0.09954207,-0.16016787000000002,-9.82601973,0.00268,0.000243,0.006693,-38.022095,155.394501,-201.901733,60.18768,24.830126,12.915765,9.620208,-1.0,-1.0,101.634094,-0.412201,-0.009288,0.015979,-0.729237
207151.235632,-0.09564750000000001,-0.15657741,-9.807155100000001,0.003286,3.7e-05,0.003764,-37.891602,155.373749,-201.753571,60.18768,24.830126,12.915765,9.620208,-1.0,-1.0,101.634094,-0.412201,-0.00928,0.01598,-0.729241
207151.255614,-0.09564750000000001,-0.15507648,-9.81090252,0.002608,-0.000868,0.004744,-37.981491,155.576508,-201.835907,60.18768,24.830126,12.915765,9.620208,-1.0,-1.0,101.634094,-0.412201,-0.009279,0.015977,-0.729252
207151.275595,-0.07948062,-0.16989939,-9.81733788,0.003356,0.000394,0.004605,-38.090424,155.513748,-201.650375,60.18768,24.830126,12.915765,9.620208,-1.0,-1.0,101.634094,-0.412201,-0.009273,0.015988,-0.729267
207151.295577,-0.09609875999999999,-0.17109621000000003,-9.807302250000001,0.004904,-0.001163,0.004226,-37.971039,155.453445,-201.870758,60.18768,24.830126,12.915765,9.620208,-1.0,-1.0,101.634094,-0.412201,-0.00927,0.015983,-0.729265
207151.315557,-0.09520605,-0.16106057999999998,-9.836045550000001,0.00439,4.4e-05,0.004121,-37.986801,155.545425,-202.03952,60.18768,24.830126,12.915765,9.620208,-1.0,-1.0,101.634094,-0.412201,-0.009271,0.016,-0.729273
207151.33554,-0.09504909,-0.16495515000000002,-9.820025820000001,0.00383,-0.00028,0.006383,-37.94635,155.27594,-201.686981,60.18768,24.830126,12.915765,9.620208,-1.0,-1.0,101.634094,-0.412201,-0.009265,0.016005,-0.729283
207151.355522,-0.09609875999999999,-0.17004654,-9.818534699999999,0.004035,-1.8e-05,0.003496,-37.951736,155.332642,-201.888519,60.18768,24.830126,12.915765,9.620208,-1.0,-1.0,101.634094,-0.412201,-0.009264,0.016001,-0.729264
207151.375503,-0.09400923,-0.16435674000000003,-9.81987867,0.002314,3e-06,0.004438,-38.093994,155.302444,-201.842285,60.18768,24.830126,12.915765,9.620208,-1.0,-1.0,101.634094,-0.412201,-0.009253,0.016021,-0.729261
207151.395485,-0.10028763,-0.15926535,-9.81418887,0.001591,-0.001071,0.004201,-37.973465,155.253357,-201.668076,60.18768,24.830126,12.915765,9.620208,-1.0,-1.0,101.634094,-0.412201,-0.009247,0.016012,-0.729262
207151.415466,-0.09236115,-0.15373251000000002,-9.818829,0.002635,0.00117,0.00453,-38.112411,155.338043,-201.369629,60.18768,24.830126,12.915765,9.620208,-1.0,-1.0,101.634094,-0.412201,-0.009246,0.01601,-0.729262
207151.435448,-0.08996751000000001,-0.15866694,-9.811500930000001,0.002346,0.000481,0.004304,-38.308365,155.264236,-201.581131,60.18768,24.830126,12.915765,9.620208,-1.0,-1.0,101.634094,-0.412201,-0.009241,0.016009,-0.729265
207151.45543,-0.08786817,-0.16211025,-9.81404172,0.003622,3.5e-05,0.002623,-38.097153,155.318634,-201.605469,60.18768,24.830126,12.915765,9.620208,-1.0,-1.0,101.634094,-0.412201,-0.009243,0.016004,-0.729269
207151.475411,-0.09490194,-0.1761876,-9.82466595,0.00372,0.000253,0.003988,-38.104355,155.2659,-201.777634,60.18768,24.830126,12.915765,9.620208,-1.0,-1.0,101.634094,-0.412201,-0.009241,0.016003,-0.72928
207151.495393,-0.08981055,-0.16106057999999998,-9.82406754,0.003994,-0.000567,0.003397,-38.000565,155.391846,-201.79425,60.18768,24.830126,12.915765,9.620208,-1.0,-1.0,101.634094,-0.412201,-0.009236,0.015998,-0.729292
207151.535356,-0.09550035000000001,-0.16241436,-9.80925444,0.003299,-0.000295,0.005053,-37.924667,155.437637,-201.699738,60.18768,24.830126,12.915765,9.620208,-1.0,-1.0,101.634094,-0.412201,-0.009228,0.015995,-0.729306
207151.535356,-0.09550035000000001,-0.16241436,-9.80925444,0.003299,-0.000295,0.005053,-37.924667,155.437637,-201.699738,60.18768,24.830126,12.915765,9.620208,-1.0,-1.0,101.634094,-0.412201,-0.009228,0.015995,-0.729306
207151.575319,-0.09310671,-0.16301277,-9.820182780000001,0.003236,0.000372,0.003814,-37.869064,155.250916,-201.448013,60.18768,24.830126,12.915765,9.620208,-1.0,-1.0,101.634094,-0.412201,-0.009249,0.015996,-0.729313
207151.575319,-0.09310671,-0.16301277,-9.820182780000001,0.003236,0.000372,0.003814,-37.869064,155.250916,-201.448013,60.18768,24.830126,12.915765,9.620208,-1.0,-1.0,101.634094,-0.412201,-0.009249,0.015996,-0.729313
207151.615283,-0.07663572,-0.17468667000000002,-9.830807010000001,0.002529,0.000548,0.005237,-37.868179,155.545059,-201.630325,60.18768,24.830126,12.915765,9.620208,-1.0,-1.0,101.634094,-0.412201,-0.009229,0.015993,-0.729324
207151.615283,-0.07663572,-0.17468667000000002,-9.830807010000001,0.002529,0.000548,0.005237,-37.868179,155.545059,-201.630325,60.18768,24.830126,12.915765,9.620208,-1.0,-1.0,101.634094,-0.412201,-0.009229,0.015993,-0.729324
207151.655246,-0.1038879,-0.16256151,-9.820182780000001,0.003056,-0.0013,0.005392,-37.872528,155.630478,-201.812592,60.18768,24.830126,12.915765,9.620208,-1.0,-1.0,101.634094,-0.412201,-0.009226,0.01599,-0.729337
207151.655246,-0.1038879,-0.16256151,-9.820182780000001,0.003056,-0.0013,0.005392,-37.872528,155.630478,-201.812592,60.18768,24.830126,12.915765,9.620208,-1.0,-1.0,101.634094,-0.412201,-0.009226,0.01599,-0.729337
207151.695209,-0.08427771,-0.15687171,-9.822870720000001,0.003742,0.000489,0.003449,-37.84079,155.241013,-201.812012,60.18768,24.830126,12.915765,9.620208,-1.0,-1.0,101.634094,-0.412201,-0.009232,0.015986,-0.72934
207151.715191,-0.09475478999999999,-0.16270866,-9.81329616,0.001964,-0.00121,0.004095,-37.945969,155.345673,-201.802383,60.18768,24.830126,12.915765,9.620208,-1.0,-1.0,101.634094,-0.412201,-0.009228,0.016002,-0.729344
207151.735172,-0.09504909,-0.15507648,-9.81763218,0.003351,-0.001878,0.003267,-37.775513,155.515732,-201.845612,60.18768,24.830126,12.915765,9.620208,-1.0,-1.0,101.634094,-0.412201,-0.009225,0.016,-0.729349
207151.735172,-0.09504909,-0.15507648,-9.81763218,0.003351,-0.001878,0.003267,-37.775513,155.515732,-201.845612,60.18768,24.830126,12.915765,9.620208,-1.0,-1.0,101.634094,-0.412201,-0.009225,0.016,-0.729349
207151.775134,-0.09849240000000001,-0.16974243,-9.81,0.003434,-0.001092,0.004962,-37.946487,155.540314,-201.575104,60.18768,24.830126,12.915765,9.620208,-1.0,-1.0,101.634094,-0.412201,-0.009237,0.015986,-0.729373
207151.795117,-0.09924777,-0.16630893,-9.817485030000002,0.001858,-0.000858,0.004473,-37.917313,155.537903,-201.652756,60.18768,24.830126,12.915765,9.620208,-1.0,-1.0,101.634094,-0.412201,-0.009243,0.015984,-0.729377
207151.815099,-0.09325386000000001,-0.16974243,-9.83200383,0.003954,-0.000897,0.005002,-37.81218,155.394974,-201.791,60.18768,24.830126,12.915765,9.620208,-1.0,-1.0,101.634094,-0.412201,-0.009244,0.015973,-0.729386
207151.83508,-0.09834525,-0.15942231,-9.80655669,0.003498,-0.000872,0.004568,-37.784668,155.527481,-201.552002,60.18768,24.830126,12.915765,9.620208,-1.0,-1.0,101.634094,-0.412201,-0.009257,0.015981,-0.729398
207151.855062,-0.09071307,-0.16375833,-9.817485030000002,0.003327,0.000813,0.004749,-37.998932,155.656967,-201.735992,60.18768,24.830126,12.915765,9.620208,-1.0,-1.0,101.634094,-0.412201,-0.009267,0.015981,-0.729389
207151.875044,-0.08667135000000001,-0.16884972000000004,-9.81538569,0.004266,2.8e-05,0.004021,-38.062805,155.398178,-201.933258,60.18768,24.830126,12.915765,9.620208,-1.0,-1.0,101.634094,-0.412201,-0.009269,0.015983,-0.729391
207151.895025,-0.10373094000000001,-0.14849397,-9.80655669,0.001909,0.000421,0.005683,-38.021683,155.421005,-201.906631,60.18768,24.830126,12.915765,9.620208,-1.0,-1.0,101.634094,-0.412201,-0.009258,0.01598,-0.729387
207151.895025,-0.10373094000000001,-0.14849397,-9.80655669,0.001909,0.000421,0.005683,-38.021683,155.421005,-201.906631,60.18768,24.830126,12.915765,9.620208,-1.0,-1.0,101.634094,-0.412201,-0.009258,0.01598,-0.729387
207151.895025,-0.10373094000000001,-0.14849397,-9.80655669,0.001909,0.000421,0.005683,-38.021683,155.421005,-201.906631,60.18768,24.830126,12.915765,9.620208,-1.0,-1.0,101.634094,-0.412201,-0.009258,0.01598,-0.729387
207151.95497,-0.08427771,-0.16031502,-9.81239364,0.002435,-4.4e-05,0.005505,-37.976898,155.508041,-201.775635,60.18768,24.830126,12.915765,9.620208,-1.0,-1.0,101.634094,-0.412201,-0.009245,0.015963,-0.729399
207151.974952,-0.09100737,-0.1704978,-9.8159841,0.002477,-0.00092,0.003837,-38.087845,155.541489,-201.738556,60.18768,24.830126,12.915765,9.620208,-1.0,-1.0,101.634094,-0.412201,-0.009244,0.015968,-0.729384
207151.994933,-0.09265545000000001,-0.16899687,-9.81718092,0.004465,2.6e-05,0.004011,-38.068268,155.39325,-201.604004,60.18768,24.830126,12.915765,9.620208,-1.0,-1.0,101.634094,-0.412201,-0.009237,0.015958,-0.729386
207152.014915,-0.09968922,-0.15851979,-9.82152675,0.001587,-0.001671,0.005625,-37.88739,155.679291,-201.590256,60.18768,24.830126,12.915765,9.620208,-1.0,-1.0,101.634094,-0.412201,-0.009241,0.015973,-0.729383
207152.034897,-0.08232552,-0.15313410000000002,-9.818829,0.002005,0.000242,0.004103,-38.042313,155.681747,-201.722046,60.18768,24.830126,12.915765,9.620208,-1.0,-1.0,101.634094,-0.412201,-0.009244,0.015964,-0.729386
207152.054878,-0.09116433,-0.15358536,-9.829158930000002,0.0011,-0.000579,0.005534,-37.774872,155.718933,-201.797592,60.18768,24.830126,12.915765,9.620208,-1.0,-1.0,101.634094,-0.412201,-0.009231,0.015951,-0.729398
207152.07486,-0.09145863,-0.15657741,-9.823626090000001,0.003136,0.000351,0.005432,-38.062271,155.465668,-201.603424,60.18768,24.830126,12.915765,9.620208,-1.0,-1.0,101.634094,-0.412201,-0.009226,0.015936,-0.729388
207152.094842,-0.10073889000000001,-0.16046217000000002,-9.82406754,0.003964,-0.001958,0.003515,-38.017776,155.251892,-201.651306,60.18768,24.830126,12.915765,9.620208,-1.0,-1.0,101.634094,-0.412201,-0.009219,0.015946,-0.72938
207152.114823,-0.08308089000000002,-0.15433092,-9.828109260000002,0.003908,-0.000604,0.003727,-38.006531,155.46698,-201.850479,60.18768,24.830126,12.915765,9.620208,-1.0,-1.0,101.634094,-0.412201,-0.009231,0.015965,-0.729384
207152.134805,-0.09190989000000001,-0.16121754000000002,-9.81464013,0.003977,0.002151,0.00414,-37.996765,155.452377,-201.748764,60.18768,24.830126,12.915765,9.620208,-1.0,-1.0,101.634094,-0.412201,-0.009223,0.015966,-0.729394
207152.154786,-0.09236115,-0.16750575,-9.836045550000001,0.003764,0.00031,0.003246,-37.780136,155.763367,-201.354828,60.18768,24.830126,12.915765,9.620208,-1.0,-1.0,101.634094,-0.412201,-0.009202,0.015967,-0.729389
207152.174768,-0.08935929000000001,-0.15253569,-9.820025820000001,0.001928,-0.000789,0.004782,-37.999023,155.374054,-201.856567,60.18768,24.830126,12.915765,9.620208,-1.0,-1.0,101.634201,-0.422771,-0.009206,0.015981,-0.7294
207152.19475,-0.09236115,-0.164808,-9.821821049999999,0.004075,-0.000917,0.005053,-37.764603,155.550034,-201.690186,60.18768,24.830126,12.915765,9.620208,-1.0,-1.0,101.634201,-0.422771,-0.009213,0.015969,-0.729393
207152.214731,-0.09131148000000001,-0.15762708,-9.819731520000001,0.003554,-0.000302,0.004596,-38.090942,155.490387,-201.621475,60.18768,24.830126,12.915765,9.620208,-1.0,-1.0,101.634201,-0.422771,-0.009218,0.015963,-0.729388
207152.254695,-0.0925083,-0.15942231,-9.82062423,0.002641,-0.001429,0.005246,-38.051712,155.392303,-201.975128,60.18768,24.830126,12.915765,9.620208,-1.0,-1.0,101.634201,-0.422771,-0.009213,0.015966,-0.729388
207152.254695,-0.0925083,-0.15942231,-9.82062423,0.002641,-0.001429,0.005246,-38.051712,155.392303,-201.975128,60.18768,24.830126,12.915765,9.620208,-1.0,-1.0,101.634201,-0.422771,-0.009213,0.015966,-0.729388
207152.294658,-0.08846658,-0.15538058999999999,-9.82377324,0.002003,-0.000158,0.006093,-38.113144,155.518799,-201.853775,60.18768,24.830126,12.915765,9.620208,-1.0,-1.0,101.634201,-0.422771,-0.009197,0.015978,-0.729377
207152.294658,-0.08846658,-0.15538058999999999,-9.82377324,0.002003,-0.000158,0.006093,-38.113144,155.518799,-201.853775,60.18768,24.830126,12.915765,9.620208,-1.0,-1.0,101.634201,-0.422771,-0.009197,0.015978,-0.729377
207152.334621,-0.09415638000000001,-0.16675038,-9.80925444,0.002121,-3.5e-05,0.004337,-37.894485,155.246002,-202.058914,60.18768,24.830126,12.915765,9.620208,-1.0,-1.0,101.634201,-0.422771,-0.009215,0.015967,-0.729365
207152.334621,-0.09415638000000001,-0.16675038,-9.80925444,0.002121,-3.5e-05,0.004337,-37.894485,155.246002,-202.058914,60.18768,24.830126,12.915765,9.620208,-1.0,-1.0,101.634201,-0.422771,-0.009215,0.015967,-0.729365
207152.374584,-0.08442486000000002,-0.15732297,-9.82241946,0.00376,0.00053,0.003323,-37.900803,155.556091,-202.072708,60.18768,24.830126,12.915765,9.620208,-1.0,-1.0,101.634201,-0.422771,-0.009216,0.015935,-0.729355
207152.374584,-0.08442486000000002,-0.15732297,-9.82241946,0.00376,0.00053,0.003323,-37.900803,155.556091,-202.072708,60.18768,24.830126,12.915765,9.620208,-1.0,-1.0,101.634201,-0.422771,-0.009216,0.015935,-0.729355
207152.414548,-0.0928026,-0.15088761,-9.8245188,0.002476,-0.00014,0.006034,-37.70401,155.624802,-201.786453,60.18768,24.830126,12.915765,9.620208,-1.0,-1.0,101.634201,-0.422771,-0.00923,0.01592,-0.729359
207152.414548,-0.0928026,-0.15088761,-9.8245188,0.002476,-0.00014,0.006034,-37.70401,155.624802,-201.786453,60.18768,24.830126,12.915765,9.620208,-1.0,-1.0,101.634201,-0.422771,-0.00923,0.01592,-0.729359
207152.454511,-0.0953532,-0.16106057999999998,-9.820477080000002,0.00252,-0.001625,0.006098,-37.769043,155.723602,-201.951416,60.18768,24.830126,12.915765,9.620208,-1.0,-1.0,101.634201,-0.422771,-0.009236,0.015923,-0.729345
207152.454511,-0.0953532,-0.16106057999999998,-9.820477080000002,0.00252,-0.001625,0.006098,-37.769043,155.723602,-201.951416,60.18768,24.830126,12.915765,9.620208,-1.0,-1.0,101.634201,-0.422771,-0.009236,0.015923,-0.729345
207152.494474,-0.08906499000000001,-0.16720164,-9.8242245,0.001892,0.000526,0.005157,-37.785767,155.41069,-201.669022,60.18768,24.830126,12.915765,9.620208,-1.0,-1.0,101.634201,-0.422771,-0.009279,0.015922,-0.729348
207152.494474,-0.08906499000000001,-0.16720164,-9.8242245,0.001892,0.000526,0.005157,-37.785767,155.41069,-201.669022,60.18768,24.830126,12.915765,9.620208,-1.0,-1.0,101.634201,-0.422771,-0.009279,0.015922,-0.729348
207152.534437,-0.10269108,-0.16151184,-9.81554265,0.003162,0.000288,0.004962,-37.931976,155.688126,-201.926498,60.18768,24.830126,12.915765,9.620208,-1.0,-1.0,101.634201,-0.422771,-0.009286,0.015917,-0.729307
207152.534437,-0.10269108,-0.16151184,-9.81554265,0.003162,0.000288,0.004962,-37.931976,155.688126,-201.926498,60.18768,24.830126,12.915765,9.620208,-1.0,-1.0,101.634201,-0.422771,-0.009286,0.015917,-0.729307
207152.574401,-0.10238697000000001,-0.15148602000000003,-9.814787280000001,0.002368,-0.001346,0.004711,-37.796204,155.46376,-201.961121,60.18768,24.830126,12.915765,9.620208,-1.0,-1.0,101.634201,-0.422771,-0.009301,0.015917,-0.729301
207152.594382,-0.09385227000000002,-0.15956946,-9.828266220000001,0.003536,0.000423,0.0029,-37.773666,155.549332,-201.847794,60.18768,24.830126,12.915765,9.620208,-1.0,-1.0,101.634201,-0.422771,-0.009301,0.015923,-0.729292
207152.614364,-0.10253412,-0.16466085000000003,-9.81928026,0.002641,-0.001638,0.004573,-37.796341,155.552063,-201.873795,60.18768,24.830126,12.915765,9.620208,-1.0,-1.0,101.634201,-0.422771,-0.009295,0.015921,-0.729292
207152.634346,-0.09684432000000001,-0.14983794,-9.82107549,0.004056,-3.4e-05,0.005162,-38.024719,155.287827,-201.639313,60.18768,24.830126,12.915765,9.620208,-1.0,-1.0,101.634201,-0.422771,-0.009313,0.015922,-0.729292
207152.654327,-0.09669717,-0.15747012000000002,-9.83290635,0.001901,0.000272,0.005272,-38.022018,155.278931,-202.075195,60.18768,24.830126,12.915765,9.620208,-1.0,-1.0,101.634201,-0.422771,-0.009305,0.015939,-0.729282
207152.674309,-0.10119015,-0.15433092,-9.81254079,0.002702,0.001737,0.004246,-37.978546,155.516373,-201.83609,60.18768,24.830126,12.915765,9.620208,-1.0,-1.0,101.634201,-0.422771,-0.009301,0.015929,-0.729273
207152.694291,-0.0928026,-0.15926535,-9.827363700000001,0.002055,-0.001663,0.003861,-37.67421,155.567017,-201.769638,60.18768,24.830126,12.915765,9.620208,-1.0,-1.0,101.634201,-0.422771,-0.009301,0.015926,-0.729283
207152.714272,-0.08726976,-0.14969079000000002,-9.814787280000001,0.003891,-0.000463,0.003546,-38.038956,155.298752,-201.851242,60.18768,24.830126,12.915765,9.620208,-1.0,-1.0,101.634201,-0.422771,-0.009316,0.01593,-0.729283
207152.734254,-0.09176274,-0.15492933000000003,-9.81823059,0.003035,0.00043,0.004823,-38.103897,155.520599,-201.677185,60.18768,24.830126,12.915765,9.620208,-1.0,-1.0,101.634201,-0.422771,-0.009316,0.015946,-0.72929
207152.754236,-0.09968922,-0.15478218000000002,-9.823469130000001,0.002896,-0.000861,0.005222,-37.934113,155.390228,-201.788254,60.18768,24.830126,12.915765,9.620208,-1.0,-1.0,101.634201,-0.422771,-0.009312,0.01595,-0.729297
207152.774217,-0.09460764,-0.15282999000000003,-9.81554265,0.003161,-0.000345,0.004157,-37.832092,155.622101,-201.931915,60.18768,24.830126,12.915765,9.620208,-1.0,-1.0,101.634201,-0.422771,-0.009321,0.015954,-0.729299
207152.814181,-0.09580446000000001,-0.16794720000000002,-9.819133110000001,0.002657,-0.001162,0.004592,-38.107162,155.306458,-201.632294,60.18768,24.830126,12.915765,9.620208,-1.0,-1.0,101.634201,-0.422771,-0.009302,0.015929,-0.729288
207152.814181,-0.09580446000000001,-0.16794720000000002,-9.819133110000001,0.002657,-0.001162,0.004592,-38.107162,155.306458,-201.632294,60.18768,24.830126,12.915765,9.620208,-1.0,-1.0,101.634201,-0.422771,-0.009302,0.015929,-0.729288
207152.854144,-0.08232552,-0.15971661,-9.816582510000002,0.003857,-0.001099,0.006192,-37.81572,155.499557,-201.629196,60.18768,24.830126,12.915765,9.620208,-1.0,-1.0,101.634201,-0.422771,-0.009311,0.015924,-0.72929
207152.854144,-0.08232552,-0.15971661,-9.816582510000002,0.003857,-0.001099,0.006192,-37.81572,155.499557,-201.629196,60.18768,24.830126,12.915765,9.620208,-1.0,-1.0,101.634201,-0.422771,-0.009311,0.015924,-0.72929
207152.874126,-0.09176274,-0.15193728,-9.81,0.003406,0.000382,0.003604,-37.991425,155.402023,-201.69812,60.18768,24.830126,12.915765,9.620208,-1.0,-1.0,101.634201,-0.422771,-0.009327,0.015931,-0.729289
207152.894107,-0.07844076,-0.16870257000000002,-9.81418887,0.00299,0.00012,0.005478,-37.809525,155.515976,-201.682816,60.18768,24.830126,12.915765,9.620208,-1.0,-1.0,101.634201,-0.422771,-0.009321,0.015937,-0.729288
207152.93407,-0.09475478999999999,-0.16151184,-9.81793629,0.00135,0.000945,0.003024,-38.024918,155.463638,-201.478241,60.18768,24.830126,12.915765,9.620208,-1.0,-1.0,101.634201,-0.422771,-0.00931,0.015931,-0.729284
207152.93407,-0.09475478999999999,-0.16151184,-9.81793629,0.00135,0.000945,0.003024,-38.024918,155.463638,-201.478241,60.18768,24.830126,12.915765,9.620208,-1.0,-1.0,101.634201,-0.422771,-0.00931,0.015931,-0.729284
207152.974034,-0.09026181000000001,-0.16091343000000002,-9.81299205,0.00306,-0.000239,0.003974,-38.135284,155.46579,-201.784058,60.18768,24.830126,12.915765,9.620208,-1.0,-1.0,101.634201,-0.422771,-0.0093,0.015917,-0.729292
207152.974034,-0.09026181000000001,-0.16091343000000002,-9.81299205,0.00306,-0.000239,0.003974,-38.135284,155.46579,-201.784058,60.18768,24.830126,12.915765,9.620208,-1.0,-1.0,101.634201,-0.422771,-0.0093,0.015917,-0.729292
207153.013997,-0.09640287000000002,-0.15701886,-9.81733788,0.003254,-0.000644,0.004165,-37.762466,155.555237,-201.527145,60.18768,24.830126,12.915765,9.620208,-1.0,-1.0,101.634201,-0.422771,-0.009313,0.015915,-0.729283
207153.013997,-0.09640287000000002,-0.15701886,-9.81733788,0.003254,-0.000644,0.004165,-37.762466,155.555237,-201.527145,60.18768,24.830126,12.915765,9.620208,-1.0,-1.0,101.634201,-0.422771,-0.009313,0.015915,-0.729283
207153.05396,-0.09116433,-0.15402681000000001,-9.82062423,0.003415,-0.000555,0.004826,-37.941742,155.531265,-201.488785,60.18768,24.830126,12.915765,9.620208,-1.0,-1.0,101.634201,-0.422771,-0.009301,0.015932,-0.729279
207153.05396,-0.09116433,-0.15402681000000001,-9.82062423,0.003415,-0.000555,0.004826,-37.941742,155.531265,-201.488785,60.18768,24.830126,12.915765,9.620208,-1.0,-1.0,101.634201,-0.422771,-0.009301,0.015932,-0.729279
207153.093924,-0.09415638000000001,-0.15747012000000002,-9.819427410000001,0.002724,-0.001747,0.004125,-37.952637,155.13858,-201.653351,60.18768,24.830126,12.915765,9.620208,-1.0,-1.0,101.634201,-0.422771,-0.009304,0.01594,-0.729266
207153.113905,-0.09220419,-0.15792138000000003,-9.829610190000002,0.002959,-0.000441,0.005441,-37.963333,155.343918,-201.71814,60.18768,24.830126,12.915765,9.620208,-1.0,-1.0,101.634201,-0.422771,-0.009319,0.015937,-0.729264
207153.133887,-0.09984618,-0.16136469,-9.81554265,0.00331,1.2e-05,0.00327,-37.978882,155.30368,-201.709503,60.18768,24.830126,12.915765,9.620208,-1.0,-1.0,101.634201,-0.422771,-0.009336,0.015933,-0.72925
207153.153869,-0.08861373,-0.15387966,-9.823174830000001,0.00325,4e-05,0.002823,-37.983765,155.292831,-201.545502,60.18768,24.830126,12.915765,9.620208,-1.0,-1.0,101.634201,-0.422771,-0.00934,0.015943,-0.729248
207153.17385,-0.09265545000000001,-0.16181595000000001,-9.80940159,0.003568,-0.000357,0.005105,-37.888733,155.266708,-201.728485,60.18768,24.830126,12.915765,9.620208,-1.0,-1.0,101.634201,-0.422771,-0.009347,0.015943,-0.729249
207153.193832,-0.08951625,-0.16570071,-9.818377739999999,0.003564,0.001398,0.003523,-38.126419,155.158737,-201.679871,60.18768,24.830126,12.915765,9.620208,-1.0,-1.0,101.634201,-0.422771,-0.009353,0.015938,-0.729248
207153.213814,-0.09310671,-0.16315992,-9.819731520000001,0.003379,-0.000183,0.004629,-37.932266,155.157867,-201.803146,60.18768,24.830126,12.915765,9.620208,-1.0,-1.0,101.634201,-0.422771,-0.009345,0.01593,-0.729246
207153.233795,-0.08576883000000002,-0.15522363,-9.822272309999999,0.002595,-0.001827,0.004799,-38.126694,155.087173,-201.804855,60.18768,24.830126,12.915765,9.620208,-1.0,-1.0,101.634201,-0.422771,-0.00935,0.015929,-0.729248
207153.253777,-0.08607294000000001,-0.16211025,-9.82511721,0.003147,0.000389,0.004722,-38.179047,155.350952,-201.522675,60.18768,24.830126,12.915765,9.620208,-1.0,-1.0,101.634254,-0.422771,-0.009343,0.015918,-0.729246
207153.273759,-0.09056592000000001,-0.14654178,-9.803711790000001,0.002641,-0.000242,0.005923,-37.985443,155.364029,-201.970261,60.18768,24.830126,12.915765,9.620208,-1.0,-1.0,101.634254,-0.422771,-0.009332,0.015925,-0.729241
207153.29374,-0.08471916,-0.15926535,-9.819731520000001,0.002088,-0.00211,0.002768,-37.922546,155.354752,-201.730637,60.18768,24.830126,12.915765,9.620208,-1.0,-1.0,101.634254,-0.422771,-0.009343,0.015923,-0.72924
207153.313722,-0.08262963000000001,-0.16136469,-9.82542132,0.001792,-0.001398,0.004797,-38.1698,154.944794,-201.68486,60.18768,24.830126,12.915765,9.620208,-1.0,-1.0,101.634254,-0.422771,-0.009351,0.015923,-0.729259
207153.333704,-0.08772102000000001,-0.15193728,-9.816739470000002,0.003403,-9.9e-05,0.004291,-38.248932,155.180725,-201.611984,60.18768,24.830126,12.915765,9.620208,-1.0,-1.0,101.634254,-0.422771,-0.009357,0.01592,-0.729262
207153.353685,-0.1013373,-0.15986376000000002,-9.82721655,0.003269,-0.001491,0.004788,-38.131409,155.435959,-201.724915,60.18768,24.830126,12.915765,9.620208,-1.0,-1.0,101.634254,-0.422771,-0.009349,0.015926,-0.729261
207153.373667,-0.09744273000000002,-0.15043635,-9.81763218,0.002992,-0.000708,0.006514,-38.112686,155.423019,-201.524673,60.18768,24.830126,12.915765,9.620208,-1.0,-1.0,101.634254,-0.422771,-0.009359,0.015933,-0.729266
207153.41363,-0.09295956000000001,-0.15552774,-9.82631403,0.003036,-0.002045,0.004591,-38.311768,155.070053,-201.705124,60.18768,24.830126,12.915765,9.620208,-1.0,-1.0,101.634254,-0.422771,-0.009347,0.015943,-0.729271
207153.41363,-0.09295956000000001,-0.15552774,-9.82631403,0.003036,-0.002045,0.004591,-38.311768,155.070053,-201.705124,60.18768,24.830126,12.915765,9.620208,-1.0,-1.0,101.634254,-0.422771,-0.009347,0.015943,-0.729271
207153.453594,-0.08322804,-0.16151184,-9.82631403,0.002831,-0.000161,0.004088,-38.13739,155.3582,-201.782852,60.18768,24.830126,12.915765,9.620208,-1.0,-1.0,101.634254,-0.422771,-0.009367,0.015944,-0.729271
207153.453594,-0.08322804,-0.16151184,-9.82631403,0.002831,-0.000161,0.004088,-38.13739,155.3582,-201.782852,60.18768,24.830126,12.915765,9.620208,-1.0,-1.0,101.634254,-0.422771,-0.009367,0.015944,-0.729271
207153.493557,-0.10583028000000001,-0.15342840000000002,-9.81014715,0.002034,0.000846,0.003928,-38.283234,155.432205,-201.586914,60.18768,24.830126,12.915765,9.620208,-1.0,-1.0,101.634254,-0.422771,-0.009372,0.015932,-0.729283
207153.493557,-0.10583028000000001,-0.15342840000000002,-9.81014715,0.002034,0.000846,0.003928,-38.283234,155.432205,-201.586914,60.18768,24.830126,12.915765,9.620208,-1.0,-1.0,101.634254,-0.422771,-0.009372,0.015932,-0.729283
207153.53352,-0.0953532,-0.16450389,-9.820182780000001,0.002341,-0.000252,0.004153,-37.971542,155.470978,-201.787216,60.18768,24.830126,12.915765,9.620208,-1.0,-1.0,101.634254,-0.422771,-0.009357,0.015908,-0.729287
207153.53352,-0.0953532,-0.16450389,-9.820182780000001,0.002341,-0.000252,0.004153,-37.971542,155.470978,-201.787216,60.18768,24.830126,12.915765,9.620208,-1.0,-1.0,101.634254,-0.422771,-0.009357,0.015908,-0.729287
207153.573484,-0.09220419,-0.16211025,-9.820182780000001,0.00455,-0.001824,0.004402,-38.094757,155.310928,-201.529327,60.18768,24.830126,12.915765,9.620208,-1.0,-1.0,101.634254,-0.422771,-0.00935,0.015915,-0.729281
207153.573484,-0.09220419,-0.16211025,-9.820182780000001,0.00455,-0.001824,0.004402,-38.094757,155.310928,-201.529327,60.18768,24.830126,12.915765,9.620208,-1.0,-1.0,101.634254,-0.422771,-0.00935,0.015915,-0.729281
