timestamp,accel_x,accel_y,accel_z,gyro_x,gyro_y,gyro_z,mag_x,mag_y,mag_z,gps_lat,gps_lon,gps_alt,gps_accuracy,gps_speed,gps_course,pressure,altitude,roll,pitch,yaw
839839.854179,-9.5378706,-0.03278502,-2.8322647200000004,0.005601,0.002889,0.006019,-105.522339,102.885696,-191.40654,60.187681,24.830107,13.659874,19.032912,-1.0,-1.0,100.60955,-0.687,-1.270636,0.013655,-0.803588
839839.914132,-9.465266790000001,-0.22108797000000002,-2.81145771,0.002921,-0.0034,0.003861,-105.585449,102.641495,-191.617676,60.187681,24.830107,13.659874,19.032912,-1.0,-1.0,100.60955,-0.687,-1.270552,0.013645,-0.803536
839839.934116,-9.42066072,-0.08562168,-2.8797156900000003,-0.004162,0.003292,0.00142,-105.787643,102.779861,-191.514877,60.187681,24.830107,13.659874,19.032912,-1.0,-1.0,100.60955,-0.687,-1.270621,0.013621,-0.803492
839839.954101,-9.3209715,-0.01466595,-3.0292495200000005,0.011582,-0.002312,0.008824,-105.500748,102.724686,-191.605133,60.187681,24.830107,13.659874,19.032912,-1.0,-1.0,100.60955,-0.687,-1.270615,0.01365,-0.803619
839839.974085,-9.446559120000002,-0.14773860000000003,-2.8367478900000003,0.003721,0.004535,0.004128,-105.500748,102.724686,-191.605133,60.187681,24.830107,13.659874,19.032912,-1.0,-1.0,100.60955,-0.687,-1.270607,0.013656,-0.803611
839840.014054,-9.31497759,-0.11840670000000002,-2.97536319,0.002734,-0.002646,0.004246,-105.675751,102.767075,-191.361206,60.187681,24.830107,13.659874,19.032912,-1.0,-1.0,100.60955,-0.687,-1.270546,0.013645,-0.803548
839840.014054,-9.31497759,-0.11840670000000002,-2.97536319,0.002734,-0.002646,0.004246,-105.675751,102.767075,-191.361206,60.187681,24.830107,13.659874,19.032912,-1.0,-1.0,100.60955,-0.687,-1.270546,0.013645,-0.803548
839840.054022,-9.453445740000001,-0.10687995,-2.8611453600000005,0.003573,0.003165,0.003826,-105.722,102.688309,-191.484665,60.187681,24.830107,13.659874,19.032912,-1.0,-1.0,100.60955,-0.687,-1.270642,0.013645,-0.803578
839840.054022,-9.453445740000001,-0.10687995,-2.8611453600000005,0.003573,0.003165,0.003826,-105.722,102.688309,-191.484665,60.187681,24.830107,13.659874,19.032912,-1.0,-1.0,100.60955,-0.687,-1.270642,0.013645,-0.803578
839840.074007,-9.33324381,-0.17858124000000003,-2.9476695600000005,0.00175,-0.000509,0.006816,-105.665771,102.768463,-191.797485,60.187681,24.830107,13.659874,19.032912,-1.0,-1.0,100.60955,-0.687,-1.270587,0.013637,-0.803566
839840.093991,-9.41616774,-0.15387966,-2.87701794,0.004739,-0.006671,0.003972,-105.682236,102.672714,-191.651047,60.187681,24.830107,13.659874,19.032912,-1.0,-1.0,100.60955,-0.687,-1.27055,0.013635,-0.803565
839840.13396,-9.35673876,-0.0865242,-2.96383644,0.007714,-0.002091,0.007966,-105.449768,102.762329,-191.58255,60.187681,24.830107,13.659874,19.032912,-1.0,-1.0,100.60955,-0.687,-1.270615,0.013649,-0.803617
839840.153944,-9.402698610000002,-0.15223158,-2.9047115700000004,0.00232,-0.000856,0.003483,-105.546005,102.566437,-191.50174,60.187681,24.830107,13.659874,19.032912,-1.0,-1.0,100.60955,-0.687,-1.270567,0.013633,-0.803615
839840.173929,-9.4425174,-0.17917965,-2.8479803400000003,0.000676,-6.8e-05,0.004036,-105.568985,102.539734,-191.837448,60.187681,24.830107,13.659874,19.032912,-1.0,-1.0,100.60955,-0.687,-1.270587,0.01362,-0.80356
839840.173929,-9.4425174,-0.17917965,-2.8479803400000003,0.000676,-6.8e-05,0.004036,-105.568985,102.539734,-191.837448,60.187681,24.830107,13.659874,19.032912,-1.0,-1.0,100.60955,-0.687,-1.270587,0.01362,-0.80356
839840.213897,-9.386678880000002,-0.08996751000000001,-2.9156399100000003,0.003192,0.001177,0.005928,-105.636459,102.727829,-191.328552,60.187681,24.830107,13.659874,19.032912,-1.0,-1.0,100.60955,-0.687,-1.270589,0.013642,-0.803639
839840.233882,-9.43891713,-0.14369688,-2.85711345,0.004891,-0.000468,0.003453,-105.747238,102.758316,-191.719147,60.187681,24.830107,13.659874,19.032912,-1.0,-1.0,100.60955,-0.687,-1.270607,0.013652,-0.803618
839840.253866,-9.37125756,-0.15837263999999998,-2.9079979199999997,0.001506,0.000745,0.005068,-105.595367,102.483139,-191.465042,60.187681,24.830107,13.659874,19.032912,-1.0,-1.0,100.60955,-0.687,-1.270584,0.013661,-0.803614
839840.273851,-9.39506643,-0.11750418000000001,-2.9093517,0.004806,-0.005106,0.003228,-105.429535,102.514755,-191.52475,60.187681,24.830107,13.659874,19.032912,-1.0,-1.0,100.60955,-0.687,-1.270559,0.013657,-0.803606
839840.293835,-9.43652349,-0.09609875999999999,-2.87656668,0.002398,0.003922,0.005783,-105.525909,102.806259,-191.458344,60.187681,24.830107,13.659874,19.032912,-1.0,-1.0,100.60955,-0.687,-1.2706,0.013661,-0.80363
839840.313819,-9.37680021,-0.11630736000000001,-2.90904759,0.004984,-0.001054,0.003744,-105.878311,102.658279,-191.415024,60.187681,24.830107,13.659874,19.032912,-1.0,-1.0,100.60955,-0.687,-1.270606,0.01367,-0.803633
839840.333804,-9.36438075,-0.15447807000000002,-2.92461606,0.00388,-0.000962,0.003629,-105.61792,102.715927,-191.240723,60.187681,24.830107,13.659874,19.032912,-1.0,-1.0,100.60955,-0.687,-1.270563,0.013676,-0.80364
839840.353788,-9.43144191,-0.15507648,-2.88075555,0.002422,0.000572,0.004847,-105.752533,102.668152,-191.453354,60.187681,24.830107,13.659874,19.032912,-1.0,-1.0,100.60955,-0.687,-1.27058,0.01369,-0.803624
839840.373773,-9.39296709,-0.10104300000000001,-2.9073995100000003,0.003688,0.000344,0.00288,-105.475067,102.715698,-191.450485,60.187681,24.830107,13.659874,19.032912,-1.0,-1.0,100.60955,-0.687,-1.270588,0.013694,-0.803626
839840.393757,-9.38383398,-0.10148445,-2.93284665,0.002631,0.000555,0.00565,-105.646133,102.737366,-191.360001,60.187681,24.830107,13.659874,19.032912,-1.0,-1.0,100.60955,-0.687,-1.270583,0.013712,-0.803654
839840.41374,-9.421710390000001,-0.15492933000000003,-2.8584574199999997,0.005719,-0.001232,0.003301,-105.661636,102.595749,-191.128998,60.187681,24.830107,13.659874,19.032912,-1.0,-1.0,100.60955,-0.687,-1.27057,0.013716,-0.803649
839840.433726,-9.39476232,-0.15701886,-2.8993160700000002,-0.000399,0.002509,0.004378,-105.478378,102.565765,-191.66658,60.187681,24.830107,13.659874,19.032912,-1.0,-1.0,100.60955,-0.687,-1.270575,0.013727,-0.803605
839840.45371,-9.38742444,-0.12154590000000001,-2.9265682500000003,0.004419,-0.003039,0.005034,-105.406906,102.525818,-191.464951,60.187681,24.830107,13.659874,19.032912,-1.0,-1.0,100.60955,-0.687,-1.270562,0.013741,-0.803627
839840.473694,-9.42200469,-0.10882233000000001,-2.87522271,0.003183,0.002702,0.00536,-105.529999,102.605255,-191.561417,60.187681,24.830107,13.659874,19.032912,-1.0,-1.0,100.60955,-0.687,-1.27057,0.013738,-0.803628
839840.493679,-9.397155960000001,-0.14025357000000002,-2.90216097,0.00328,-0.000226,0.003354,-105.533829,102.586197,-191.435898,60.187681,24.830107,13.659874,19.032912,-1.0,-1.0,100.60955,-0.687,-1.270564,0.013724,-0.803618
839840.513663,-9.370963260000002,-0.14969079000000002,-2.9198287800000005,0.003216,-0.000871,0.006135,-105.493469,102.47168,-191.110077,60.187681,24.830107,13.659874,19.032912,-1.0,-1.0,100.60955,-0.687,-1.270528,0.01372,-0.80363
839840.533648,-9.43443396,-0.08951625,-2.98898928,0.007103,0.001616,0.004215,-105.461334,102.687119,-191.411041,60.187681,24.830107,13.659874,19.032912,-1.0,-1.0,100.60955,-0.687,-1.270536,0.013741,-0.803642
839840.553632,-9.44176203,-0.11855385,-2.8104080400000004,-0.000833,-0.002454,0.001792,-105.601974,102.889816,-191.922241,60.187681,24.830107,13.659874,19.032912,-1.0,-1.0,100.60955,-0.687,-1.270585,0.013732,-0.80361
839840.573616,-9.31332951,-0.08128566000000001,-2.98883232,0.005978,0.002464,0.011349,-105.412155,102.777054,-191.279037,60.187681,24.830107,13.659874,19.032912,-1.0,-1.0,100.60955,-0.687,-1.270583,0.013767,-0.803663
839840.593601,-9.41631489,-0.22737618,-2.83569822,0.008407,-0.002982,0.004988,-105.428085,102.693008,-191.367676,60.187681,24.830107,13.659874,19.032912,-1.0,-1.0,100.60955,-0.687,-1.270556,0.013747,-0.803663
839840.613585,-9.56107125,-0.18621342,-2.77209018,-0.009501,0.017486,-0.01186,-105.510193,102.675278,-191.648224,60.187681,24.830107,13.659874,19.032912,-1.0,-1.0,100.60955,-0.687,-1.270608,0.013722,-0.803524
839840.63357,-9.14433264,-0.40595742000000007,-2.92641129,-0.007408,-0.040714,0.031725,-105.891098,102.830658,-191.584412,60.187681,24.830107,13.659874,19.032912,-1.0,-1.0,100.610077,-0.731922,-1.270572,0.01378,-0.803649
839840.653554,-9.763893,-0.01915893,-3.14974575,0.020566,-0.033284,-0.014486,-106.331223,102.588318,-191.389404,60.187681,24.830107,13.659874,19.032912,-1.0,-1.0,100.610077,-0.731922,-1.270751,0.014129,-0.804014
839840.673538,-9.012162510000001,-0.23785326,-2.7205876800000004,0.012503,-0.025843,0.040023,-106.927124,102.592514,-191.34552,60.187681,24.830107,13.659874,19.032912,-1.0,-1.0,100.610077,-0.731922,-1.271114,0.013902,-0.803894
839840.693523,-9.740545200000001,0.14414814,-2.92192812,0.008421,0.01229,-0.004542,-106.927124,102.592514,-191.34552,60.187681,24.830107,13.659874,19.032912,-1.0,-1.0,100.610077,-0.731922,-1.271393,0.013717,-0.803486
839840.713507,-9.32470911,0.08188407,-2.89093833,0.008421,0.01229,-0.004542,-107.025787,102.694412,-191.391449,60.187681,24.830107,13.659874,19.032912,-1.0,-1.0,100.610077,-0.731922,-1.271547,0.013571,-0.803283
839840.733492,-9.46601235,0.12813822000000002,-2.91518865,-0.000972,0.017199,0.002732,-106.919968,102.770645,-191.531876,60.187681,24.830107,13.659874,19.032912,-1.0,-1.0,100.610077,-0.731922,-1.271549,0.013572,-0.803347
839840.77346,-9.397607220000001,-0.16330707,-2.96009883,0.009646,0.016097,0.004163,-105.881165,102.680298,-191.508759,60.187681,24.830107,13.659874,19.032912,-1.0,-1.0,100.610077,-0.731922,-1.270944,0.013642,-0.80364
839840.77346,-9.397607220000001,-0.16330707,-2.96009883,0.009646,0.016097,0.004163,-105.881165,102.680298,-191.508759,60.187681,24.830107,13.659874,19.032912,-1.0,-1.0,100.610077,-0.731922,-1.270944,0.013642,-0.80364
839840.793445,-9.092241540000002,-0.74769858,-3.10828869,0.013564,-0.016166,0.016267,-105.322006,102.525009,-191.368134,60.187681,24.830107,13.659874,19.032912,-1.0,-1.0,100.610077,-0.731922,-1.270519,0.013645,-0.803731
839840.813429,-9.49729644,-0.28590264,-2.67044877,-0.025256,-0.042314,-0.014254,-105.546371,102.491043,-191.348846,60.187681,24.830107,13.659874,19.032912,-1.0,-1.0,100.610077,-0.731922,-1.270397,0.013586,-0.803371
839840.853398,-9.5062824,-0.00614106,-2.98344663,0.012775,0.0569,0.00965,-106.560074,102.544769,-191.46167,60.187681,24.830107,13.659874,19.032912,-1.0,-1.0,100.610077,-0.731922,-1.271259,0.013673,-0.804003
839840.853398,-9.5062824,-0.00614106,-2.98344663,0.012775,0.0569,0.00965,-106.560074,102.544769,-191.46167,60.187681,24.830107,13.659874,19.032912,-1.0,-1.0,100.610077,-0.731922,-1.271259,0.013673,-0.804003
839840.893367,-9.28848078,-0.07529175,-3.03329124,-0.015146,-0.042805,0.006113,-107.155014,102.560501,-191.347672,60.187681,24.830107,13.659874,19.032912,-1.0,-1.0,100.610077,-0.731922,-1.270513,0.013637,-0.803886
839840.913351,-9.4863681,0.12498921000000002,-2.82088512,0.009523,0.012505,0.007957,-107.593185,102.584885,-191.493698,60.187681,24.830107,13.659874,19.032912,-1.0,-1.0,100.610077,-0.731922,-1.270858,0.013661,-0.804316
839840.933335,-9.35419797,-0.05299362,-2.9014154100000003,0.000203,-0.004041,0.00411,-107.789139,102.366348,-191.468399,60.187681,24.830107,13.659874,19.032912,-1.0,-1.0,100.610077,-0.731922,-1.270966,0.013602,-0.804348
839840.933335,-9.35419797,-0.05299362,-2.9014154100000003,0.000203,-0.004041,0.00411,-107.789139,102.366348,-191.468399,60.187681,24.830107,13.659874,19.032912,-1.0,-1.0,100.610077,-0.731922,-1.270966,0.013602,-0.804348
839840.973304,-9.318273750000001,-0.20477394000000002,-3.0238638300000003,0.018192,-0.021674,0.018657,-107.656326,102.460983,-190.978012,60.187681,24.830107,13.659874,19.032912,-1.0,-1.0,100.610077,-0.731922,-1.2712,0.0135,-0.804398
839840.993289,-9.297613890000001,-0.28231218,-3.1313421900000002,0.043324,-0.033751,0.024122,-108.075485,102.420914,-191.227554,60.187681,24.830107,13.659874,19.032912,-1.0,-1.0,100.610077,-0.731922,-1.271555,0.013417,-0.804243
839841.013273,-9.38847411,-0.16794720000000002,-3.1777434900000006,0.092854,-0.027813,0.048691,-108.545868,102.337936,-191.544327,60.187681,24.830107,13.659874,19.032912,-1.0,-1.0,100.610077,-0.731922,-1.272142,0.013239,-0.803664
839841.033257,-9.349557840000001,-0.052542359999999996,-3.0093450300000004,0.107357,-0.028615,0.054667,-109.240524,102.006943,-191.577515,60.187681,24.830107,13.659874,19.032912,-1.0,-1.0,100.610077,-0.731922,-1.272804,0.013008,-0.802204
839841.053242,-9.30435336,0.10807677000000002,-3.0147307199999998,0.108437,-0.035529,0.048298,-109.594162,101.928146,-191.849747,60.187681,24.830107,13.659874,19.032912,-1.0,-1.0,100.610077,-0.731922,-1.27325,0.012679,-0.799981
839841.073226,-9.3354903,0.06780672,-3.0726587700000003,0.142227,-0.033832,0.059635,-110.060867,101.601624,-192.071899,60.187681,24.830107,13.659874,19.032912,-1.0,-1.0,100.610077,-0.731922,-1.273809,0.012436,-0.797714
839841.093211,-9.46720917,-0.30371760000000003,-2.79633069,0.181015,-0.000304,0.085607,-110.269791,101.185104,-192.296005,60.187681,24.830107,13.659874,19.032912,-1.0,-1.0,100.610077,-0.731922,-1.274553,0.012195,-0.795174
839841.113195,-9.31856805,-0.16286562,-2.68946055,0.133693,-0.006511,0.067264,-110.344635,100.888641,-192.327103,60.187681,24.830107,13.659874,19.032912,-1.0,-1.0,100.610077,-0.731922,-1.274989,0.011749,-0.791718
839841.133179,-9.50374161,-0.06930765,-2.4614859599999996,0.089721,-0.025123,0.037533,-110.81102,100.436157,-192.43396,60.187681,24.830107,13.659874,19.032912,-1.0,-1.0,100.610077,-0.731922,-1.275354,0.011172,-0.788381
839841.153164,-9.56091429,-0.2689902,-2.31538563,0.030172,-0.020004,0.018163,-111.093338,99.909363,-193.132645,60.187681,24.830107,13.659874,19.032912,-1.0,-1.0,100.610077,-0.731922,-1.275686,0.010973,-0.786107
839841.173148,-9.5236461,-0.19518957000000003,-2.5557894900000004,-0.020736,-0.031298,-0.00869,-111.000015,99.810898,-193.080276,60.187681,24.830107,13.659874,19.032912,-1.0,-1.0,100.610077,-0.731922,-1.275991,0.010957,-0.784853
839841.193133,-9.23354478,-0.37302525000000003,-2.76669468,-0.020736,-0.031298,-0.00869,-111.115463,99.506378,-193.166092,60.187681,24.830107,13.659874,19.032912,-1.0,-1.0,100.610077,-0.731922,-1.276739,0.01087,-0.784945
839841.213117,-9.273667679999999,-0.33470739,-2.9539577700000006,-0.12698,-0.167552,-0.031181,-111.229691,99.244873,-193.405365,60.187681,24.830107,13.659874,19.032912,-1.0,-1.0,100.610077,-0.731922,-1.278003,0.010886,-0.786128
839841.233101,-9.35614035,-0.30252078000000004,-3.1177161,-0.128732,-0.230514,-0.019285,-110.99173,98.912384,-193.044067,60.187681,24.830107,13.659874,19.032912,-1.0,-1.0,100.610077,-0.731922,-1.280229,0.011085,-0.788507
839841.253086,-9.1681317,-0.30565998000000005,-3.20064003,-0.152526,-0.327165,-0.023203,-110.61055,98.976578,-192.868637,60.187681,24.830107,13.659874,19.032912,-1.0,-1.0,100.610077,-0.731922,-1.283877,0.011001,-0.791137
839841.27307,-9.08625744,-0.058977720000000004,-3.07116765,-0.161443,-0.418546,-0.021638,-110.246704,98.709641,-192.87178,60.187681,24.830107,13.659874,19.032912,-1.0,-1.0,100.610077,-0.731922,-1.289373,0.010662,-0.79399
839841.293055,-9.18400428,0.18471249,-3.08717757,-0.144999,-0.495054,-0.018778,-109.895477,98.840591,-192.453201,60.187681,24.830107,13.659874,19.032912,-1.0,-1.0,100.610077,-0.731922,-1.296805,0.010285,-0.797202
839841.313039,-9.16903422,0.19159911000000002,-3.13567821,-0.144999,-0.495054,-0.018778,-109.858673,98.994339,-192.38942,60.187681,24.830107,13.659874,19.032912,-1.0,-1.0,100.610077,-0.731922,-1.305974,0.009885,-0.800336
839841.333023,-9.21244347,0.22199049,-2.88000999,-0.073196,-0.605044,0.000133,-109.317459,98.895386,-192.068298,60.187681,24.830107,13.659874,19.032912,-1.0,-1.0,100.610077,-0.731922,-1.316308,0.009597,-0.802961
839841.353008,-9.49939578,0.22872015,-2.72777841,-0.020135,-0.61083,0.013123,-109.062744,98.893982,-191.637283,60.187681,24.830107,13.659874,19.032912,-1.0,-1.0,100.610077,-0.731922,-1.327767,0.009397,-0.804984
839841.372992,-9.37844829,0.28186092,-2.73122172,0.035973,-0.658414,0.032844,-110.041199,99.058823,-191.504791,60.187681,24.830107,13.659874,19.032912,-1.0,-1.0,100.610077,-0.731922,-1.339984,0.00911,-0.805976
839841.392977,-9.32875083,0.046548450000000005,-2.63242521,0.063528,-0.73805,0.035976,-110.041199,99.058823,-191.504791,60.187681,24.830107,13.659874,19.032912,-1.0,-1.0,100.610077,-0.731922,-1.352656,0.008745,-0.805775
839841.412961,-9.15585939,-0.07170129,-2.5725547800000004,0.078065,-0.836095,0.047595,-110.788635,99.169006,-191.383911,60.187681,24.830107,13.659874,19.032912,-1.0,-1.0,100.610077,-0.731922,-1.366552,0.008336,-0.804695
839841.432945,-9.178314480000001,-0.17124336,-2.34712098,0.083372,-0.954699,0.057513,-111.847107,99.511597,-190.864197,60.187681,24.830107,13.659874,19.032912,-1.0,-1.0,100.610077,-0.731922,-1.382214,0.007853,-0.803242
839841.45293,-9.29731959,-0.32736951,-1.9881632700000003,0.071262,-1.050098,0.056164,-112.660843,99.631165,-190.086838,60.187681,24.830107,13.659874,19.032912,-1.0,-1.0,100.610077,-0.731922,-1.40007,0.007209,-0.801509
839841.492899,-9.28907919,-0.14220576000000001,-1.65450555,0.082213,-1.249008,0.067053,-113.451248,99.717499,-188.799973,60.187681,24.830107,13.659874,19.032912,-1.0,-1.0,100.610077,-0.731922,-1.442159,0.005616,-0.798505
839841.492899,-9.28907919,-0.14220576000000001,-1.65450555,0.082213,-1.249008,0.067053,-113.451248,99.717499,-188.799973,60.187681,24.830107,13.659874,19.032912,-1.0,-1.0,100.610077,-0.731922,-1.442159,0.005616,-0.798505
839841.532867,-9.63531333,0.1588239,-0.6240533400000001,0.134213,-1.246237,0.088073,-112.790756,99.887756,-187.059601,60.187681,24.830107,13.659874,19.032912,-1.0,-1.0,100.610077,-0.731922,-1.491689,0.003402,-0.795078
839841.532867,-9.63531333,0.1588239,-0.6240533400000001,0.134213,-1.246237,0.088073,-112.790756,99.887756,-187.059601,60.187681,24.830107,13.659874,19.032912,-1.0,-1.0,100.610077,-0.731922,-1.491689,0.003402,-0.795078
839841.572836,-9.52708941,0.06406911000000001,-0.26315325,0.129719,-1.310196,0.096543,-112.196457,100.102524,-185.334442,60.187681,24.830107,13.659874,19.032912,-1.0,-1.0,100.610077,-0.731922,-1.541908,0.000305,-0.789807
839841.572836,-9.52708941,0.06406911000000001,-0.26315325,0.129719,-1.310196,0.096543,-112.196457,100.102524,-185.334442,60.187681,24.830107,13.659874,19.032912,-1.0,-1.0,100.610077,-0.731922,-1.541908,0.000305,-0.789807
839841.612805,-12.42415899,-1.00126746,2.0907072,0.078821,-0.356531,0.003913,-114.899994,100.713852,-185.291718,60.187681,24.830107,13.659874,19.032912,-1.0,-1.0,100.610077,-0.731922,-1.587737,-0.007656,-0.785499
839841.63279,-9.740398050000001,-0.21959685,2.63257236,-0.009685,-0.324154,0.047435,-117.261826,101.508316,-185.081192,60.187681,24.830107,13.659874,19.032912,-1.0,-1.0,100.610077,-0.731922,-1.603782,-0.011632,-0.785375
839841.652774,-9.48353301,0.10014048,1.76692815,-0.071502,-0.246235,0.076301,-117.662811,101.717285,-184.753555,60.187681,24.830107,13.659874,19.032912,-1.0,-1.0,100.610077,-0.731922,-1.614423,-0.013553,-0.785839
839841.672758,-10.2696966,0.13921371000000002,0.9147432600000001,-0.100054,-0.088149,0.060293,-117.751526,101.707062,-184.812149,60.187681,24.830107,13.659874,19.032912,-1.0,-1.0,100.610077,-0.731922,-1.620032,-0.014739,-0.787179
839841.692743,-10.50814827,0.04011309,1.0340524800000002,-0.148828,0.010684,0.022643,-118.204514,102.007751,-184.696884,60.187681,24.830107,13.659874,19.032912,-1.0,-1.0,100.610077,-0.731922,-1.622179,-0.015483,-0.78894
839841.712727,-10.03632651,0.059576130000000005,0.84753495,-0.215593,0.040827,0.015693,-119.104858,102.493195,-184.448822,60.187681,24.830107,13.659874,19.032912,-1.0,-1.0,100.610077,-0.731922,-1.622,-0.01582,-0.791467
839841.732712,-9.77617512,0.1360647,0.97387794,-0.27669,-0.052031,0.023435,-120.077179,103.377457,-184.197876,60.187681,24.830107,13.659874,19.032912,-1.0,-1.0,100.610077,-0.731922,-1.620854,-0.015854,-0.795198
839841.752696,-9.55342926,0.2314179,1.04422545,-0.317176,-0.212362,0.063269,-119.951584,104.534195,-183.796555,60.187681,24.830107,13.659874,19.032912,-1.0,-1.0,100.610077,-0.731922,-1.620943,-0.016008,-0.800182
839841.77268,-9.51017697,0.31749084,0.7051820400000001,-0.287801,-0.426048,0.102156,-118.607925,105.821426,-182.920502,60.187681,24.830107,13.659874,19.032912,-1.0,-1.0,100.610077,-0.731922,-1.62385,-0.01647,-0.806332
839841.792665,-9.75312162,0.30042144,0.08457201,-0.239588,-0.528296,0.092831,-117.392334,106.650497,-182.284622,60.187681,24.830107,13.659874,19.032912,-1.0,-1.0,100.610077,-0.731922,-1.630358,-0.017675,-0.812541
839841.812649,-9.91597743,0.32302368,-0.30910329000000003,-0.172869,-0.597332,0.074382,-116.574936,107.243103,-181.711487,60.187681,24.830107,13.659874,19.032912,-1.0,-1.0,100.610077,-0.731922,-1.640275,-0.019218,-0.817845
839841.832634,-10.16131572,0.57046131,-0.34024023,-0.05137,-0.668571,0.028011,-115.512772,107.637238,-181.48053,60.187681,24.830107,13.659874,19.032912,-1.0,-1.0,100.610077,-0.731922,-1.651812,-0.020399,-0.822131
839841.852618,-9.988581240000002,0.31928607000000003,0.11690577,0.04798,-0.700426,0.000122,-114.456497,107.70105,-180.562256,60.187681,24.830107,13.659874,19.032912,-1.0,-1.0,100.610077,-0.731922,-1.664785,-0.020986,-0.824431
839841.872602,-9.890079029999999,0.09580446000000001,0.66880656,0.094178,-0.757626,-0.01421,-113.481247,107.103958,-180.055756,60.187681,24.830107,13.659874,19.032912,-1.0,-1.0,100.610077,-0.731922,-1.678687,-0.021096,-0.824516
839841.892587,-9.596240100000001,0.00628821,0.40445649000000006,0.11248,-0.880178,-0.007404,-112.597275,106.051056,-180.160721,60.187681,24.830107,13.659874,19.032912,-1.0,-1.0,100.610077,-0.731922,-1.693331,-0.020983,-0.823113
839841.892587,-9.596240100000001,0.00628821,0.40445649000000006,0.11248,-0.880178,-0.007404,-112.597275,106.051056,-180.160721,60.187681,24.830107,13.659874,19.032912,-1.0,-1.0,100.610077,-0.731922,-1.693331,-0.020983,-0.823113
839841.932556,-9.489968370000001,-0.02544714,1.3079771100000002,0.078112,-1.076807,-0.004071,-115.496277,103.363434,-179.873642,60.187681,24.830107,13.659874,19.032912,-1.0,-1.0,100.610077,-0.731922,-1.728649,-0.020974,-0.819165
839841.95254,-9.42066072,-0.01661814,1.7061552,0.077664,-1.125179,0.003353,-118.364487,103.252838,-179.246857,60.187681,24.830107,13.659874,19.032912,-1.0,-1.0,100.610077,-0.731922,-1.749589,-0.021005,-0.817615
839841.972525,-9.42439833,-0.18231885,1.5630469200000001,0.056312,-1.222472,0.007795,-121.042191,104.461197,-177.691635,60.187681,24.830107,13.659874,19.032912,-1.0,-1.0,100.610077,-0.731922,-1.771496,-0.021175,-0.816188
839841.992509,-9.27875907,-0.14041053,1.7738147700000002,0.045169,-1.333353,0.023229,-120.208176,106.634933,-175.535477,60.187681,24.830107,13.659874,19.032912,-1.0,-1.0,100.610077,-0.731922,-1.795042,-0.021466,-0.81491
839842.012493,-9.33712857,0.26240768999999997,2.1457903500000004,0.082576,-1.377133,0.003243,-117.042221,106.615341,-173.403854,60.187681,24.830107,13.659874,19.032912,-1.0,-1.0,100.610077,-0.731922,-1.820545,-0.021884,-0.814098
839842.032478,-9.40418973,0.64995174,3.17100402,0.10397,-1.287143,0.15825,-115.08992,104.552414,-172.963379,60.187681,24.830107,13.659874,19.032912,-1.0,-1.0,100.610077,-0.731922,-1.847648,-0.022472,-0.813056
839842.052462,-9.24776928,-0.07813665,2.4758478,0.105018,-1.375168,-0.032469,-115.255798,103.161743,-173.182617,60.187681,24.830107,13.659874,19.032912,-1.0,-1.0,100.610077,-0.731922,-1.874439,-0.024205,-0.81137
839842.072447,-10.555147980000001,0.27063828,3.1105351800000003,0.103194,-1.112854,0.003653,-118.210922,102.160248,-173.195923,60.187681,24.830107,13.659874,19.032912,-1.0,-1.0,100.610077,-0.731922,-1.898092,-0.024727,-0.808822
839842.072447,-10.555147980000001,0.27063828,3.1105351800000003,0.103194,-1.112854,0.003653,-118.210922,102.160248,-173.195923,60.187681,24.830107,13.659874,19.032912,-1.0,-1.0,100.610077,-0.731922,-1.898092,-0.024727,-0.808822
839842.112416,-9.67917384,-0.2402469,4.45862538,0.087437,-1.079085,0.00047,-121.39325,103.900345,-172.3172,60.187681,24.830107,13.659874,19.032912,-1.0,-1.0,100.610077,-0.731922,-1.945111,-0.026203,-0.805859
839842.1324,-7.51736376,-0.05149269000000001,5.029390800000001,0.148919,-0.938501,0.03059,-122.191315,106.234421,-170.309357,60.187681,24.830107,13.659874,19.032912,-1.0,-1.0,100.610077,-0.731922,-1.966031,-0.027205,-0.805325
839842.152384,-9.76180347,-0.40505490000000005,4.759056630000001,0.199256,-0.828079,-0.063272,-117.896606,106.929504,-168.178085,60.187681,24.830107,13.659874,19.032912,-1.0,-1.0,100.610077,-0.731922,-1.985591,-0.027601,-0.803414
839842.172369,-8.24664897,-0.13546629000000002,4.05371763,0.213387,-0.883011,-0.016932,-115.743271,103.867859,-168.310593,60.187681,24.830107,13.659874,19.032912,-1.0,-1.0,100.610077,-0.731922,-2.002983,-0.028858,-0.800177
839842.212338,-7.2965799,1.9529846100000001,4.629123180000001,0.08383,-1.093808,0.015089,-121.847076,106.05246,-166.912064,60.187681,24.830107,13.659874,19.032912,-1.0,-1.0,100.610077,-0.731922,-2.037322,-0.03028,-0.792558
839842.212338,-7.2965799,1.9529846100000001,4.629123180000001,0.08383,-1.093808,0.015089,-121.847076,106.05246,-166.912064,60.187681,24.830107,13.659874,19.032912,-1.0,-1.0,100.610077,-0.731922,-2.037322,-0.03028,-0.792558
839842.252307,-8.36161236,1.00425951,4.53092508,0.0736,-1.078827,0.015105,-118.141144,103.943161,-165.752625,60.187681,24.830107,13.659874,19.032912,-1.0,-1.0,100.610077,-0.731922,-2.07576,-0.03297,-0.788389
839842.272291,-8.50501494,1.4329663200000002,4.97430765,0.08867,-1.032134,0.050055,-119.046631,102.725021,-165.213165,60.187681,24.830107,13.659874,19.032912,-1.0,-1.0,100.610077,-0.731922,-2.09709,-0.033959,-0.786698
839842.292275,-7.83605142,1.1169764100000001,5.19584688,0.080201,-1.060713,0.037626,-119.201736,102.891174,-164.664383,60.187681,24.830107,13.659874,19.032912,-1.0,-1.0,100.610077,-0.731922,-2.117704,-0.03565,-0.785656
839842.31226,-8.47552608,0.942741,4.98284235,0.096358,-1.026102,0.047739,-119.136932,103.34584,-163.37561,60.187681,24.830107,13.659874,19.032912,-1.0,-1.0,100.610077,-0.731922,-2.138028,-0.037125,-0.78447
839842.332244,-7.822886400000001,0.7086253499999999,5.0003532,0.100496,-1.080614,0.046244,-118.4496,103.899384,-162.402313,60.187681,24.830107,13.659874,19.032912,-1.0,-1.0,100.610077,-0.731922,-2.158308,-0.038755,-0.783334
839842.352229,-8.0688231,1.02327129,5.39837433,0.111664,-1.086616,0.059973,-118.112991,105.310471,-161.03949,60.187681,24.830107,13.659874,19.032912,-1.0,-1.0,100.610077,-0.731922,-2.179378,-0.040517,-0.782225
839842.372213,-7.434586980000001,0.86265216,5.51138553,0.096132,-1.145945,0.06484,-118.97731,106.584427,-159.612732,60.187681,24.830107,13.659874,19.032912,-1.0,-1.0,100.610077,-0.731922,-2.200934,-0.042525,-0.781135
839842.372213,-7.434586980000001,0.86265216,5.51138553,0.096132,-1.145945,0.06484,-118.97731,106.584427,-159.612732,60.187681,24.830107,13.659874,19.032912,-1.0,-1.0,100.610077,-0.731922,-2.200934,-0.042525,-0.781135
839842.412182,-7.653281310000001,0.93121425,6.04548117,0.09674,-1.171544,0.115408,-123.095947,105.934814,-159.523087,60.187681,24.830107,13.659874,19.032912,-1.0,-1.0,100.610077,-0.731922,-2.246225,-0.046784,-0.779539
839842.432166,-5.7014935200000005,-0.76296294,6.5160963,0.056622,-1.438122,0.048463,-122.45932,104.704956,-159.2771,60.187681,24.830107,13.659874,19.032912,-1.0,-1.0,100.610077,-0.731922,-2.270221,-0.049591,-0.779297
839842.452152,-8.113125060000002,-0.38005902,6.382130940000001,0.092526,-1.256696,0.127244,-120.90773,104.281265,-158.03624,60.187681,24.830107,13.659874,19.032912,-1.0,-1.0,100.610077,-0.731922,-2.297048,-0.052138,-0.779185
839842.472136,-6.145768800000001,-0.87253083,6.86472408,0.053958,-1.382583,0.061709,-119.520981,104.128922,-156.581848,60.187681,24.830107,13.659874,19.032912,-1.0,-1.0,100.610077,-0.731922,-2.323765,-0.054015,-0.779061
839842.492121,-7.51152681,0.04146687,6.98911488,0.091715,-1.249222,0.090655,-119.10231,104.466827,-155.717819,60.187681,24.830107,13.659874,19.032912,-1.0,-1.0,100.610077,-0.731922,-2.350341,-0.056397,-0.77942
839842.512105,-6.330334140000001,-0.00164808,6.50293128,0.157888,-1.254681,0.045231,-120.301407,104.881744,-154.810257,60.187681,24.830107,13.659874,19.032912,-1.0,-1.0,100.610077,-0.731922,-2.376393,-0.058455,-0.779357
839842.53209,-6.40174113,0.74650176,7.656881580000001,0.211539,-1.192509,0.075767,-121.421967,106.156342,-154.069092,60.187681,24.830107,13.659874,19.032912,-1.0,-1.0,100.610077,-0.731922,-2.401353,-0.060941,-0.778543
839842.552074,-6.09173532,0.44607051,7.00124004,0.276358,-1.157144,0.030663,-120.979263,107.26503,-152.765213,60.187681,24.830107,13.659874,19.032912,-1.0,-1.0,100.610077,-0.731922,-2.425202,-0.064638,-0.776931
839842.572058,-5.13567234,1.27864521,7.805071440000001,0.312229,-1.130598,0.166519,-120.390747,108.118668,-151.354019,60.187681,24.830107,13.659874,19.032912,-1.0,-1.0,100.610077,-0.731922,-2.448482,-0.068775,-0.774205
839842.592043,-5.510787120000001,0.73452375,7.43668632,0.331493,-1.138635,0.210838,-119.996368,108.400757,-151.318619,60.187681,24.830107,13.659874,19.032912,-1.0,-1.0,100.610077,-0.731922,-2.470839,-0.074484,-0.771905
839842.612027,-5.749542900000001,0.8114635800000001,7.44177771,0.355212,-1.143407,0.259054,-119.434662,108.243591,-150.762894,60.187681,24.830107,13.659874,19.032912,-1.0,-1.0,100.610077,-0.731922,-2.492438,-0.081941,-0.770657
839842.632012,-6.04488276,0.9888480000000001,7.554494610000001,0.399639,-1.14003,0.199036,-118.755768,109.172287,-150.692093,60.187681,24.830107,13.659874,19.032912,-1.0,-1.0,100.610077,-0.731922,-2.514979,-0.090362,-0.770278
839842.651996,-5.55943491,1.08599643,8.08753077,0.379644,-1.164862,0.15206,-118.313141,109.670441,-150.084198,60.187681,24.830107,13.659874,19.032912,-1.0,-1.0,100.610077,-0.731922,-2.537619,-0.099287,-0.769845
839842.671981,-4.746627360000001,1.2467529000000002,8.13363777,0.339008,-1.234179,0.193918,-117.849854,110.287109,-148.963821,60.187681,24.830107,13.659874,19.032912,-1.0,-1.0,100.610077,-0.731922,-2.560509,-0.107496,-0.767961
839842.691965,-4.89916305,1.33567074,8.68044717,0.228389,-1.37253,0.175939,-117.418396,110.558685,-148.346451,60.187681,24.830107,13.659874,19.032912,-1.0,-1.0,100.610077,-0.731922,-2.584511,-0.11539,-0.766927
839842.71195,-4.38093999,1.0912349700000001,8.75813256,0.071707,-1.583855,0.159273,-116.780212,110.782318,-147.21875,60.187681,24.830107,13.659874,19.032912,-1.0,-1.0,100.610077,-0.731922,-2.61043,-0.122331,-0.767109
839842.731934,-4.314928500000001,1.07641206,8.80304274,-0.027409,-1.735686,0.136163,-115.904984,111.64035,-145.602478,60.187681,24.830107,13.659874,19.032912,-1.0,-1.0,100.610077,-0.731922,-2.639838,-0.126288,-0.768268
839842.751918,-3.8082321900000005,1.49598576,8.25264288,-0.024007,-1.797167,0.156381,-115.411789,112.025208,-144.588821,60.187681,24.830107,13.659874,19.032912,-1.0,-1.0,100.610077,-0.731922,-2.673133,-0.127908,-0.770603
839842.771903,-3.9357621899999997,1.3736943,8.11283076,0.054342,-1.792835,0.157979,-114.850677,112.177307,-142.899796,60.187681,24.830107,13.659874,19.032912,-1.0,-1.0,100.610077,-0.731922,-2.708766,-0.128476,-0.77346
839842.791887,-3.6782987400000002,1.03689738,8.7078465,0.09187,-1.822587,0.113928,-114.221558,112.64917,-141.818512,60.187681,24.830107,13.659874,19.032912,-1.0,-1.0,100.610077,-0.731922,-2.745018,-0.12997,-0.77621
839842.811872,-3.09540816,1.03629897,9.16200045,0.077749,-1.823692,0.097687,-114.221558,112.64917,-141.818512,60.187681,24.830107,13.659874,19.032912,-1.0,-1.0,100.610077,-0.731922,-2.781346,-0.132384,-0.778209
839842.831856,-2.6958959100000004,0.90995598,9.51121683,0.051597,-1.80663,0.093209,-112.853821,113.55867,-140.282181,60.187681,24.830107,13.659874,19.032912,-1.0,-1.0,100.610077,-0.731922,-2.817863,-0.134852,-0.779487
839842.851841,-2.4674700600000006,0.8458868700000001,10.38540555,-0.050263,-1.7554,0.07628,-111.178055,114.262802,-138.439209,60.187681,24.830107,13.659874,19.032912,-1.0,-1.0,100.610077,-0.731922,-2.854607,-0.136514,-0.780867
839842.871825,-1.9264976100000002,0.9833053500000001,9.883947780000002,-0.078247,-1.664487,0.063498,-109.04953,114.744507,-136.888458,60.187681,24.830107,13.659874,19.032912,-1.0,-1.0,100.610077,-0.731922,-2.890267,-0.1371,-0.782478
839842.911794,-1.91257722,1.41875163,10.212209999999999,-0.090048,-1.386076,0.052562,-104.945511,113.492035,-133.879364,60.187681,24.830107,13.659874,19.032912,-1.0,-1.0,100.610077,-0.731922,-2.957351,-0.134591,-0.785628
839842.931778,-6.54618357,-2.39681844,17.54426286,-0.829244,-0.906768,-0.450056,-104.689163,112.57782,-133.448486,60.187681,24.830107,13.659874,19.032912,-1.0,-1.0,100.610077,-0.731922,-2.987059,-0.132949,-0.787099
839842.951763,1.2159200700000001,3.1901629500000004,12.26983788,-0.846605,-1.405474,-0.265754,-108.009445,114.348038,-133.045792,60.187681,24.830107,13.659874,19.032912,-1.0,-1.0,100.610077,-0.731922,-3.00714,-0.126923,-0.784236
839842.971747,-2.26733625,0.7575772500000001,14.080920840000001,-0.629446,-1.544298,-0.3935,-102.509567,111.525909,-128.426605,60.187681,24.830107,13.659874,19.032912,-1.0,-1.0,100.610077,-0.731922,-3.034264,-0.095836,-0.77859
839842.971747,-2.26733625,0.7575772500000001,14.080920840000001,-0.629446,-1.544298,-0.3935,-102.509567,111.525909,-128.426605,60.187681,24.830107,13.659874,19.032912,-1.0,-1.0,100.610077,-0.731922,-3.034264,-0.095836,-0.77859
839843.011716,-0.36867942,1.13524263,14.60498085,-0.286243,-0.549593,0.046228,-108.262955,111.060303,-127.816345,60.187681,24.830107,13.659874,19.032912,-1.0,-1.0,100.610077,-0.731922,-3.062768,-0.079432,-0.771274
839843.031701,-0.4016115900000001,0.8134059600000001,13.375885949999999,-0.386845,-0.682668,0.111267,-106.836502,112.520447,-126.56662,60.187681,24.830107,13.659874,19.032912,-1.0,-1.0,100.610077,-0.731922,-3.075442,-0.071601,-0.771675
839843.051685,-0.35027586000000005,1.82246256,6.29455707,-0.156897,-0.284887,0.151284,-104.904587,112.439224,-126.017715,60.187681,24.830107,13.659874,19.032912,-1.0,-1.0,100.610077,-0.731922,-3.082378,-0.06786,-0.773706
839843.07167,-0.38634723000000004,1.07686332,9.190292490000001,-0.146232,-0.201627,0.140312,-103.95314,112.106293,-125.660172,60.187681,24.830107,13.659874,19.032912,-1.0,-1.0,100.610077,-0.731922,-3.089375,-0.063682,-0.77691
839843.091654,-0.24743763,0.9894464100000001,9.632321280000001,-0.158132,-0.260396,0.113044,-103.779633,111.879883,-125.2509,60.187681,24.830107,13.659874,19.032912,-1.0,-1.0,100.610077,-0.731922,-3.095286,-0.060317,-0.780025
839843.111638,-0.22168638000000002,0.51298452,10.32927273,-0.226577,-0.424656,0.07876,-104.072464,111.401291,-125.150253,60.187681,24.830107,13.659874,19.032912,-1.0,-1.0,100.610077,-0.731922,-3.101137,-0.057026,-0.782606
839843.131623,-0.017363700000000003,0.36628578000000006,10.221647220000001,-0.296793,-0.569675,0.095652,-104.304993,110.967117,-125.21962,60.187681,24.830107,13.659874,19.032912,-1.0,-1.0,100.610077,-0.731922,-3.108408,-0.052806,-0.784476
839843.151607,0.059576130000000005,0.6403673700000001,9.46661076,-0.304085,-0.609284,0.14926,-104.373611,110.670166,-124.449844,60.187681,24.830107,13.659874,19.032912,-1.0,-1.0,100.610077,-0.731922,-3.117878,-0.047795,-0.786127
839843.171592,-0.6373753200000001,0.48184758000000005,9.819133110000001,-0.32645,-0.632055,0.117795,-104.199646,110.456024,-123.667221,60.187681,24.830107,13.659874,19.032912,-1.0,-1.0,100.610077,-0.731922,-3.129223,-0.041782,-0.788771
839843.191576,-0.28994436,0.59501574,9.66121173,-0.311322,-0.612725,0.089039,-103.930634,110.407364,-123.30632,60.187681,24.830107,13.659874,19.032912,-1.0,-1.0,100.610077,-0.731922,-3.14114,-0.035522,-0.791393
839843.211561,-3.3301222200000002,2.3107455000000003,11.12681592,-0.311322,-0.612725,0.089039,-104.05719,109.931992,-123.700668,60.187681,24.830107,13.659874,19.032912,-1.0,-1.0,100.610077,-0.731922,3.129839,-0.029166,-0.793385
839843.231545,0.25267617,-0.58947309,8.2828773,-0.084008,-0.377163,-0.250313,-104.97699,109.248306,-123.422852,60.187681,24.830107,13.659874,19.032912,-1.0,-1.0,100.610077,-0.731922,3.127518,-0.027941,-0.795039
839843.25153,2.50399269,0.25911153,5.84968338,0.020311,0.037596,0.004397,-105.591949,108.470917,-123.229584,60.187681,24.830107,13.659874,19.032912,-1.0,-1.0,100.610077,-0.731922,3.129792,-0.028601,-0.79285
839843.271514,0.6125265900000001,-0.11061756,8.99643708,0.010557,0.008748,0.012003,-105.676926,108.05426,-123.194412,60.187681,24.830107,13.659874,19.032912,-1.0,-1.0,100.610077,-0.731922,3.12834,-0.028159,-0.790229
839843.291498,-0.21240612000000003,0.19609209,9.418414230000002,0.020595,-0.006043,-0.001932,-105.609665,107.986206,-123.503311,60.187681,24.830107,13.659874,19.032912,-1.0,-1.0,100.610077,-0.731922,3.128061,-0.028107,-0.790399
839843.311483,-0.25387299,0.23321313,10.06896438,0.015014,-0.012246,-0.004068,-105.49205,108.061203,-123.111389,60.187681,24.830107,13.659874,19.032912,-1.0,-1.0,100.610077,-0.731922,3.12783,-0.028153,-0.790418
839843.331467,0.08726976,0.19609209,10.304424000000001,-0.010533,-0.045285,-0.001377,-105.5952,108.261551,-123.236588,60.187681,24.830107,13.659874,19.032912,-1.0,-1.0,100.610077,-0.731922,3.12763,-0.028098,-0.790214
839843.351452,0.22692492,0.52929855,9.53113113,0.013881,-0.030533,-0.000339,-105.771103,108.371643,-123.626953,60.187681,24.830107,13.659874,19.032912,-1.0,-1.0,100.610077,-0.731922,3.127518,-0.028229,-0.79006
839843.371436,-0.0520911,0.29429019,9.97675038,-0.00012,-0.016576,-0.00232,-105.584976,108.384552,-123.238495,60.187681,24.830107,13.659874,19.032912,-1.0,-1.0,100.610077,-0.731922,3.12743,-0.02835,-0.789919
839843.391421,0.09954207,0.35311095000000003,9.74188917,-0.001107,-0.015256,0.0051,-105.587082,108.330505,-123.468506,60.187681,24.830107,13.659874,19.032912,-1.0,-1.0,100.610077,-0.731922,3.127269,-0.028445,-0.789713
839843.411405,0.31838355,0.17499078,9.70117767,-0.001444,-0.02096,0.018253,-105.698608,108.225143,-123.429474,60.187681,24.830107,13.659874,19.032912,-1.0,-1.0,100.610077,-0.731922,3.127228,-0.028528,-0.789651
839843.451374,0.15942231,0.23935419000000002,9.74832453,0.003678,-0.011893,0.001827,-105.728378,107.929108,-123.252579,60.187681,24.830107,13.659874,19.032912,-1.0,-1.0,100.610077,-0.731922,3.127013,-0.028347,-0.789946
839843.451374,0.15942231,0.23935419000000002,9.74832453,0.003678,-0.011893,0.001827,-105.728378,107.929108,-123.252579,60.187681,24.830107,13.659874,19.032912,-1.0,-1.0,100.610077,-0.731922,3.127013,-0.028347,-0.789946
839843.491343,-0.11541465,0.18126918000000003,9.953098469999999,0.003439,-0.001423,0.004458,-105.494675,108.065598,-123.385025,60.187681,24.830107,13.659874,19.032912,-1.0,-1.0,100.610077,-0.731922,3.12702,-0.028346,-0.78992
839843.491343,-0.11541465,0.18126918000000003,9.953098469999999,0.003439,-0.001423,0.004458,-105.494675,108.065598,-123.385025,60.187681,24.830107,13.659874,19.032912,-1.0,-1.0,100.610077,-0.731922,3.12702,-0.028346,-0.78992
839843.531312,0.1130112,0.30850488,9.68994522,0.00701,-0.002877,0.005837,-105.393997,108.335999,-123.202271,60.187681,24.830107,13.659874,19.032912,-1.0,-1.0,100.610077,-0.731922,3.126997,-0.028364,-0.78995
839843.551296,-0.01182105,0.21720321,9.89622009,0.000465,-0.005211,0.005752,-105.582428,108.373428,-123.500336,60.187681,24.830107,13.659874,19.032912,-1.0,-1.0,100.610077,-0.731922,3.127041,-0.028345,-0.789918
839843.571281,0.13412232000000002,0.29548701,9.78021684,0.001208,-0.010244,0.004284,-105.359283,108.544693,-123.30191,60.187681,24.830107,13.659874,19.032912,-1.0,-1.0,100.610077,-0.731922,3.127015,-0.028325,-0.789898
839843.591265,0.09924777,0.33874911,9.6767802,0.009333,-0.00102,0.006347,-105.325272,108.531982,-123.314529,60.187681,24.830107,13.659874,19.032912,-1.0,-1.0,100.610077,-0.731922,3.127053,-0.028363,-0.789925
839843.61125,0.053140770000000004,0.26255484,9.883496520000001,-0.00033,-0.00915,0.00463,-105.144058,108.929047,-123.058395,60.187681,24.830107,13.659874,19.032912,-1.0,-1.0,100.610077,-0.731922,3.127063,-0.028362,-0.789896
839843.631234,0.07079877000000001,0.31479309,9.7519248,0.00228,-0.003648,0.004073,-105.158356,108.861481,-123.251724,60.187681,24.830107,13.659874,19.032912,-1.0,-1.0,100.610077,-0.731922,3.127062,-0.028356,-0.789881
839843.651219,0.13367106,0.34293798000000003,9.727370370000001,0.004744,-0.003013,0.007384,-105.097458,108.933731,-122.748306,60.187681,24.830107,13.659874,19.032912,-1.0,-1.0,100.610077,-0.731922,3.127072,-0.028375,-0.789882
839843.671203,0.07603731000000001,0.28231218,9.869880240000002,0.002138,-0.006709,0.005744,-105.169739,108.916641,-122.86705,60.187681,24.830107,13.659874,19.032912,-1.0,-1.0,100.610077,-0.731922,3.127069,-0.028355,-0.789867
839843.691188,0.06541308000000001,0.32437746,9.77946147,0.001977,-0.003341,0.003435,-104.985931,109.259827,-122.750778,60.187681,24.830107,13.659874,19.032912,-1.0,-1.0,100.610077,-0.731922,3.127069,-0.028362,-0.789865
839843.711172,0.10896948000000001,0.31973733,9.77077962,0.005751,-0.003997,0.004409,-104.956573,109.20607,-122.849655,60.187681,24.830107,13.659874,19.032912,-1.0,-1.0,100.610077,-0.731922,3.127076,-0.028375,-0.789872
839843.731156,0.09550035000000001,0.29353482000000003,9.82751085,0.001508,-0.006328,0.004932,-104.919846,109.14389,-122.94899,60.187681,24.830107,13.659874,19.032912,-1.0,-1.0,100.610077,-0.731922,3.127067,-0.028374,-0.789855
839843.751141,0.07858791000000001,0.32063004,9.74234043,0.003679,-0.0066,0.005428,-104.892639,109.277649,-122.624542,60.187681,24.830107,13.659874,19.032912,-1.0,-1.0,100.610077,-0.731922,3.127081,-0.028367,-0.789838
839843.771125,0.09056592000000001,0.31854051,9.77108373,0.005616,-0.004993,0.00581,-104.926193,109.394028,-122.736862,60.187681,24.830107,13.659874,19.032912,-1.0,-1.0,100.610077,-0.731922,3.127086,-0.028366,-0.789842
839843.79111,0.09355797,0.29129814000000004,9.81494424,0.000873,-0.00733,0.007115,-104.953842,109.260559,-122.670578,60.187681,24.830107,13.659874,19.032912,-1.0,-1.0,100.610077,-0.731922,3.127087,-0.02836,-0.789828
839843.811094,0.07574301000000001,0.29757654,9.77377167,0.001589,-0.00457,0.003397,-104.988678,109.215561,-122.966278,60.187681,24.830107,13.659874,19.032912,-1.0,-1.0,100.610077,-0.731922,3.127079,-0.028353,-0.789837
839843.831079,0.09400923,0.30042144,9.75416148,0.001923,-0.005541,0.004821,-105.054764,109.087509,-123.025452,60.187681,24.830107,13.659874,19.032912,-1.0,-1.0,100.610077,-0.731922,3.127094,-0.028355,-0.789838
839843.851063,0.08262963000000001,0.28800198,9.771378030000001,0.00236,-0.005456,0.006159,-105.043564,109.152481,-122.940063,60.187681,24.830107,13.659874,19.032912,-1.0,-1.0,100.610077,-0.731922,3.127096,-0.02833,-0.789827
839843.871048,0.0811287,0.29114118,9.747726120000001,0.00163,-0.001295,0.004263,-105.339539,109.163925,-122.681961,60.187681,24.830107,13.659874,19.032912,-1.0,-1.0,100.609497,-0.684361,3.127089,-0.028313,-0.789835
839843.891032,0.08726976,0.26240768999999997,9.774968490000001,0.002639,-0.003578,0.004253,-104.962082,109.023575,-122.366455,60.187681,24.830107,13.659874,19.032912,-1.0,-1.0,100.609497,-0.684361,3.127102,-0.028298,-0.789812
839843.911017,0.08248248000000001,0.27078543,9.783503190000001,0.002718,-0.003837,0.003684,-105.094284,109.14566,-122.870941,60.187681,24.830107,13.659874,19.032912,-1.0,-1.0,100.609497,-0.684361,3.127115,-0.028276,-0.789799
839843.931001,0.08023599000000001,0.26599815,9.77826465,0.00262,-0.003609,0.004189,-105.341965,108.929382,-122.700256,60.187681,24.830107,13.659874,19.032912,-1.0,-1.0,100.609497,-0.684361,3.12712,-0.028277,-0.789803
839843.950986,0.08442486000000002,0.27513126000000004,9.77377167,0.004824,-0.005665,0.005075,-105.152023,109.08403,-122.697678,60.187681,24.830107,13.659874,19.032912,-1.0,-1.0,100.609497,-0.684361,3.127129,-0.02827,-0.789794
839843.97097,0.08143281,0.283509,9.768238830000001,0.002808,-0.004855,0.005977,-105.167328,109.185135,-122.47023,60.187681,24.830107,13.659874,19.032912,-1.0,-1.0,100.609497,-0.684361,3.12714,-0.028274,-0.789795
839843.990955,0.07634142000000001,0.28546119000000003,9.77751909,0.003031,-0.004512,0.006032,-105.234985,109.182999,-122.50174,60.187681,24.830107,13.659874,19.032912,-1.0,-1.0,100.609497,-0.684361,3.127158,-0.028278,-0.789792
839844.010939,0.08188407,0.28934595,9.77273181,0.00162,-0.005069,0.004996,-105.284439,109.046524,-122.766861,60.187681,24.830107,13.659874,19.032912,-1.0,-1.0,100.609497,-0.684361,3.127174,-0.028275,-0.789788
839844.030923,0.09265545000000001,0.28530423000000005,9.771682140000001,0.003591,-0.004399,0.006213,-105.148422,109.237442,-122.600616,60.187681,24.830107,13.659874,19.032912,-1.0,-1.0,100.609497,-0.684361,3.127204,-0.028267,-0.789777
839844.050908,0.08172711,0.28365615,9.791292330000001,0.002253,-0.003961,0.004569,-104.898178,109.149521,-122.633667,60.187681,24.830107,13.659874,19.032912,-1.0,-1.0,100.609497,-0.684361,3.127224,-0.028274,-0.789781
839844.070892,0.08322804,0.29952873,9.78889869,0.002695,-0.005659,0.003704,-105.011383,109.338394,-122.893478,60.187681,24.830107,13.659874,19.032912,-1.0,-1.0,100.609497,-0.684361,3.12726,-0.028265,-0.789771
839844.090877,0.09310671,0.31015296,9.77976558,0.002809,-0.002233,0.004138,-105.092728,109.368134,-123.006668,60.187681,24.830107,13.659874,19.032912,-1.0,-1.0,100.609497,-0.684361,3.127278,-0.028271,-0.789764
839844.130846,0.07948062,0.30117681,9.775566900000001,0.004076,-0.003775,0.005328,-105.012512,109.338257,-123.151062,60.187681,24.830107,13.659874,19.032912,-1.0,-1.0,100.609497,-0.684361,3.127349,-0.028281,-0.789764
839844.130846,0.07948062,0.30117681,9.775566900000001,0.004076,-0.003775,0.005328,-105.012512,109.338257,-123.151062,60.187681,24.830107,13.659874,19.032912,-1.0,-1.0,100.609497,-0.684361,3.127349,-0.028281,-0.789764
839844.170815,0.0782838,0.29144529,9.78515127,0.004304,-0.004397,0.002373,-105.082901,109.23941,-122.866348,60.187681,24.830107,13.659874,19.032912,-1.0,-1.0,100.609497,-0.684361,3.127394,-0.028288,-0.789748
839844.170815,0.0782838,0.29144529,9.78515127,0.004304,-0.004397,0.002373,-105.082901,109.23941,-122.866348,60.187681,24.830107,13.659874,19.032912,-1.0,-1.0,100.609497,-0.684361,3.127394,-0.028288,-0.789748
839844.210784,0.08098155,0.27991854,9.77317326,0.001925,-0.004294,0.005443,-105.132599,109.10849,-122.932541,60.187681,24.830107,13.659874,19.032912,-1.0,-1.0,100.609497,-0.684361,3.127429,-0.028301,-0.78972
839844.230768,0.07529175,0.28575549,9.77692068,0.004124,-0.001967,0.004721,-105.132599,109.10849,-122.932541,60.187681,24.830107,13.659874,19.032912,-1.0,-1.0,100.609497,-0.684361,3.127434,-0.028293,-0.789706
839844.250753,0.07199559,0.27453285,9.76613949,0.002898,-0.005834,0.005384,-105.013214,109.111664,-122.881714,60.187681,24.830107,13.659874,19.032912,-1.0,-1.0,100.609497,-0.684361,3.127467,-0.028302,-0.789692
839844.250753,0.07199559,0.27453285,9.76613949,0.002898,-0.005834,0.005384,-105.013214,109.111664,-122.881714,60.187681,24.830107,13.659874,19.032912,-1.0,-1.0,100.609497,-0.684361,3.127467,-0.028302,-0.789692
839844.290722,0.08502327,0.28695231,9.763294590000001,0.003338,-0.003749,0.004982,-105.000641,109.29744,-122.831406,60.187681,24.830107,13.659874,19.032912,-1.0,-1.0,100.609497,-0.684361,3.127507,-0.028315,-0.789686
839844.290722,0.08502327,0.28695231,9.763294590000001,0.003338,-0.003749,0.004982,-105.000641,109.29744,-122.831406,60.187681,24.830107,13.659874,19.032912,-1.0,-1.0,100.609497,-0.684361,3.127507,-0.028315,-0.789686
839844.33069,0.08981055,0.29653668000000005,9.7610481,0.003328,-0.004502,0.003066,-105.329437,109.128296,-122.845627,60.187681,24.830107,13.659874,19.032912,-1.0,-1.0,100.609497,-0.684361,3.127561,-0.028304,-0.789678
839844.350675,0.08786817,0.27393444,9.767493270000001,0.004303,-0.004217,0.003455,-105.17688,109.13942,-122.761475,60.187681,24.830107,13.659874,19.032912,-1.0,-1.0,100.609497,-0.684361,3.127586,-0.028317,-0.789671
839844.370659,0.08846658,0.28829628,9.775272600000001,0.003199,-0.002522,0.004022,-104.986374,109.336838,-122.84346,60.187681,24.830107,13.659874,19.032912,-1.0,-1.0,100.609497,-0.684361,3.127616,-0.028315,-0.789647
839844.390644,0.08861373,0.28934595,9.751473540000001,0.003362,-0.004613,0.003352,-104.978638,109.145493,-123.005447,60.187681,24.830107,13.659874,19.032912,-1.0,-1.0,100.609497,-0.684361,3.12764,-0.028315,-0.789659
839844.410628,0.08696565,0.29593827,9.75865446,0.003932,-0.00031,0.003599,-105.119995,109.204681,-123.009903,60.187681,24.830107,13.659874,19.032912,-1.0,-1.0,100.609497,-0.684361,3.127671,-0.028323,-0.78965
839844.430613,0.0865242,0.29084688000000003,9.77108373,0.002452,-0.003392,0.003893,-105.19458,109.167557,-122.940811,60.187681,24.830107,13.659874,19.032912,-1.0,-1.0,100.609497,-0.684361,3.127705,-0.028319,-0.789625
839844.450597,0.09040896000000001,0.29264211,9.7607538,0.002452,-0.003392,0.003893,-104.981064,109.169632,-122.5224,60.187681,24.830107,13.659874,19.032912,-1.0,-1.0,100.609497,-0.684361,3.127744,-0.028314,-0.789629
839844.470582,0.0836793,0.30221667,9.78560253,0.002749,-0.002898,0.005553,-105.124527,109.129913,-122.713043,60.187681,24.830107,13.659874,19.032912,-1.0,-1.0,100.609497,-0.684361,3.127782,-0.02832,-0.789607
839844.490566,0.08576883000000002,0.30221667,9.78649524,0.00412,-0.004677,0.003771,-105.092148,109.14946,-122.665604,60.187681,24.830107,13.659874,19.032912,-1.0,-1.0,100.609497,-0.684361,3.127818,-0.028326,-0.789596
839844.510551,0.07724394000000001,0.29039562,9.76988691,0.001655,-0.000617,0.003235,-104.930664,109.236847,-122.611572,60.187681,24.830107,13.659874,19.032912,-1.0,-1.0,100.609497,-0.684361,3.127834,-0.02834,-0.78958
839844.530535,0.09071307,0.2951829,9.76254903,0.002233,-0.005877,0.003292,-105.000473,109.234558,-122.686539,60.187681,24.830107,13.659874,19.032912,-1.0,-1.0,100.609497,-0.684361,3.12787,-0.028347,-0.789574
839844.55052,0.09744273000000002,0.27737775000000003,9.76704201,0.002732,-0.000498,0.005596,-105.008926,109.056091,-122.60997,60.187681,24.830107,13.659874,19.032912,-1.0,-1.0,100.609497,-0.684361,3.127893,-0.028337,-0.789565
839844.570504,0.07753824,0.28425456,9.76704201,0.00271,-0.006099,0.005259,-105.097916,108.981552,-122.686966,60.187681,24.830107,13.659874,19.032912,-1.0,-1.0,100.609497,-0.684361,3.127914,-0.028343,-0.789561
839844.590489,0.07424208,0.29219085,9.77482134,0.00273,-0.001633,0.00452,-105.069016,108.904938,-122.437592,60.187681,24.830107,13.659874,19.032912,-1.0,-1.0,100.609497,-0.684361,3.127947,-0.028348,-0.789578
839844.610473,0.09460764,0.28709946000000003,9.78141366,0.002606,-0.003681,0.003832,-104.980301,109.252243,-122.615372,60.187681,24.830107,13.659874,19.032912,-1.0,-1.0,100.609497,-0.684361,3.127959,-0.028357,-0.789564
839844.630457,0.08053028999999999,0.29338767,9.77077962,0.002606,-0.003681,0.003832,-104.939819,109.143753,-122.610764,60.187681,24.830107,13.659874,19.032912,-1.0,-1.0,100.609497,-0.684361,3.127997,-0.028368,-0.789555
839844.650442,0.08172711,0.27587682,9.79712928,0.002372,-0.00371,0.005201,-105.130966,109.003693,-122.778,60.187681,24.830107,13.659874,19.032912,-1.0,-1.0,100.609497,-0.684361,3.128016,-0.02838,-0.789547
839844.650442,0.08172711,0.27587682,9.79712928,0.002372,-0.00371,0.005201,-105.130966,109.003693,-122.778,60.187681,24.830107,13.659874,19.032912,-1.0,-1.0,100.609497,-0.684361,3.128016,-0.02838,-0.789547
839844.690411,0.08831943,0.29728224000000003,9.74728467,0.004303,-0.001665,0.005248,-104.9953,108.998123,-123.105133,60.187681,24.830107,13.659874,19.032912,-1.0,-1.0,100.609497,-0.684361,3.128058,-0.028385,-0.789536
839844.710396,0.08502327,0.27932013,9.784101600000001,0.002568,-0.006118,0.005484,-104.99649,109.139297,-122.867905,60.187681,24.830107,13.659874,19.032912,-1.0,-1.0,100.609497,-0.684361,3.128073,-0.028395,-0.789546
839844.750365,0.07708698000000001,0.2977335,9.75296466,0.001686,-0.002681,0.004156,-104.930069,109.1716,-122.77005,60.187681,24.830107,13.659874,19.032912,-1.0,-1.0,100.609497,-0.684361,3.128091,-0.028401,-0.789532
839844.770348,0.09624591,0.28785483,9.78634809,0.003354,-0.00421,0.003289,-104.79982,109.046722,-122.789276,60.187681,24.830107,13.659874,19.032912,-1.0,-1.0,100.609497,-0.684361,3.128108,-0.028394,-0.789528
839844.770348,0.09624591,0.28785483,9.78634809,0.003354,-0.00421,0.003289,-104.79982,109.046722,-122.789276,60.187681,24.830107,13.659874,19.032912,-1.0,-1.0,100.609497,-0.684361,3.128108,-0.028394,-0.789528
839844.810318,0.08562168,0.28814913000000003,9.787093650000001,0.002936,-0.003729,0.003932,-104.92662,109.291748,-122.714066,60.187681,24.830107,13.659874,19.032912,-1.0,-1.0,100.609497,-0.684361,3.128115,-0.028397,-0.789504
839844.810318,0.08562168,0.28814913000000003,9.787093650000001,0.002936,-0.003729,0.003932,-104.92662,109.291748,-122.714066,60.187681,24.830107,13.659874,19.032912,-1.0,-1.0,100.609497,-0.684361,3.128115,-0.028397,-0.789504
839844.850287,0.06930765,0.2977335,9.77751909,0.002876,-0.003176,0.003761,-104.95488,109.191391,-123.006439,60.187681,24.830107,13.659874,19.032912,-1.0,-1.0,100.609497,-0.684361,3.128121,-0.028407,-0.789482
839844.850287,0.06930765,0.2977335,9.77751909,0.002876,-0.003176,0.003761,-104.95488,109.191391,-123.006439,60.187681,24.830107,13.659874,19.032912,-1.0,-1.0,100.609497,-0.684361,3.128121,-0.028407,-0.789482
839844.890256,0.09415638000000001,0.28800198,9.78605379,0.003102,-0.003162,0.003761,-105.042999,109.242599,-123.210724,60.187681,24.830107,13.659874,19.032912,-1.0,-1.0,100.609497,-0.684361,3.128151,-0.028422,-0.789432
839844.910239,0.0865242,0.29264211,9.80521272,0.002415,-0.002169,0.002513,-105.051636,109.302994,-123.106369,60.187681,24.830107,13.659874,19.032912,-1.0,-1.0,100.609497,-0.684361,3.128177,-0.028415,-0.78943
839844.930225,0.08277678,0.29099403,9.77377167,0.002342,-0.002771,0.003194,-105.051636,109.302994,-123.106369,60.187681,24.830107,13.659874,19.032912,-1.0,-1.0,100.60939,-0.67379,3.128177,-0.028425,-0.789421
839844.950209,0.09086022,0.28261629000000005,9.78919299,0.002643,-0.005412,0.00409,-105.082199,109.37384,-123.03653,60.187681,24.830107,13.659874,19.032912,-1.0,-1.0,100.60939,-0.67379,3.128184,-0.028432,-0.789414
839844.970194,0.07693983,0.29383893,9.77437008,0.001399,-0.003001,0.003813,-105.05722,109.278534,-122.93129,60.187681,24.830107,13.659874,19.032912,-1.0,-1.0,100.60939,-0.67379,3.128183,-0.028435,-0.789403
839844.990178,0.09669717,0.28709946000000003,9.76120506,0.002213,-0.005806,0.005663,-104.89917,109.420624,-122.877686,60.187681,24.830107,13.659874,19.032912,-1.0,-1.0,100.60939,-0.67379,3.128177,-0.028431,-0.789401
839845.010163,0.06556023,0.28006569000000003,9.76300029,0.002912,-0.003157,0.00501,-104.907135,109.337769,-122.72998,60.187681,24.830107,13.659874,19.032912,-1.0,-1.0,100.60939,-0.67379,3.128165,-0.028415,-0.7894
839845.030147,0.08576883000000002,0.3008727,9.76554108,0.003724,-0.002544,0.004369,-105.12619,109.365585,-122.736847,60.187681,24.830107,13.659874,19.032912,-1.0,-1.0,100.60939,-0.67379,3.128174,-0.028426,-0.789395
839845.050132,0.10896948000000001,0.2832147,9.77706783,0.003603,-0.001926,0.004784,-105.042496,109.312347,-122.755859,60.187681,24.830107,13.659874,19.032912,-1.0,-1.0,100.60939,-0.67379,3.128175,-0.028427,-0.789393
839845.070116,0.07529175,0.28994436,9.763893,0.00288,-0.003127,0.00459,-105.000931,109.32814,-122.671188,60.187681,24.830107,13.659874,19.032912,-1.0,-1.0,100.60939,-0.67379,3.12818,-0.02844,-0.789404
839845.090101,0.08876088000000001,0.29608542000000004,9.78110955,0.003061,-0.004242,0.003966,-105.041351,109.413696,-122.954758,60.187681,24.830107,13.659874,19.032912,-1.0,-1.0,100.60939,-0.67379,3.128191,-0.028456,-0.789398
839845.110085,0.08846658,0.27737775000000003,9.775723860000001,0.003076,-0.002949,0.004622,-104.900284,109.216202,-122.528244,60.187681,24.830107,13.659874,19.032912,-1.0,-1.0,100.60939,-0.67379,3.128188,-0.028444,-0.789399
839845.13007,0.09116433,0.30132396,9.74848149,0.002265,-0.004357,0.005981,-105.02858,109.324081,-122.474762,60.187681,24.830107,13.659874,19.032912,-1.0,-1.0,100.60939,-0.67379,3.128178,-0.028449,-0.789385
839845.150054,0.08457201,0.28755072000000004,9.74997261,0.002972,0.000118,0.004681,-104.908432,109.355408,-122.765549,60.187681,24.830107,13.659874,19.032912,-1.0,-1.0,100.60939,-0.67379,3.128178,-0.028461,-0.789383
839845.170039,0.09849240000000001,0.28201788,9.771378030000001,0.003619,-0.004224,0.003517,-105.03891,109.290741,-122.617264,60.187681,24.830107,13.659874,19.032912,-1.0,-1.0,100.60939,-0.67379,3.128167,-0.028453,-0.789392
839845.190022,0.08696565,0.27437589,9.767934720000001,0.00232,-0.002446,0.004566,-104.997299,109.210052,-122.834717,60.187681,24.830107,13.659874,19.032912,-1.0,-1.0,100.60939,-0.67379,3.12817,-0.028438,-0.789386
839845.210008,0.09295956000000001,0.29668383,9.7695828,0.003318,-0.003675,0.005189,-104.97934,109.207886,-122.626434,60.187681,24.830107,13.659874,19.032912,-1.0,-1.0,100.60939,-0.67379,3.128148,-0.028458,-0.789383
839845.229992,0.08547453,0.27767205,9.763147440000001,0.003318,-0.003675,0.005189,-104.972916,109.202484,-123.030609,60.187681,24.830107,13.659874,19.032912,-1.0,-1.0,100.60939,-0.67379,3.128139,-0.028463,-0.789364
839845.249977,0.08023599000000001,0.28381311,9.751326390000001,0.002567,-0.002471,0.004259,-104.943542,109.130264,-122.691788,60.187681,24.830107,13.659874,19.032912,-1.0,-1.0,100.60939,-0.67379,3.128131,-0.028462,-0.789361
839845.289946,0.08532738,0.28291059,9.75207195,0.003562,-0.001467,0.003175,-104.963272,109.333038,-122.662338,60.187681,24.830107,13.659874,19.032912,-1.0,-1.0,100.60939,-0.67379,3.128107,-0.028464,-0.789349
839845.289946,0.08532738,0.28291059,9.75207195,0.003562,-0.001467,0.003175,-104.963272,109.333038,-122.662338,60.187681,24.830107,13.659874,19.032912,-1.0,-1.0,100.60939,-0.67379,3.128107,-0.028464,-0.789349
839845.329915,0.07574301000000001,0.28500993,9.759704130000001,0.003621,-0.000138,0.005245,-105.147476,109.141769,-122.595184,60.187681,24.830107,13.659874,19.032912,-1.0,-1.0,100.60939,-0.67379,3.128081,-0.028481,-0.789333
839845.329915,0.07574301000000001,0.28500993,9.759704130000001,0.003621,-0.000138,0.005245,-105.147476,109.141769,-122.595184,60.187681,24.830107,13.659874,19.032912,-1.0,-1.0,100.60939,-0.67379,3.128081,-0.028481,-0.789333
839845.369884,0.09205704,0.28845324,9.77032836,0.003351,-0.002753,0.004115,-105.23616,109.237366,-122.72464,60.187681,24.830107,13.659874,19.032912,-1.0,-1.0,100.60939,-0.67379,3.128063,-0.028474,-0.789355
839845.369884,0.09205704,0.28845324,9.77032836,0.003351,-0.002753,0.004115,-105.23616,109.237366,-122.72464,60.187681,24.830107,13.659874,19.032912,-1.0,-1.0,100.60939,-0.67379,3.128063,-0.028474,-0.789355
839845.409853,0.08277678,0.29922462000000005,9.76704201,0.003162,-0.003501,0.004319,-105.100937,109.32579,-122.608871,60.187681,24.830107,13.659874,19.032912,-1.0,-1.0,100.60939,-0.67379,3.128037,-0.02847,-0.789352
839845.409853,0.08277678,0.29922462000000005,9.76704201,0.003162,-0.003501,0.004319,-105.100937,109.32579,-122.608871,60.187681,24.830107,13.659874,19.032912,-1.0,-1.0,100.60939,-0.67379,3.128037,-0.02847,-0.789352
839845.449821,0.08622009,0.29443734,9.76209777,0.001744,-0.00411,0.001829,-104.86821,109.341293,-122.945877,60.187681,24.830107,13.659874,19.032912,-1.0,-1.0,100.60939,-0.67379,3.128021,-0.028464,-0.78934
839845.469805,0.08592579,0.29010132000000005,9.77347737,0.002695,-0.001347,0.00563,-105.141861,109.283173,-122.420685,60.187681,24.830107,13.659874,19.032912,-1.0,-1.0,100.60939,-0.67379,3.128003,-0.028457,-0.789336
839845.48979,0.09580446000000001,0.28709946000000003,9.772133400000001,0.003427,-0.003483,0.002097,-104.83226,109.333633,-122.668793,60.187681,24.830107,13.659874,19.032912,-1.0,-1.0,100.60939,-0.67379,3.127989,-0.028449,-0.789328
839845.48979,0.09580446000000001,0.28709946000000003,9.772133400000001,0.003427,-0.003483,0.002097,-104.83226,109.333633,-122.668793,60.187681,24.830107,13.659874,19.032912,-1.0,-1.0,100.60939,-0.67379,3.127989,-0.028449,-0.789328
839845.529759,0.08861373,0.27961443,9.76554108,0.003123,-0.001019,0.003879,-105.065994,109.252975,-122.708603,60.187681,24.830107,13.659874,19.032912,-1.0,-1.0,100.60939,-0.67379,3.127971,-0.028457,-0.789312
