timestamp,accel_x,accel_y,accel_z,gyro_x,gyro_y,gyro_z,mag_x,mag_y,mag_z,gps_lat,gps_lon,gps_alt,gps_accuracy,gps_speed,gps_course,pressure,altitude,roll,pitch,yaw
832635.812198,-9.48172797,0.05627997,-2.8759682700000004,0.003198,-0.016351,0.005153,-112.678116,97.222305,-194.933701,60.187684,24.830138,13.556826,11.954291,-1.0,-1.0,100.571983,0.184963,-1.281493,-0.001127,-1.587676
832635.872154,-9.458380170000002,0.04281084,-2.8163921400000005,0.002189,0.001104,0.006369,-112.726715,97.223068,-194.256088,60.187684,24.830138,13.556826,11.954291,-1.0,-1.0,100.571983,0.184963,-1.281517,-0.001142,-1.587656
832635.932111,-9.44700057,0.00958437,-2.7981357300000003,-0.000334,0.005118,0.005986,-112.434235,97.154083,-194.680725,60.187684,24.830138,13.556826,11.954291,-1.0,-1.0,100.571983,0.184963,-1.281512,-0.001126,-1.587636
832635.952097,-9.40164894,-0.0056898,-2.80651347,0.004639,-0.003047,0.002661,-112.277496,97.170715,-194.67485,60.187684,24.830138,13.556826,11.954291,-1.0,-1.0,100.571983,0.184963,-1.28149,-0.00114,-1.587634
832635.972082,-9.430088130000001,0.01886463,-2.81055519,0.007557,-0.001666,0.006634,-112.415695,97.189453,-194.578339,60.187684,24.830138,13.556826,11.954291,-1.0,-1.0,100.571983,0.184963,-1.281496,-0.001137,-1.587664
832635.992068,-9.43487541,-0.00164808,-2.78929692,-0.000322,0.004304,0.004885,-112.539017,97.15625,-194.932526,60.187684,24.830138,13.556826,11.954291,-1.0,-1.0,100.571983,0.184963,-1.281483,-0.001152,-1.58761
832636.012053,-9.41602059,0.00628821,-2.8240243200000004,0.005744,-0.006368,0.00154,-112.564026,97.087784,-194.638382,60.187684,24.830138,13.556826,11.954291,-1.0,-1.0,100.571983,0.184963,-1.281474,-0.001166,-1.587652
832636.032039,-9.43548363,0.024848730000000003,-2.80127493,0.002367,0.003573,0.005002,-112.52002,97.041519,-194.744263,60.187684,24.830138,13.556826,11.954291,-1.0,-1.0,100.571983,0.184963,-1.281489,-0.001171,-1.587668
832636.052024,-9.421259130000001,-0.01257642,-2.78690328,-0.000531,0.000854,0.002605,-112.500946,97.179398,-194.713409,60.187684,24.830138,13.556826,11.954291,-1.0,-1.0,100.571983,0.184963,-1.281465,-0.001189,-1.587633
832636.07201,-9.41212602,-0.00014715,-2.8196883,0.007558,-0.006789,0.004614,-112.47641,97.199753,-194.782974,60.187684,24.830138,13.556826,11.954291,-1.0,-1.0,100.571983,0.184963,-1.281463,-0.001178,-1.587677
832636.091996,-9.44476389,0.01182105,-2.81325294,0.00163,0.006411,0.005702,-112.403183,97.199829,-194.596786,60.187684,24.830138,13.556826,11.954291,-1.0,-1.0,100.571983,0.184963,-1.281479,-0.001159,-1.587656
832636.111981,-9.41931675,0.01047708,-2.78884566,0.005746,-0.003473,0.002816,-112.459854,97.213882,-194.813736,60.187684,24.830138,13.556826,11.954291,-1.0,-1.0,100.571983,0.184963,-1.281445,-0.001173,-1.587631
832636.131967,-9.42425118,0.02634966,-2.82641796,0.003625,-0.003644,0.004267,-112.470825,97.302979,-194.553986,60.187684,24.830138,13.556826,11.954291,-1.0,-1.0,100.571983,0.184963,-1.28145,-0.001192,-1.587653
832636.131967,-9.42425118,0.02634966,-2.82641796,0.003625,-0.003644,0.004267,-112.470825,97.302979,-194.553986,60.187684,24.830138,13.556826,11.954291,-1.0,-1.0,100.571983,0.184963,-1.28145,-0.001192,-1.587653
832636.171938,-9.41033079,0.00373761,-2.80785744,0.00574,-0.008894,0.002794,-112.241821,97.234589,-194.647141,60.187684,24.830138,13.556826,11.954291,-1.0,-1.0,100.571983,0.184963,-1.281426,-0.00121,-1.587645
832636.191924,-9.43668045,0.01107549,-2.81265453,0.002268,0.003046,0.003577,-112.249573,97.197876,-194.867523,60.187684,24.830138,13.556826,11.954291,-1.0,-1.0,100.571983,0.184963,-1.281458,-0.001203,-1.587666
832636.231895,-9.41915979,0.00703377,-2.80785744,0.006837,-0.005858,0.002197,-112.457489,97.355988,-194.830795,60.187684,24.830138,13.556826,11.954291,-1.0,-1.0,100.571983,0.184963,-1.281434,-0.001194,-1.58765
832636.25188,-9.42470244,0.00928026,-2.8163921400000005,-0.001455,0.003863,0.004898,-112.504745,97.203674,-194.794678,60.187684,24.830138,13.556826,11.954291,-1.0,-1.0,100.571983,0.184963,-1.281456,-0.001188,-1.587646
832636.271866,-9.42994098,0.00942741,-2.7906507,0.007483,-0.002303,0.004626,-112.466187,97.352707,-194.879242,60.187684,24.830138,13.556826,11.954291,-1.0,-1.0,100.571983,0.184963,-1.281451,-0.00119,-1.587644
832636.291851,-9.4223088,-0.008829,-2.80756314,0.004528,-0.003343,0.002873,-112.389984,97.156052,-194.733856,60.187684,24.830138,13.556826,11.954291,-1.0,-1.0,100.571983,0.184963,-1.281445,-0.001187,-1.587654
832636.311837,-9.41871834,0.00748503,-2.7981357300000003,1.4e-05,0.005749,0.003164,-112.560867,97.107071,-194.503571,60.187684,24.830138,13.556826,11.954291,-1.0,-1.0,100.571983,0.184963,-1.28145,-0.001183,-1.587649
832636.331823,-9.42694893,0.02095416,-2.79244593,0.009523,-0.007294,0.00273,-112.441589,97.17215,-194.451004,60.187684,24.830138,13.556826,11.954291,-1.0,-1.0,100.571983,0.184963,-1.281423,-0.001174,-1.587655
832636.351808,-9.44221329,0.01002582,-2.8291157100000004,0.001017,0.004391,0.004765,-112.502075,97.076599,-194.547348,60.187684,24.830138,13.556826,11.954291,-1.0,-1.0,100.571983,0.184963,-1.281433,-0.001155,-1.587668
832636.371794,-9.433835550000001,0.0056898,-2.79993096,0.002375,0.000676,0.004456,-112.440353,97.105164,-194.544876,60.187684,24.830138,13.556826,11.954291,-1.0,-1.0,100.571983,0.184963,-1.281436,-0.001152,-1.587643
832636.391779,-9.4194639,-0.00179523,-2.80142208,0.008434,-0.005318,0.002877,-112.28688,97.238449,-194.534897,60.187684,24.830138,13.556826,11.954291,-1.0,-1.0,100.571983,0.184963,-1.281432,-0.001152,-1.587658
832636.411765,-9.42200469,0.00942741,-2.8101039300000004,-0.001418,0.003711,0.005178,-112.210495,96.856155,-193.996017,60.187684,24.830138,13.556826,11.954291,-1.0,-1.0,100.571983,0.184963,-1.281456,-0.001143,-1.587642
832636.431751,-9.41856138,0.01122264,-2.79513387,0.007445,-0.003167,0.004032,-112.426071,96.960526,-194.451004,60.187684,24.830138,13.556826,11.954291,-1.0,-1.0,100.571983,0.184963,-1.281458,-0.001144,-1.587638
832636.431751,-9.41856138,0.01122264,-2.79513387,0.007445,-0.003167,0.004032,-112.426071,96.960526,-194.451004,60.187684,24.830138,13.556826,11.954291,-1.0,-1.0,100.571983,0.184963,-1.281458,-0.001144,-1.587638
832636.471723,-9.429636870000001,0.017363700000000003,-2.80606221,0.000848,0.005533,0.004112,-112.376175,96.972076,-194.623947,60.187684,24.830138,13.556826,11.954291,-1.0,-1.0,100.571983,0.184963,-1.281488,-0.001138,-1.587645
832636.491708,-9.433080180000001,0.00373761,-2.8051695,0.008352,-0.006567,0.00359,-112.397751,96.910202,-194.768799,60.187684,24.830138,13.556826,11.954291,-1.0,-1.0,100.571983,0.184963,-1.281468,-0.00112,-1.587647
832636.511694,-9.4311378,-0.00777933,-2.8062191700000003,0.000797,0.004659,0.002797,-112.601471,96.912048,-194.355942,60.187684,24.830138,13.556826,11.954291,-1.0,-1.0,100.571983,0.184963,-1.281466,-0.001116,-1.587655
832636.531679,-9.42754734,-0.00194238,-2.8116048600000005,0.002357,-0.001021,0.003859,-112.529053,96.929489,-194.662811,60.187684,24.830138,13.556826,11.954291,-1.0,-1.0,100.571983,0.184963,-1.281462,-0.001114,-1.587645
832636.551665,-9.429195420000001,0.00643536,-2.8168434,0.006494,-0.005289,0.003564,-112.596191,96.932281,-194.450302,60.187684,24.830138,13.556826,11.954291,-1.0,-1.0,100.571983,0.184963,-1.28146,-0.001127,-1.587663
832636.57165,-9.42994098,0.00973152,-2.8009708200000003,-0.002327,0.005163,0.00388,-112.516327,96.854156,-194.530075,60.187684,24.830138,13.556826,11.954291,-1.0,-1.0,100.571983,0.184963,-1.281476,-0.001123,-1.587643
832636.591636,-9.42245595,-0.0009025200000000001,-2.80725903,0.00759,-0.004234,0.005782,-112.432068,96.986618,-194.378326,60.187684,24.830138,13.556826,11.954291,-1.0,-1.0,100.571983,0.184963,-1.281472,-0.001124,-1.587636
832636.611622,-9.42559515,0.02170953,-2.80785744,0.003497,-0.000409,0.003257,-112.432358,96.959824,-194.676239,60.187684,24.830138,13.556826,11.954291,-1.0,-1.0,100.571983,0.184963,-1.281475,-0.001133,-1.587651
832636.631607,-9.405837810000001,-0.015568470000000001,-2.81653929,-0.00049,0.006284,0.001765,-112.463745,96.973541,-194.703995,60.187684,24.830138,13.556826,11.954291,-1.0,-1.0,100.571983,0.184963,-1.281498,-0.001163,-1.587617
832636.651593,-9.393271200000001,0.09116433,-2.79633069,-0.00049,0.006284,0.001765,-112.453873,97.045502,-194.373322,60.187684,24.830138,13.556826,11.954291,-1.0,-1.0,100.571983,0.184963,-1.28149,-0.001144,-1.587605
832636.671578,-9.548190720000001,-0.3005784,-2.6195544900000005,-0.0197,0.014506,-0.01038,-112.566345,97.064514,-194.388596,60.187684,24.830138,13.556826,11.954291,-1.0,-1.0,100.571983,0.184963,-1.281579,-0.001186,-1.587659
832636.691564,-9.15286734,0.10628154000000001,-2.77508223,7e-06,0.007034,0.023037,-112.434616,97.101974,-194.562515,60.187684,24.830138,13.556826,11.954291,-1.0,-1.0,100.571983,0.184963,-1.281545,-0.001068,-1.587741
832636.71155,-9.64669293,0.07993188000000001,-2.86429437,0.003608,-0.007301,-0.002102,-112.565338,97.003067,-194.804062,60.187684,24.830138,13.556826,11.954291,-1.0,-1.0,100.571983,0.184963,-1.281515,-0.001178,-1.587615
832636.731535,-9.374102460000001,-0.08248248000000001,-2.79364275,-0.008925,0.007491,-0.000687,-112.571121,96.925842,-194.819092,60.187684,24.830138,13.556826,11.954291,-1.0,-1.0,100.571983,0.184963,-1.281454,-0.001167,-1.587617
832636.731535,-9.374102460000001,-0.08248248000000001,-2.79364275,-0.008925,0.007491,-0.000687,-112.571121,96.925842,-194.819092,60.187684,24.830138,13.556826,11.954291,-1.0,-1.0,100.571983,0.184963,-1.281454,-0.001167,-1.587617
832636.771506,-9.533828880000002,0.09729558,-2.8451354400000004,0.002503,-0.006077,0.001517,-112.535583,96.959198,-194.609375,60.187684,24.830138,13.556826,11.954291,-1.0,-1.0,100.571983,0.184963,-1.281511,-0.00118,-1.587782
832636.791492,-9.35135307,0.08053028999999999,-2.8086128100000005,0.005957,0.001825,0.010982,-112.629425,96.885132,-194.487991,60.187684,24.830138,13.556826,11.954291,-1.0,-1.0,100.571342,0.240452,-1.281581,-0.001183,-1.587736
832636.811478,-9.47320308,-0.02634966,-2.83255902,0.016987,-0.007393,0.004628,-112.51326,96.940369,-194.610718,60.187684,24.830138,13.556826,11.954291,-1.0,-1.0,100.571342,0.240452,-1.281642,-0.001236,-1.587608
832636.831463,-9.46242189,-0.04685256,-2.74873257,0.00079,0.004003,0.005606,-112.545547,97.01535,-194.696411,60.187684,24.830138,13.556826,11.954291,-1.0,-1.0,100.571342,0.240452,-1.281664,-0.001238,-1.58747
832636.851449,-9.39566484,0.0056898,-2.8851013800000005,0.002938,-0.004555,0.006274,-112.641968,96.85347,-194.653076,60.187684,24.830138,13.556826,11.954291,-1.0,-1.0,100.571342,0.240452,-1.281658,-0.001239,-1.587497
832636.871434,-9.49430439,0.08562168,-2.8074159900000004,0.003146,-0.002019,0.002146,-112.531815,97.008255,-194.553131,60.187684,24.830138,13.556826,11.954291,-1.0,-1.0,100.571342,0.240452,-1.281617,-0.001279,-1.587492
832636.911405,-9.32380659,-0.023504760000000003,-2.9168367300000004,0.013652,-0.004234,0.005566,-112.558304,97.043442,-194.735352,60.187684,24.830138,13.556826,11.954291,-1.0,-1.0,100.571342,0.240452,-1.281534,-0.001125,-1.587664
832636.931391,-9.462127590000001,-0.01092834,-2.7713348100000004,0.010042,0.002594,0.009949,-112.489334,96.956833,-194.817535,60.187684,24.830138,13.556826,11.954291,-1.0,-1.0,100.571342,0.240452,-1.281573,-0.00118,-1.58751
832636.951377,-9.47080944,0.043860510000000005,-2.7369115200000005,-0.006437,-0.001572,0.000821,-112.4673,96.872147,-194.67308,60.187684,24.830138,13.556826,11.954291,-1.0,-1.0,100.571342,0.240452,-1.281555,-0.001206,-1.587447
832636.971362,-9.39490947,0.016765290000000002,-2.85111954,0.01229,-0.001239,0.006405,-112.644028,96.858612,-194.780975,60.187684,24.830138,13.556826,11.954291,-1.0,-1.0,100.571342,0.240452,-1.281558,-0.001177,-1.587564
832636.991348,-9.41018364,-0.031136940000000002,-2.790945,0.003617,0.001149,0.007484,-112.699707,96.736206,-194.862076,60.187684,24.830138,13.556826,11.954291,-1.0,-1.0,100.571342,0.240452,-1.281544,-0.00123,-1.587465
832637.011333,-9.461970630000001,0.008377740000000002,-2.75277429,-0.000952,-0.002736,-0.000294,-112.592957,96.880951,-194.63649,60.187684,24.830138,13.556826,11.954291,-1.0,-1.0,100.571342,0.240452,-1.281582,-0.001225,-1.587455
832637.031319,-9.45763461,0.03322647,-2.82777174,0.009906,0.001864,0.00652,-112.833176,96.729065,-194.707855,60.187684,24.830138,13.556826,11.954291,-1.0,-1.0,100.571342,0.240452,-1.281561,-0.001193,-1.587561
832637.031319,-9.45763461,0.03322647,-2.82777174,0.009906,0.001864,0.00652,-112.833176,96.729065,-194.707855,60.187684,24.830138,13.556826,11.954291,-1.0,-1.0,100.571342,0.240452,-1.281561,-0.001193,-1.587561
832637.031319,-9.45763461,0.03322647,-2.82777174,0.009906,0.001864,0.00652,-112.833176,96.729065,-194.707855,60.187684,24.830138,13.556826,11.954291,-1.0,-1.0,100.571342,0.240452,-1.281561,-0.001193,-1.587561
832637.07129,-9.47589102,0.039965940000000005,-2.76040647,0.005002,-0.006807,0.000997,-112.733917,96.733749,-194.475693,60.187684,24.830138,13.556826,11.954291,-1.0,-1.0,100.571342,0.240452,-1.281582,-0.001208,-1.587517
832637.111261,-9.37710432,-0.19968255000000001,-2.85456285,0.004364,-0.002018,0.00594,-112.623962,97.008011,-194.938339,60.187684,24.830138,13.556826,11.954291,-1.0,-1.0,100.571342,0.240452,-1.281664,-0.00126,-1.587446
832637.131247,-9.541009800000001,0.01946304,-2.7952908300000003,0.017873,0.012624,0.002589,-112.657547,96.868408,-194.679489,60.187684,24.830138,13.556826,11.954291,-1.0,-1.0,100.571342,0.240452,-1.281818,-0.001233,-1.587481
832637.151233,-9.505379880000001,0.210915,-2.6867628000000003,0.004517,0.00688,0.006395,-112.745605,96.844803,-194.872238,60.187684,24.830138,13.556826,11.954291,-1.0,-1.0,100.571342,0.240452,-1.281651,-0.001177,-1.587346
832637.171218,-9.31662567,0.17633475,-2.85831027,0.003969,-0.000349,0.00307,-112.759033,96.612503,-194.919205,60.187684,24.830138,13.556826,11.954291,-1.0,-1.0,100.571342,0.240452,-1.281393,-0.001163,-1.587323
832637.171218,-9.31662567,0.17633475,-2.85831027,0.003969,-0.000349,0.00307,-112.759033,96.612503,-194.919205,60.187684,24.830138,13.556826,11.954291,-1.0,-1.0,100.571342,0.240452,-1.281393,-0.001163,-1.587323
832637.211189,-9.556431120000001,-0.01946304,-2.74319973,0.012766,0.00535,0.015738,-112.656158,96.78215,-194.939682,60.187684,24.830138,13.556826,11.954291,-1.0,-1.0,100.571342,0.240452,-1.281545,-0.001213,-1.587031
832637.231175,-9.37694736,-0.10942074000000002,-2.77058925,-0.003363,-0.008876,-0.005135,-112.532654,97.025803,-194.94545,60.187684,24.830138,13.556826,11.954291,-1.0,-1.0,100.571342,0.240452,-1.281488,-0.001267,-1.586891
832637.251161,-9.377545770000001,0.016461180000000002,-2.83660074,-0.005047,-0.006645,0.001793,-112.467041,96.997543,-194.519913,60.187684,24.830138,13.556826,11.954291,-1.0,-1.0,100.571342,0.240452,-1.281653,-0.001206,-1.587186
832637.271146,-9.513169020000001,0.09295956000000001,-2.76968673,0.008913,0.008116,0.013329,-112.667038,96.728729,-194.576813,60.187684,24.830138,13.556826,11.954291,-1.0,-1.0,100.571342,0.240452,-1.281702,-0.001258,-1.587197
832637.291132,-9.47170215,0.04955031,-2.73930516,0.001094,0.004051,6.1e-05,-112.59935,96.921738,-194.513107,60.187684,24.830138,13.556826,11.954291,-1.0,-1.0,100.571342,0.240452,-1.281508,-0.00132,-1.587113
832637.311117,-9.286538400000001,-0.02798793,-2.82342591,-0.005184,-0.001448,0.002644,-112.740463,96.81189,-194.314819,60.187684,24.830138,13.556826,11.954291,-1.0,-1.0,100.571342,0.240452,-1.281435,-0.001296,-1.587265
832637.331103,-9.437573160000001,-0.01542132,-2.8475290800000006,-0.004609,-0.004127,0.000611,-112.975342,96.760742,-194.727936,60.187684,24.830138,13.556826,11.954291,-1.0,-1.0,100.571342,0.240452,-1.281525,-0.00132,-1.587447
832637.331103,-9.437573160000001,-0.01542132,-2.8475290800000006,-0.004609,-0.004127,0.000611,-112.975342,96.760742,-194.727936,60.187684,24.830138,13.556826,11.954291,-1.0,-1.0,100.571342,0.240452,-1.281525,-0.00132,-1.587447
832637.371074,-9.30689415,-0.08322804,-2.89692243,0.009596,0.002467,0.017776,-112.741211,96.778,-194.599792,60.187684,24.830138,13.556826,11.954291,-1.0,-1.0,100.571342,0.240452,-1.281513,-0.001438,-1.587471
832637.39106,-9.190890900000001,-0.0022464900000000003,-2.97670716,0.02423,-0.020669,0.031531,-113.042023,96.584824,-194.710129,60.187684,24.830138,13.556826,11.954291,-1.0,-1.0,100.571342,0.240452,-1.281591,-0.001622,-1.587239
832637.411045,-9.5378706,0.10463346000000001,-2.97371511,0.04341,-0.026073,0.026174,-112.889648,96.529144,-194.500702,60.187684,24.830138,13.556826,11.954291,-1.0,-1.0,100.571342,0.240452,-1.2821,-0.001957,-1.586639
832637.431031,-9.446559120000002,0.052542359999999996,-2.89916892,0.043074,-0.04115,0.029163,-112.586288,96.67804,-194.669556,60.187684,24.830138,13.556826,11.954291,-1.0,-1.0,100.571342,0.240452,-1.282764,-0.002253,-1.585708
832637.451017,-9.138495690000001,0.0028449,-2.95201539,0.019583,-0.092368,0.019349,-112.361786,96.801605,-194.456558,60.187684,24.830138,13.556826,11.954291,-1.0,-1.0,100.571342,0.240452,-1.283844,-0.002481,-1.584928
832637.471002,-9.49221486,0.11975067000000002,-2.9056042800000004,0.024499,-0.124222,0.021264,-112.540894,96.681335,-194.819382,60.187684,24.830138,13.556826,11.954291,-1.0,-1.0,100.571342,0.240452,-1.285669,-0.002625,-1.584508
832637.490988,-9.30809097,-0.053739180000000004,-2.8834533,0.000243,-0.180894,0.015649,-112.517517,96.785583,-194.601318,60.187684,24.830138,13.556826,11.954291,-1.0,-1.0,100.571342,0.240452,-1.288389,-0.00288,-1.584058
832637.510973,-9.21289473,-0.23291883000000002,-2.8193841900000005,-0.041667,-0.244381,-0.004776,-112.800735,96.665726,-194.287674,60.187684,24.830138,13.556826,11.954291,-1.0,-1.0,100.571342,0.240452,-1.292345,-0.003059,-1.584313
832637.530959,-9.345212010000001,-0.049697460000000006,-3.0139851600000003,-0.061511,-0.336488,-0.017012,-112.866913,96.743271,-194.410355,60.187684,24.830138,13.556826,11.954291,-1.0,-1.0,100.571342,0.240452,-1.29768,-0.003178,-1.585309
832637.550945,-9.01904913,-0.05463189,-2.98074888,-0.113216,-0.448654,-0.022087,-113.160568,96.637192,-193.918549,60.187684,24.830138,13.556826,11.954291,-1.0,-1.0,100.571342,0.240452,-1.305077,-0.003116,-1.586886
832637.57093,-9.25585272,0.16630893,-2.74918383,-0.074464,-0.514705,0.000137,-113.39505,96.660172,-193.768005,60.187684,24.830138,13.556826,11.954291,-1.0,-1.0,100.571342,0.240452,-1.314517,-0.003428,-1.588949
832637.590916,-8.96111127,-0.14654178,-2.9918243700000002,-0.081162,-0.569876,-0.002879,-113.771362,96.691391,-193.629883,60.187684,24.830138,13.556826,11.954291,-1.0,-1.0,100.571342,0.240452,-1.325339,-0.003879,-1.590573
832637.610901,-9.23354478,0.14429529,-2.85561252,-0.019555,-0.672649,0.024172,-113.792419,97.151123,-193.124329,60.187684,24.830138,13.556826,11.954291,-1.0,-1.0,100.571342,0.240452,-1.337429,-0.004264,-1.591917
832637.630887,-9.078919560000001,-0.20118348,-2.95350651,0.010208,-0.741616,0.035042,-114.143982,97.309875,-192.349304,60.187684,24.830138,13.556826,11.954291,-1.0,-1.0,100.571342,0.240452,-1.35119,-0.004801,-1.592121
832637.630887,-9.078919560000001,-0.20118348,-2.95350651,0.010208,-0.741616,0.035042,-114.143982,97.309875,-192.349304,60.187684,24.830138,13.556826,11.954291,-1.0,-1.0,100.571342,0.240452,-1.35119,-0.004801,-1.592121
832637.690844,-9.158704290000001,-0.05718249,-2.09040309,-0.029944,-1.015729,0.035,-116.599487,100.286087,-189.805771,60.187684,24.830138,13.556826,11.954291,-1.0,-1.0,100.571342,0.240452,-1.400631,-0.006886,-1.597937
832637.71083,-9.39970656,-0.02754648,-1.7595902700000001,-0.060027,-1.088439,0.030113,-118.940811,101.134933,-189.131104,60.187684,24.830138,13.556826,11.954291,-1.0,-1.0,100.571342,0.240452,-1.421422,-0.00762,-1.603231
832637.730815,-9.58561587,-0.05912487,-1.3867121700000002,-0.062102,-1.125032,0.027496,-121.78804,101.356308,-188.985886,60.187684,24.830138,13.556826,11.954291,-1.0,-1.0,100.571342,0.240452,-1.443194,-0.00829,-1.604454
832637.750801,-9.27575721,0.09295956000000001,-1.75165398,-0.041951,-1.223748,0.035239,-123.479614,100.692368,-188.574158,60.187684,24.830138,13.556826,11.954291,-1.0,-1.0,100.571342,0.240452,-1.466073,-0.008938,-1.605585
832637.770786,-9.35464923,0.13187583,-1.3527401399999999,-0.026819,-1.313152,0.039368,-124.089157,99.504456,-188.456436,60.187684,24.830138,13.556826,11.954291,-1.0,-1.0,100.571342,0.240452,-1.491081,-0.009661,-1.606294
832637.790772,-9.55852065,0.20671632,-0.59650686,-0.017051,-1.322901,0.048519,-124.037354,98.264328,-188.331406,60.187684,24.830138,13.556826,11.954291,-1.0,-1.0,100.571342,0.240452,-1.517453,-0.010492,-1.6068
832637.790772,-9.55852065,0.20671632,-0.59650686,-0.017051,-1.322901,0.048519,-124.037354,98.264328,-188.331406,60.187684,24.830138,13.556826,11.954291,-1.0,-1.0,100.571342,0.240452,-1.517453,-0.010492,-1.6068
832637.830743,-9.54864198,0.60399189,-0.33634566,0.007337,-1.372662,0.079886,-122.876999,97.828842,-186.053009,60.187684,24.830138,13.556826,11.954291,-1.0,-1.0,100.571342,0.240452,-1.57045,-0.012381,-1.607245
832637.850729,-11.630961630000002,1.5024211200000002,0.8978308200000001,0.164087,-0.868242,0.346916,-122.920288,98.305695,-185.271469,60.187684,24.830138,13.556826,11.954291,-1.0,-1.0,100.571342,0.240452,-1.59675,-0.015691,-1.606588
832637.870714,-11.84381901,0.2803698,1.6854953400000001,0.161161,-0.755665,0.069593,-122.589111,98.619049,-184.732803,60.187684,24.830138,13.556826,11.954291,-1.0,-1.0,100.570572,0.303867,-1.615313,-0.018605,-1.604489
832637.870714,-11.84381901,0.2803698,1.6854953400000001,0.161161,-0.755665,0.069593,-122.589111,98.619049,-184.732803,60.187684,24.830138,13.556826,11.954291,-1.0,-1.0,100.570572,0.303867,-1.615313,-0.018605,-1.604489
832637.910686,-10.48284828,0.21046374,0.4770603,0.150124,-0.579675,0.054498,-122.410736,98.581314,-184.085144,60.187684,24.830138,13.556826,11.954291,-1.0,-1.0,100.570572,0.303867,-1.643476,-0.021413,-1.598503
832637.930671,-10.49781834,0.48634056000000003,1.0135397700000002,0.139221,-0.531623,-0.00309,-121.956772,98.80246,-183.246857,60.187684,24.830138,13.556826,11.954291,-1.0,-1.0,100.570572,0.303867,-1.654331,-0.022465,-1.595515
832637.930671,-10.49781834,0.48634056000000003,1.0135397700000002,0.139221,-0.531623,-0.00309,-121.956772,98.80246,-183.246857,60.187684,24.830138,13.556826,11.954291,-1.0,-1.0,100.570572,0.303867,-1.654331,-0.022465,-1.595515
832637.970643,-9.643691070000001,-0.01601973,1.20154842,0.031986,-0.532022,0.003341,-120.632553,99.609314,-181.67804,60.187684,24.830138,13.556826,11.954291,-1.0,-1.0,100.570572,0.303867,-1.674412,-0.022549,-1.591557
832637.990628,-9.66749994,-0.25476570000000004,1.13988276,-0.016674,-0.592794,0.018741,-121.26149,99.291046,-181.178619,60.187684,24.830138,13.556826,11.954291,-1.0,-1.0,100.570572,0.303867,-1.685113,-0.022747,-1.59132
832638.010614,-9.60088023,-0.19938825000000002,1.1425707,-0.045051,-0.636936,0.034589,-121.649399,98.957779,-180.960236,60.187684,24.830138,13.556826,11.954291,-1.0,-1.0,100.570572,0.303867,-1.696849,-0.023078,-1.591836
832638.030599,-9.707917140000001,-0.00404172,1.16413308,-0.045472,-0.693629,0.0282,-122.447571,98.797882,-180.848251,60.187684,24.830138,13.556826,11.954291,-1.0,-1.0,100.570572,0.303867,-1.709598,-0.023512,-1.592841
832638.050585,-9.75011976,0.07424208,0.9668441700000001,-0.046807,-0.746118,0.028399,-124.329315,98.477982,-180.945633,60.187684,24.830138,13.556826,11.954291,-1.0,-1.0,100.570572,0.303867,-1.723441,-0.023882,-1.59386
832638.070571,-9.652225770000001,0.24773193000000002,1.2394248300000001,-0.051379,-0.814232,0.018955,-126.230835,98.691025,-180.647003,60.187684,24.830138,13.556826,11.954291,-1.0,-1.0,100.570572,0.303867,-1.738533,-0.024127,-1.594879
832638.090556,-9.6136038,0.29907747,1.3349251800000002,-0.059703,-0.884307,0.03161,-127.631226,99.777634,-179.162033,60.187684,24.830138,13.556826,11.954291,-1.0,-1.0,100.570572,0.303867,-1.755067,-0.024301,-1.596106
832638.110542,-9.60971904,0.31030011,1.36186344,-0.053951,-0.971657,0.035521,-128.006134,101.268356,-178.01416,60.187684,24.830138,13.556826,11.954291,-1.0,-1.0,100.570572,0.303867,-1.773192,-0.024624,-1.597417
832638.130528,-9.51900597,0.24249339000000003,1.56005487,-0.031262,-1.048312,0.029147,-127.660995,102.289841,-175.992249,60.187684,24.830138,13.556826,11.954291,-1.0,-1.0,100.570572,0.303867,-1.793012,-0.025,-1.598559
832638.150513,-9.44550945,0.19938825000000002,1.8519514200000002,-0.015094,-1.082753,0.025322,-126.471893,102.648666,-174.237244,60.187684,24.830138,13.556826,11.954291,-1.0,-1.0,100.570572,0.303867,-1.814174,-0.025321,-1.599256
832638.170499,-9.42290721,0.24189498,2.29113531,0.002503,-1.094911,0.01313,-124.528931,102.469757,-172.664917,60.187684,24.830138,13.556826,11.954291,-1.0,-1.0,100.570572,0.303867,-1.835897,-0.025654,-1.59963
832638.190484,-9.2777094,0.25611948,2.3185248300000003,0.029861,-1.166901,-0.007651,-122.764084,101.88298,-171.923889,60.187684,24.830138,13.556826,11.954291,-1.0,-1.0,100.570572,0.303867,-1.858071,-0.025824,-1.599554
832638.21047,-9.89726976,0.36568737,2.48228316,0.092709,-1.107808,0.107908,-122.123459,100.574478,-171.28624,60.187684,24.830138,13.556826,11.954291,-1.0,-1.0,100.570572,0.303867,-1.880685,-0.026488,-1.598774
832638.230456,-9.66315411,-0.49038228,3.6536069700000002,0.061394,-1.170549,-0.046847,-122.330963,99.867279,-170.648987,60.187684,24.830138,13.556826,11.954291,-1.0,-1.0,100.570572,0.303867,-1.903745,-0.028255,-1.597755
832638.230456,-9.66315411,-0.49038228,3.6536069700000002,0.061394,-1.170549,-0.046847,-122.330963,99.867279,-170.648987,60.187684,24.830138,13.556826,11.954291,-1.0,-1.0,100.570572,0.303867,-1.903745,-0.028255,-1.597755
832638.270427,-9.75671208,0.033383430000000006,4.04698797,-0.014993,-1.144574,-0.04074,-125.867737,98.754333,-169.728897,60.187684,24.830138,13.556826,11.954291,-1.0,-1.0,100.570572,0.303867,-1.950729,-0.028382,-1.59723
832638.290413,-8.721315630000001,0.45714600000000005,3.7510497000000003,-0.027935,-1.087937,0.076793,-129.232117,99.169113,-169.290802,60.187684,24.830138,13.556826,11.954291,-1.0,-1.0,100.570572,0.303867,-1.974092,-0.028212,-1.597952
832638.310398,-9.126968940000001,0.7493368499999999,3.8637666,0.032275,-1.108793,-0.019902,-130.535095,100.364517,-167.223663,60.187684,24.830138,13.556826,11.954291,-1.0,-1.0,100.570572,0.303867,-1.996713,-0.028525,-1.598364
832638.330384,-8.56743597,1.3641099300000001,3.81646278,0.101807,-1.069435,-0.004094,-130.209641,100.918549,-165.545868,60.187684,24.830138,13.556826,11.954291,-1.0,-1.0,100.570572,0.303867,-2.018296,-0.029169,-1.597262
832638.330384,-8.56743597,1.3641099300000001,3.81646278,0.101807,-1.069435,-0.004094,-130.209641,100.918549,-165.545868,60.187684,24.830138,13.556826,11.954291,-1.0,-1.0,100.570572,0.303867,-2.018296,-0.029169,-1.597262
832638.370355,-8.40875922,0.89393625,3.99818322,0.223212,-0.994648,-0.029104,-129.158401,100.926239,-164.12204,60.187684,24.830138,13.556826,11.954291,-1.0,-1.0,100.570572,0.303867,-2.059064,-0.031244,-1.591003
832638.390341,-8.788671090000001,0.48229884,4.57672797,0.240368,-0.94184,-0.024074,-128.892242,99.997116,-163.841309,60.187684,24.830138,13.556826,11.954291,-1.0,-1.0,100.570572,0.303867,-2.078449,-0.032767,-1.586755
832638.430311,-8.50126752,-0.29278926000000005,5.56887213,0.163705,-1.031723,0.009183,-125.228546,98.871475,-162.143021,60.187684,24.830138,13.556826,11.954291,-1.0,-1.0,100.570572,0.303867,-2.11738,-0.036375,-1.57866
832638.450297,-8.2626687,-0.16495515000000002,4.86952704,0.125074,-1.124569,0.056692,-125.03334,98.801193,-160.972305,60.187684,24.830138,13.556826,11.954291,-1.0,-1.0,100.570572,0.303867,-2.138955,-0.038137,-1.576325
832638.450297,-8.2626687,-0.16495515000000002,4.86952704,0.125074,-1.124569,0.056692,-125.03334,98.801193,-160.972305,60.187684,24.830138,13.556826,11.954291,-1.0,-1.0,100.570572,0.303867,-2.138955,-0.038137,-1.576325
832638.490268,-8.00894286,0.76311009,5.01592167,0.078216,-1.33902,0.056021,-124.08284,99.104431,-158.69487,60.187684,24.830138,13.556826,11.954291,-1.0,-1.0,100.570572,0.303867,-2.187277,-0.041713,-1.574113
832638.510254,-7.6133153700000005,0.32811507,5.32053198,0.07833,-1.441342,0.058392,-123.68631,99.148102,-156.866638,60.187684,24.830138,13.556826,11.954291,-1.0,-1.0,100.570572,0.303867,-2.214613,-0.043346,-1.573508
832638.530239,-7.560027450000001,0.26255484,5.6248578,0.093926,-1.473582,0.078688,-123.171539,99.172775,-155.487946,60.187684,24.830138,13.556826,11.954291,-1.0,-1.0,100.570572,0.303867,-2.243537,-0.04526,-1.57302
832638.530239,-7.560027450000001,0.26255484,5.6248578,0.093926,-1.473582,0.078688,-123.171539,99.172775,-155.487946,60.187684,24.830138,13.556826,11.954291,-1.0,-1.0,100.570572,0.303867,-2.243537,-0.04526,-1.57302
832638.530239,-7.560027450000001,0.26255484,5.6248578,0.093926,-1.473582,0.078688,-123.171539,99.172775,-155.487946,60.187684,24.830138,13.556826,11.954291,-1.0,-1.0,100.570572,0.303867,-2.243537,-0.04526,-1.57302
832638.590196,-6.73763553,0.5174775,6.78524346,0.1538,-1.407228,0.06895,-121.826721,99.669601,-151.186981,60.187684,24.830138,13.556826,11.954291,-1.0,-1.0,100.570572,0.303867,-2.330776,-0.053099,-1.569882
832638.610182,-6.70785237,0.46718163,7.07069484,0.169198,-1.405139,0.056878,-121.001343,100.017136,-150.169647,60.187684,24.830138,13.556826,11.954291,-1.0,-1.0,100.570572,0.303867,-2.358724,-0.056132,-1.568503
832638.610182,-6.70785237,0.46718163,7.07069484,0.169198,-1.405139,0.056878,-121.001343,100.017136,-150.169647,60.187684,24.830138,13.556826,11.954291,-1.0,-1.0,100.570572,0.303867,-2.358724,-0.056132,-1.568503
832638.650153,-6.49439658,0.81610371,7.106471910000001,0.227628,-1.365572,0.014667,-120.397064,100.165359,-149.09288,60.187684,24.830138,13.556826,11.954291,-1.0,-1.0,100.570572,0.303867,-2.413831,-0.062968,-1.564729
832638.670139,-6.1447191299999995,0.77298876,7.19538975,0.252972,-1.34156,0.044095,-119.707062,100.656815,-147.7052,60.187684,24.830138,13.556826,11.954291,-1.0,-1.0,100.570572,0.303867,-2.440851,-0.066661,-1.561998
832638.690125,-5.805224460000001,0.43035489,7.418871360000001,0.246758,-1.378768,0.067353,-118.888718,100.828979,-146.509506,60.187684,24.830138,13.556826,11.954291,-1.0,-1.0,100.570572,0.303867,-2.467693,-0.071089,-1.559572
832638.710111,-5.200781310000001,0.33889626,7.556132880000001,0.230014,-1.479629,0.132948,-118.128998,101.143417,-145.336807,60.187684,24.830138,13.556826,11.954291,-1.0,-1.0,100.570572,0.303867,-2.495693,-0.075792,-1.557835
832638.730096,-5.270236110000001,0.6514428600000001,7.47395451,0.233818,-1.543191,0.204007,-117.157303,101.62912,-144.070435,60.187684,24.830138,13.556826,11.954291,-1.0,-1.0,100.570572,0.303867,-2.525599,-0.081285,-1.557577
832638.750082,-5.3133510600000005,0.7695454500000001,7.64595324,0.238827,-1.627516,0.186492,-116.342041,102.065475,-142.53334,60.187684,24.830138,13.556826,11.954291,-1.0,-1.0,100.570572,0.303867,-2.556871,-0.08731,-1.558268
832638.770068,-5.05574046,1.015335,8.03603808,0.243102,-1.699833,0.179536,-115.356705,102.592255,-141.258759,60.187684,24.830138,13.556826,11.954291,-1.0,-1.0,100.570572,0.303867,-2.589708,-0.093274,-1.558762
832638.790053,-5.13148347,0.9174410100000001,7.82961606,0.256078,-1.744597,0.144644,-114.512115,103.251923,-139.769684,60.187684,24.830138,13.556826,11.954291,-1.0,-1.0,100.570572,0.303867,-2.623907,-0.099143,-1.559076
832638.810039,-4.01090679,0.9225324,8.354578590000001,0.2485,-1.818689,0.184736,-113.723267,103.51358,-138.539276,60.187684,24.830138,13.556826,11.954291,-1.0,-1.0,100.570572,0.303867,-2.659485,-0.104943,-1.559366
832638.830025,-4.04983287,1.1091970800000002,8.85902841,0.226781,-1.830138,0.177091,-113.025116,103.757492,-137.42366,60.187684,24.830138,13.556826,11.954291,-1.0,-1.0,100.570572,0.303867,-2.696207,-0.110824,-1.560456
832638.830025,-4.04983287,1.1091970800000002,8.85902841,0.226781,-1.830138,0.177091,-113.025116,103.757492,-137.42366,60.187684,24.830138,13.556826,11.954291,-1.0,-1.0,100.570572,0.303867,-2.696207,-0.110824,-1.560456
832638.869996,-3.5341506000000003,1.0517104800000001,9.35809254,0.121855,-1.858424,0.110848,-112.856339,104.253143,-135.638565,60.187684,24.830138,13.556826,11.954291,-1.0,-1.0,100.570572,0.303867,-2.770116,-0.119827,-1.562764
832638.889982,-2.9606972400000005,1.21247676,9.56930184,0.068789,-1.839528,0.126236,-113.19725,105.005524,-134.602158,60.187684,24.830138,13.556826,11.954291,-1.0,-1.0,100.570572,0.303867,-2.807176,-0.122532,-1.564028
832638.909967,-1.84640877,1.46589849,9.69878403,0.005474,-1.760695,0.229211,-112.883652,105.903885,-133.486069,60.187684,24.830138,13.556826,11.954291,-1.0,-1.0,100.570572,0.303867,-2.843802,-0.124496,-1.566499
832638.929953,-2.3336518500000003,1.15844328,10.35097245,-0.067913,-1.691543,0.237017,-111.957596,106.078186,-131.975922,60.187684,24.830138,13.556826,11.954291,-1.0,-1.0,100.569893,0.362,-2.879402,-0.125331,-1.571079
832638.949939,-1.8064428300000002,1.1883834,10.176442740000002,-0.138943,-1.597791,0.258785,-110.576859,106.265274,-131.137009,60.187684,24.830138,13.556826,11.954291,-1.0,-1.0,100.569893,0.362,-2.913689,-0.124733,-1.576154
832638.969925,-1.8588380400000002,1.50422616,9.998312760000001,-0.123234,-1.456582,0.290232,-109.486725,106.221512,-129.745377,60.187684,24.830138,13.556826,11.954291,-1.0,-1.0,100.569893,0.362,-2.945831,-0.123027,-1.581929
832638.98991,-1.8735039900000001,1.5989711400000002,9.94472073,-0.10712,-1.265667,0.326681,-107.509232,105.829422,-128.863068,60.187684,24.830138,13.556826,11.954291,-1.0,-1.0,100.569893,0.362,-2.974802,-0.1216,-1.588238
832639.009896,-1.88936676,1.56739275,10.23975648,-0.185078,-0.981864,0.216336,-105.080276,105.482605,-127.567368,60.187684,24.830138,13.556826,11.954291,-1.0,-1.0,100.569893,0.362,-2.999989,-0.120505,-1.595175
832639.029882,-2.4683627699999997,-0.39727557,22.591321470000004,-1.473942,-1.082319,0.12003,-105.49115,105.711029,-127.315323,60.187684,24.830138,13.556826,11.954291,-1.0,-1.0,100.569893,0.362,-3.017362,-0.112755,-1.599693
832639.049867,0.6692578200000001,2.70517617,-5.80388049,-0.44904,-0.611753,0.296494,-106.206314,104.929718,-126.591034,60.187684,24.830138,13.556826,11.954291,-1.0,-1.0,100.569893,0.362,-3.034697,-0.096299,-1.605348
832639.069853,0.39352815,1.7441689500000002,4.56385725,-0.297695,-0.413978,0.287664,-103.597397,103.317871,-125.373962,60.187684,24.830138,13.556826,11.954291,-1.0,-1.0,100.569893,0.362,-3.050239,-0.086692,-1.612815
832639.089839,0.83930436,0.8071177500000001,9.155408130000001,-0.297507,-0.566219,0.115485,-101.289505,102.51799,-124.061829,60.187684,24.830138,13.556826,11.954291,-1.0,-1.0,100.569893,0.362,-3.064821,-0.078298,-1.617753
832639.109825,-0.7831715400000001,-0.10492776000000001,11.88169542,-0.397096,-0.600508,-0.042339,-100.337372,102.084473,-123.705872,60.187684,24.830138,13.556826,11.954291,-1.0,-1.0,100.569893,0.362,-3.079228,-0.069897,-1.619541
832639.12981,-0.12349809,1.7098928100000002,9.93334113,-0.291521,-0.573908,-0.016744,-99.830292,101.567108,-123.079178,60.187684,24.830138,13.556826,11.954291,-1.0,-1.0,100.569893,0.362,-3.09357,-0.062105,-1.619055
832639.149796,-0.61147692,1.2040990200000001,10.09650105,-0.254474,-0.512655,0.000987,-100.008362,101.026245,-122.962296,60.187684,24.830138,13.556826,11.954291,-1.0,-1.0,100.569893,0.362,-3.105793,-0.055778,-1.618927
832639.169782,-0.30926025,0.58289058,10.09485297,-0.282701,-0.51036,0.007091,-99.023544,100.929306,-122.737991,60.187691,24.830145,13.967055,10.50416,-1.0,-1.0,100.569893,0.362,-3.116391,-0.050501,-1.619048
832639.209753,-0.63527598,0.6168626100000001,10.141862490000001,-0.245335,-0.464299,-0.042843,-96.962906,101.426239,-121.374695,60.187691,24.830145,13.967055,10.50416,-1.0,-1.0,100.569893,0.362,-3.137484,-0.039332,-1.619191
832639.229739,-0.48993102000000005,0.75413394,9.60073308,-0.185934,-0.383403,-0.058851,-96.368042,101.970367,-120.120529,60.187691,24.830145,13.967055,10.50416,-1.0,-1.0,100.569893,0.362,3.136733,-0.034756,-1.618201
832639.249725,-0.2459367,0.41389371,9.6136038,-0.15989,-0.339425,-0.061701,-96.432053,102.475342,-119.499084,60.187691,24.830145,13.967055,10.50416,-1.0,-1.0,100.569893,0.362,3.129246,-0.030993,-1.616887
832639.26971,-1.2467529000000002,0.98719992,10.344988350000001,-0.064237,-0.017218,-0.02853,-96.940186,103.080368,-118.868256,60.187691,24.830145,13.967055,10.50416,-1.0,-1.0,100.569893,0.362,3.123548,-0.028467,-1.615799
832639.289696,0.18427104,-0.06885639,8.873547210000002,-0.012616,-0.086979,-0.064773,-97.838257,103.298813,-118.910706,60.187691,24.830145,13.967055,10.50416,-1.0,-1.0,100.569893,0.362,3.124411,-0.028439,-1.615384
832639.309682,1.14302196,-0.13831119,8.983870470000001,0.007366,0.002311,0.004185,-99.976974,103.281021,-119.599762,60.187691,24.830145,13.967055,10.50416,-1.0,-1.0,100.569893,0.362,3.124157,-0.028257,-1.614123
832639.329667,0.4047606,0.00359046,9.16977978,0.009131,0.018039,0.034232,-101.409698,103.13446,-120.454865,60.187691,24.830145,13.967055,10.50416,-1.0,-1.0,100.569893,0.362,3.123972,-0.02833,-1.61437
832639.349653,-0.1793268,-0.29024847,9.41871834,0.013311,-0.008322,-0.003526,-101.409698,103.13446,-120.454865,60.187691,24.830145,13.967055,10.50416,-1.0,-1.0,100.569893,0.362,3.123657,-0.028306,-1.614747
832639.369639,0.37960776,-0.42721569,9.8478666,0.008322,-0.016265,0.030517,-101.614273,102.468567,-121.448349,60.187691,24.830145,13.967055,10.50416,-1.0,-1.0,100.569893,0.362,3.123589,-0.028435,-1.614798
832639.389625,0.01466595,-0.38335518,9.87691401,0.00102,-0.008363,0.010057,-101.612747,101.935455,-122.167526,60.187691,24.830145,13.967055,10.50416,-1.0,-1.0,100.569893,0.362,3.123309,-0.028496,-1.615209
832639.40961,0.13037490000000002,-0.20252745000000003,9.96103476,0.001106,-0.008631,0.010312,-101.727188,101.78009,-122.362137,60.187691,24.830145,13.967055,10.50416,-1.0,-1.0,100.569893,0.362,3.123022,-0.028396,-1.615347
832639.429597,-0.008829,-0.07184844,9.903253860000001,0.000147,-0.003931,-0.000703,-101.491333,102.059311,-122.061325,60.187691,24.830145,13.967055,10.50416,-1.0,-1.0,100.569893,0.362,3.122739,-0.028299,-1.615424
832639.429597,-0.008829,-0.07184844,9.903253860000001,0.000147,-0.003931,-0.000703,-101.491333,102.059311,-122.061325,60.187691,24.830145,13.967055,10.50416,-1.0,-1.0,100.569893,0.362,3.122739,-0.028299,-1.615424
832639.469569,0.07020036,0.31359627000000007,9.746235,0.005572,-0.001823,-0.011742,-100.863312,103.268723,-120.694733,60.187691,24.830145,13.967055,10.50416,-1.0,-1.0,100.569893,0.362,3.1225,-0.028271,-1.615069
832639.489554,0.14010642,0.44367687000000006,9.75910572,0.002514,-0.01405,-0.005726,-99.91301,103.513382,-119.693192,60.187691,24.830145,13.967055,10.50416,-1.0,-1.0,100.569893,0.362,3.122409,-0.028309,-1.614776
832639.509539,0.16884972000000004,0.36987624,9.791586630000001,0.00152,-0.015327,0.009487,-99.338882,103.686417,-119.326279,60.187691,24.830145,13.967055,10.50416,-1.0,-1.0,100.569893,0.362,3.122124,-0.0283,-1.614667
832639.529526,0.16211025,0.3097017,9.82062423,0.000655,-0.012325,0.018127,-98.500015,103.496307,-119.505112,60.187691,24.830145,13.967055,10.50416,-1.0,-1.0,100.569893,0.362,3.121778,-0.028231,-1.614843
832639.549511,0.16615197,0.34024023,9.79697232,0.002425,-0.001769,0.012956,-97.651398,103.487991,-119.134949,60.187691,24.830145,13.967055,10.50416,-1.0,-1.0,100.569893,0.362,3.121623,-0.028183,-1.615112
832639.569497,0.08487612,0.37347651000000004,9.80895033,0.004478,-0.005002,0.00012,-97.404358,103.457581,-118.732391,60.187691,24.830145,13.967055,10.50416,-1.0,-1.0,100.569893,0.362,3.121558,-0.028159,-1.615214
832639.589483,0.08308089000000002,0.42571475999999997,9.803417490000001,0.005373,0.000282,-0.000698,-96.468246,103.55188,-118.993439,60.187691,24.830145,13.967055,10.50416,-1.0,-1.0,100.569893,0.362,3.121575,-0.028173,-1.615132
832639.609469,0.15373251000000002,0.51851736,9.76030254,0.001111,-0.001865,-0.000606,-96.433334,103.16922,-119.224228,60.187691,24.830145,13.967055,10.50416,-1.0,-1.0,100.569893,0.362,3.121569,-0.028159,-1.615025
832639.629454,0.27857457,0.48783168000000005,9.84113694,0.002787,-0.001887,0.010275,-96.048004,103.004471,-118.869919,60.187691,24.830145,13.967055,10.50416,-1.0,-1.0,100.569893,0.362,3.121564,-0.028145,-1.614983
832639.64944,0.11032326000000002,0.48858705,9.71644203,0.003333,-0.003973,0.010228,-96.036957,103.122116,-118.793961,60.187691,24.830145,13.967055,10.50416,-1.0,-1.0,100.569893,0.362,3.121533,-0.028114,-1.615142
832639.669426,0.028586340000000002,0.34862778,9.795334050000001,0.003873,0.001511,0.000846,-96.678421,103.290405,-118.990448,60.187691,24.830145,13.967055,10.50416,-1.0,-1.0,100.569893,0.362,3.121508,-0.028107,-1.615184
832639.689412,0.15253569,0.28905165000000005,9.82241946,0.002721,-0.00516,-7e-05,-96.686646,103.503143,-118.803802,60.187691,24.830145,13.967055,10.50416,-1.0,-1.0,100.569893,0.362,3.121504,-0.028117,-1.615089
832639.709397,0.19414971,0.32751666,9.74219328,0.003019,0.004547,0.007222,-97.13295,103.596848,-119.100616,60.187691,24.830145,13.967055,10.503875,-1.0,-1.0,100.569893,0.362,3.121482,-0.0281,-1.615038
832639.729383,0.11451213,0.27647523,9.81538569,0.000679,-0.005077,0.004943,-97.81337,103.51918,-118.854767,60.187691,24.830145,13.967055,10.503875,-1.0,-1.0,100.569893,0.362,3.121465,-0.028081,-1.615101
832639.729383,0.11451213,0.27647523,9.81538569,0.000679,-0.005077,0.004943,-97.81337,103.51918,-118.854767,60.187691,24.830145,13.967055,10.503875,-1.0,-1.0,100.569893,0.362,3.121465,-0.028081,-1.615101
832639.749369,0.11106882000000001,0.27243351000000005,9.811343970000001,0.002567,0.002035,0.002504,-98.000717,103.731018,-118.873474,60.187691,24.830145,13.967055,10.503875,-1.0,-1.0,100.569893,0.362,3.121449,-0.028057,-1.615121
832639.78934,0.13472073,0.26105391,9.80041563,0.005287,-0.00072,0.007079,-98.991104,103.82605,-119.272812,60.187691,24.830145,13.967055,10.503875,-1.0,-1.0,100.569893,0.362,3.121401,-0.028051,-1.615153
832639.809326,0.11211849,0.25611948,9.78470001,0.000356,-0.002702,0.004445,-99.385483,103.890366,-119.052536,60.187691,24.830145,13.967055,10.503875,-1.0,-1.0,100.569893,0.362,3.121371,-0.02804,-1.615193
832639.849297,0.12977649,0.23096664,9.77646942,0.003614,-0.00644,0.006563,-99.963196,103.88533,-119.649918,60.187691,24.830145,13.967055,10.503875,-1.0,-1.0,100.569893,0.362,3.12134,-0.027995,-1.615215
832639.849297,0.12977649,0.23096664,9.77646942,0.003614,-0.00644,0.006563,-99.963196,103.88533,-119.649918,60.187691,24.830145,13.967055,10.503875,-1.0,-1.0,100.569893,0.362,3.12134,-0.027995,-1.615215
832639.889269,0.12498921000000002,0.21809592,9.77392863,0.003978,-0.004239,0.005566,-100.712646,103.648697,-120.11676,60.187691,24.830145,13.967055,10.503875,-1.0,-1.0,100.569893,0.362,3.121294,-0.027991,-1.615271
832639.909255,0.12034908,0.19310004,9.78141366,0.004505,0.000696,0.005629,-100.681061,103.591125,-120.185593,60.187691,24.830145,13.967055,10.503875,-1.0,-1.0,100.569893,0.362,3.121293,-0.027985,-1.615283
832639.92924,0.13187583,0.21584943000000004,9.78021684,0.001121,-0.000837,0.004593,-100.902588,103.478317,-120.718735,60.187691,24.830145,13.967055,10.503875,-1.0,-1.0,100.569893,0.362,3.121284,-0.027985,-1.615306
832639.949225,0.12948219000000002,0.20147778000000002,9.76149936,0.004922,-7.1e-05,0.003875,-101.035782,103.498322,-120.71608,60.187691,24.830145,13.967055,10.503875,-1.0,-1.0,100.569893,0.362,3.121309,-0.027971,-1.615313
832639.969212,0.11630736000000001,0.19564083,9.783650340000001,0.002345,-0.000166,0.004899,-100.943939,103.503128,-120.60257,60.187691,24.830145,13.967055,10.503875,-1.0,-1.0,100.569893,0.362,3.121326,-0.027966,-1.615324
832639.989198,0.13142457,0.20941407000000004,9.75776175,0.002058,0.000897,0.003855,-100.878601,103.526016,-120.873169,60.187691,24.830145,13.967055,10.503875,-1.0,-1.0,100.569893,0.362,3.121339,-0.027954,-1.615323
832640.009183,0.14400099,0.21450546,9.76568823,0.005304,-0.002409,0.005182,-101.134583,103.585754,-120.649582,60.187691,24.830145,13.967055,10.503875,-1.0,-1.0,100.569664,0.380493,3.121403,-0.0279,-1.615319
832640.029169,0.12663729,0.23216346000000002,9.77377167,0.002121,0.005074,0.004333,-100.805893,103.373108,-120.569672,60.187691,24.830145,13.967055,10.503875,-1.0,-1.0,100.569664,0.380493,3.121455,-0.027867,-1.615318
832640.029169,0.12663729,0.23216346000000002,9.77377167,0.002121,0.005074,0.004333,-100.805893,103.373108,-120.569672,60.187691,24.830145,13.967055,10.503875,-1.0,-1.0,100.569664,0.380493,3.121455,-0.027867,-1.615318
832640.069141,0.1332198,0.27662238,9.77751909,0.003919,0.002247,0.005229,-100.764435,103.375,-120.313187,60.187691,24.830145,13.967055,10.503875,-1.0,-1.0,100.569664,0.380493,3.121559,-0.027795,-1.615312
832640.089126,0.12962934,0.27707364,9.77482134,0.001382,-0.000612,0.004645,-100.575287,103.733032,-120.317032,60.187691,24.830145,13.967055,10.503875,-1.0,-1.0,100.569664,0.380493,3.121579,-0.027795,-1.61532
832640.109112,0.13831119,0.31000581,9.77617512,0.003661,-0.001775,0.004873,-100.47496,103.85257,-120.393723,60.187691,24.830145,13.967055,10.503875,-1.0,-1.0,100.569664,0.380493,3.121583,-0.027777,-1.615343
832640.129098,0.13337676,0.30850488,9.77661657,0.002711,-0.000234,0.003709,-100.243088,103.879013,-120.37439,60.187691,24.830145,13.967055,10.503875,-1.0,-1.0,100.569664,0.380493,3.121584,-0.027766,-1.615341
832640.149083,0.14804271000000002,0.31554846000000003,9.77692068,0.003285,-0.000184,0.003782,-100.093933,103.929108,-119.994629,60.187691,24.830145,13.967055,10.503875,-1.0,-1.0,100.569664,0.380493,3.121598,-0.027776,-1.615323
832640.169069,0.1360647,0.3034233,9.775871010000001,0.004177,-0.00339,0.004389,-100.05542,103.946884,-120.237762,60.187691,24.830145,13.967055,10.503875,-1.0,-1.0,100.569664,0.380493,3.121608,-0.027769,-1.615316
832640.189055,0.14190165000000002,0.29893032,9.775419750000001,0.003311,0.002184,0.004633,-100.194855,103.826981,-120.147934,60.187691,24.830145,13.967055,10.503875,-1.0,-1.0,100.569664,0.380493,3.121604,-0.02777,-1.61532
832640.209041,0.11975067000000002,0.29278926000000005,9.771829290000001,0.002729,-0.002935,0.004114,-100.155914,103.777191,-120.396484,60.187691,24.830145,13.967055,10.503875,-1.0,-1.0,100.569664,0.380493,3.121635,-0.027779,-1.615328
832640.229026,-0.05299362,0.12948219000000002,9.55942317,-0.014423,0.03199,-0.029294,-99.863327,103.812225,-120.329926,60.187691,24.830145,13.967055,10.503875,-1.0,-1.0,100.569664,0.380493,3.121647,-0.02785,-1.61515
832640.249012,0.16974243,0.37871505,9.04464342,0.015679,-0.018736,-0.008337,-99.668716,103.817932,-119.99939,60.187691,24.830145,13.967055,10.503875,-1.0,-1.0,100.569664,0.380493,3.121681,-0.02783,-1.614643
832640.268998,0.40117014,0.28979721,9.90550035,0.00794,0.008965,0.039397,-99.926132,103.745956,-119.476715,60.187691,24.830145,13.967055,10.503875,-1.0,-1.0,100.569664,0.380493,3.121704,-0.027732,-1.614571
832640.288984,0.14833701000000002,0.24444558,10.094107410000001,-0.012037,0.002839,0.036222,-100.267914,103.543961,-119.937378,60.187691,24.830145,13.967055,10.503875,-1.0,-1.0,100.569664,0.380493,3.121698,-0.027874,-1.615361
832640.308969,0.12469491,0.56088675,9.40659318,0.016838,-0.003055,0.01969,-100.683563,103.341751,-119.833389,60.187691,24.830145,13.967055,10.503875,-1.0,-1.0,100.569664,0.380493,3.121691,-0.027707,-1.615879
832640.328955,-0.036826740000000004,0.23381154,10.1194074,0.002603,0.000871,-0.005365,-100.936417,103.65567,-120.343552,60.187691,24.830145,13.967055,10.503875,-1.0,-1.0,100.569664,0.380493,3.121714,-0.027757,-1.616182
832640.328955,-0.036826740000000004,0.23381154,10.1194074,0.002603,0.000871,-0.005365,-100.936417,103.65567,-120.343552,60.187691,24.830145,13.967055,10.503875,-1.0,-1.0,100.569664,0.380493,3.121714,-0.027757,-1.616182
832640.368927,0.24923286000000003,0.3501189,9.68156748,0.010259,0.000464,0.004706,-100.941284,103.40799,-119.602356,60.187691,24.830145,13.967055,10.503875,-1.0,-1.0,100.569664,0.380493,3.121665,-0.027762,-1.615209
832640.388912,0.25925868,0.17139051000000002,9.98258733,-0.001581,-0.005819,0.011824,-101.144913,103.009171,-119.968842,60.187691,24.830145,13.967055,10.503875,-1.0,-1.0,100.569664,0.380493,3.121651,-0.027804,-1.615327
832640.408898,0.18112203000000002,0.29233800000000004,9.731716200000001,0.004189,-0.000164,0.013864,-101.457855,103.06665,-119.836624,60.187691,24.830145,13.967055,10.503875,-1.0,-1.0,100.569664,0.380493,3.121656,-0.027778,-1.615456
832640.428883,-0.08188407,0.1966905,9.82856052,0.005182,0.002639,-0.002176,-101.236023,103.240036,-119.724548,60.187691,24.830145,13.967055,10.503875,-1.0,-1.0,100.569664,0.380493,3.121623,-0.027775,-1.615582
832640.448869,0.27273762,0.23007393000000004,9.84577707,0.001307,-0.003914,0.002425,-101.229034,103.077988,-120.06781,60.187691,24.830145,13.967055,10.503875,-1.0,-1.0,100.569664,0.380493,3.121656,-0.027788,-1.615468
832640.468854,0.14280417,0.25222491,9.759409830000001,0.003639,-0.001914,0.007233,-101.364304,103.135056,-119.97818,60.187691,24.830145,13.967055,10.503875,-1.0,-1.0,100.569664,0.380493,3.121645,-0.027789,-1.615451
832640.48884,0.07439904,0.23096664,9.81074556,0.006057,-0.0003,0.003728,-101.251846,103.272903,-119.648605,60.187691,24.830145,13.967055,10.503875,-1.0,-1.0,100.569664,0.380493,3.121626,-0.027779,-1.615516
832640.508826,0.19100070000000002,0.25207776000000004,9.81389457,-0.000202,0.000774,0.003557,-101.250397,103.0177,-120.138382,60.187691,24.830145,13.967055,10.503875,-1.0,-1.0,100.569664,0.380493,3.121651,-0.027798,-1.615512
832640.548797,0.13127742,0.25207776000000004,9.84592422,0.001292,-0.002725,0.004763,-101.037323,103.314529,-119.611755,60.187691,24.830145,13.967055,10.503875,-1.0,-1.0,100.569664,0.380493,3.121648,-0.02779,-1.61549
832640.568783,0.12888378,0.31988447999999997,9.73844586,0.00306,0.001663,0.005627,-100.942047,103.467636,-119.802109,60.187691,24.830145,13.967055,10.503875,-1.0,-1.0,100.569664,0.380493,3.121645,-0.027772,-1.615493
832640.588769,0.12544047,0.28965006000000004,9.80086689,0.005406,-0.000902,0.004345,-100.639069,103.456024,-119.710938,60.187691,24.830145,13.967055,10.503875,-1.0,-1.0,100.569664,0.380493,3.12165,-0.027777,-1.61548
832640.608754,0.14804271000000002,0.2951829,9.80865603,0.001513,-0.001325,0.005631,-100.665405,103.465851,-119.50946,60.187691,24.830145,13.967055,10.503875,-1.0,-1.0,100.569664,0.380493,3.121683,-0.027784,-1.615492
832640.62874,0.10673280000000002,0.32167971,9.75671208,0.003347,0.000256,0.005107,-100.77005,103.583694,-119.811813,60.187691,24.830145,13.967055,10.503875,-1.0,-1.0,100.569664,0.380493,3.121679,-0.027778,-1.615501
832640.62874,0.10673280000000002,0.32167971,9.75671208,0.003347,0.000256,0.005107,-100.77005,103.583694,-119.811813,60.187691,24.830145,13.967055,10.503875,-1.0,-1.0,100.569664,0.380493,3.121679,-0.027778,-1.615501
832640.62874,0.10673280000000002,0.32167971,9.75671208,0.003347,0.000256,0.005107,-100.77005,103.583694,-119.811813,60.187691,24.830145,13.967055,10.503875,-1.0,-1.0,100.569664,0.380493,3.121679,-0.027778,-1.615501
832640.688698,0.10642868999999999,0.29697813,9.75416148,0.004323,-0.002946,0.005563,-100.801086,103.409927,-119.885376,60.187691,24.830145,13.967055,10.503875,-1.0,-1.0,100.569664,0.380493,3.121678,-0.027753,-1.615512
832640.708683,0.12993345,0.26629245,9.77646942,0.005193,-0.000216,0.00359,-100.942123,103.661713,-120.134384,60.187691,24.830145,13.967055,10.503875,-1.0,-1.0,100.569664,0.380493,3.121681,-0.027765,-1.615525
832640.728669,0.14654178,0.28829628,9.75446559,0.002655,7.1e-05,0.004982,-101.126633,103.551025,-120.165665,60.187691,24.830145,13.967055,10.503875,-1.0,-1.0,100.569664,0.380493,3.121694,-0.02778,-1.615531
832640.748655,0.13307265000000001,0.24578955000000002,9.80041563,0.005865,-0.002187,0.003884,-101.257629,103.319916,-119.77597,60.187691,24.830145,13.967055,10.503875,-1.0,-1.0,100.569664,0.380493,3.121705,-0.027785,-1.615537
832640.76864,0.12693159,0.24773193000000002,9.80176941,0.002262,0.001051,0.004133,-101.000381,103.426208,-119.68869,60.187691,24.830145,13.967055,10.503875,-1.0,-1.0,100.569664,0.380493,3.121711,-0.027795,-1.615546
832640.788626,0.13876245,0.26255484,9.77003406,0.003221,-0.000126,0.003638,-101.000381,103.426208,-119.68869,60.187691,24.830145,13.967055,10.503875,-1.0,-1.0,100.569664,0.380493,3.121717,-0.027785,-1.615546
832640.808612,0.13651596,0.24160068,9.79443153,0.00453,-0.002014,0.004412,-101.184952,103.42453,-119.728073,60.187691,24.830145,13.967055,10.503875,-1.0,-1.0,100.569664,0.380493,3.121737,-0.027786,-1.615538
832640.828598,0.12498921000000002,0.26030835,9.7784118,0.002082,0.001708,0.002753,-101.149261,103.583939,-119.978058,60.187691,24.830145,13.967055,10.503875,-1.0,-1.0,100.569664,0.380493,3.121757,-0.02778,-1.615547
832640.848583,0.12903093000000002,0.26509562999999997,9.759704130000001,0.00434,-0.002651,0.003932,-100.947266,103.512436,-119.850388,60.187691,24.830145,13.967055,10.503875,-1.0,-1.0,100.569664,0.380493,3.121778,-0.027765,-1.615542
832640.868569,0.12993345,0.26210358,9.787250610000001,0.005049,-0.000513,0.002657,-101.135315,103.416641,-119.877808,60.187691,24.830145,13.967055,10.503875,-1.0,-1.0,100.569664,0.380493,3.121799,-0.027754,-1.615536
832640.888555,0.13950801,0.27797616,9.79712928,0.001402,0.001433,0.003511,-100.938553,103.466537,-119.76944,60.187691,24.830145,13.967055,10.503875,-1.0,-1.0,100.569664,0.380493,3.121808,-0.027747,-1.615523
832640.908541,0.13696722,0.2894931,9.78170796,0.00539,-0.003387,0.00523,-100.936844,103.529068,-119.789383,60.187691,24.830145,13.967055,10.503875,-1.0,-1.0,100.569664,0.380493,3.121835,-0.027728,-1.615521
832640.928526,0.13472073,0.28021284,9.803113380000001,0.003614,0.002212,0.004836,-100.82016,103.375732,-119.84404,60.187691,24.830145,13.967055,10.503875,-1.0,-1.0,100.569664,0.380493,3.121877,-0.027713,-1.615532
832640.928526,0.13472073,0.28021284,9.803113380000001,0.003614,0.002212,0.004836,-100.82016,103.375732,-119.84404,60.187691,24.830145,13.967055,10.503875,-1.0,-1.0,100.569664,0.380493,3.121877,-0.027713,-1.615532
832640.968498,0.1300806,0.28425456,9.8043102,0.005207,-0.001476,0.003385,-100.735733,103.610077,-120.068497,60.187691,24.830145,13.967055,10.503875,-1.0,-1.0,100.569664,0.380493,3.121954,-0.027709,-1.615536
832640.988484,0.13756563000000002,0.29443734,9.78964425,0.003193,0.002466,0.003742,-100.767914,103.332321,-119.863007,60.187691,24.830145,13.967055,10.503875,-1.0,-1.0,100.569664,0.380493,3.121971,-0.027709,-1.615536
832641.008469,0.13651596,0.27363033000000003,9.79457868,0.003606,-0.001992,0.003563,-100.776047,103.496033,-119.730637,60.187691,24.830145,13.967055,10.503875,-1.0,-1.0,100.569664,0.380493,3.121976,-0.027712,-1.615541
832641.008469,0.13651596,0.27363033000000003,9.79457868,0.003606,-0.001992,0.003563,-100.776047,103.496033,-119.730637,60.187691,24.830145,13.967055,10.503875,-1.0,-1.0,100.569664,0.380493,3.121976,-0.027712,-1.615541
832641.048441,0.12993345,0.27841761000000004,9.7812567,0.000825,0.000915,0.003021,-100.79216,103.42598,-119.903275,60.187691,24.830145,13.967055,10.503875,-1.0,-1.0,100.569664,0.380493,3.122003,-0.027728,-1.615542
832641.068427,0.1300806,0.26839179,9.80385894,0.00371,-0.001662,0.006093,-100.877731,103.371994,-120.144745,60.187691,24.830145,13.967055,10.503875,-1.0,-1.0,100.569664,0.380493,3.122021,-0.027714,-1.615545
832641.088413,0.13337676,0.26075961000000003,9.79847325,0.002451,0.001154,0.002659,-101.04184,103.031509,-119.857376,60.187691,24.830145,13.967055,10.503875,-1.0,-1.0,100.569664,0.380493,3.122051,-0.027706,-1.615561
832641.108398,0.14205861,0.26001405,9.78934014,0.002834,0.002435,0.004938,-100.940521,103.333908,-119.944641,60.187691,24.830145,13.967055,10.503875,-1.0,-1.0,100.569664,0.380493,3.122069,-0.0277,-1.615546
832641.128384,0.12349809,0.25985709,9.81299205,0.004883,-0.002891,0.004444,-100.65152,103.404251,-119.552246,60.187691,24.830145,13.967055,10.503875,-1.0,-1.0,100.569664,0.380493,3.122117,-0.02768,-1.615542
832641.14837,0.12214431,0.26105391,9.810304109999999,0.002571,0.002167,0.004088,-100.937195,103.287994,-120.276306,60.187691,24.830145,13.967055,10.503875,-1.0,-1.0,100.569664,0.380493,3.122132,-0.027681,-1.615544
832641.168355,0.13621185,0.27781920000000004,9.77692068,0.00467,-0.000994,0.005546,-100.500778,103.523193,-119.469025,60.187691,24.830145,13.967055,10.503875,-1.0,-1.0,100.569664,0.380493,3.122158,-0.027683,-1.61555
832641.188341,0.12469491,0.2689902,9.79727643,0.004892,-0.001957,0.004335,-100.900589,103.385361,-120.070923,60.187691,24.830145,13.967055,10.503875,-1.0,-1.0,100.569664,0.380493,3.122178,-0.027667,-1.615547
832641.208327,0.12589173,0.26853894,9.7986204,0.00061,0.001372,0.004112,-100.606522,103.517349,-119.703125,60.187691,24.830145,13.967055,10.503875,-1.0,-1.0,100.569664,0.380493,3.122187,-0.027673,-1.615552
832641.228313,0.12753,0.2806641,9.76988691,0.004229,-0.002655,0.004489,-100.811172,103.439224,-119.539154,60.187691,24.830145,13.967055,10.503875,-1.0,-1.0,100.569664,0.380493,3.122214,-0.027671,-1.615562
832641.228313,0.12753,0.2806641,9.76988691,0.004229,-0.002655,0.004489,-100.811172,103.439224,-119.539154,60.187691,24.830145,13.967055,10.503875,-1.0,-1.0,100.569664,0.380493,3.122214,-0.027671,-1.615562
832641.268284,0.1360647,0.28201788,9.799817220000001,0.002222,0.001704,0.00464,-100.866852,103.228714,-119.672226,60.187691,24.830145,13.967055,10.503875,-1.0,-1.0,100.569664,0.380493,3.122278,-0.027668,-1.615585
832641.28827,0.13232709,0.28575549,9.77257485,0.004256,-0.002508,0.004609,-100.667786,103.259338,-119.680832,60.187691,24.830145,13.967055,10.503875,-1.0,-1.0,100.569664,0.380493,3.122324,-0.027666,-1.615582
832641.308256,0.13816404,0.26808768000000005,9.780658290000002,0.001215,0.002344,0.003204,-100.710373,103.42305,-119.689682,60.187691,24.830145,13.967055,10.503875,-1.0,-1.0,100.569664,0.380493,3.122357,-0.02766,-1.615584
832641.328242,0.13936086,0.27841761000000004,9.79473564,0.002504,-0.00025,0.003944,-100.592484,103.514236,-119.932068,60.187691,24.830145,13.967055,10.503875,-1.0,-1.0,100.569664,0.380493,3.122405,-0.027673,-1.615578
832641.348227,0.13232709,0.28006569000000003,9.78545538,0.003693,-0.001117,0.004399,-100.813416,103.43573,-120.0271,60.187691,24.830145,13.967055,10.503875,-1.0,-1.0,100.569664,0.380493,3.122462,-0.027656,-1.615586
832641.388199,0.1360647,0.27991854,9.791292330000001,0.004626,-0.001801,0.00534,-100.928253,103.440826,-119.948685,60.187691,24.830145,13.967055,10.503875,-1.0,-1.0,100.569664,0.380493,3.122536,-0.02764,-1.61558
832641.408185,0.13621185,0.26674371,9.78620094,0.00274,0.000941,0.003367,-101.040833,103.30397,-120.282242,60.187691,24.830145,13.967055,10.503875,-1.0,-1.0,100.569664,0.380493,3.122588,-0.027641,-1.615596
832641.42817,0.1357704,0.27482715,9.784248750000001,0.002449,-0.000564,0.003636,-101.013229,103.173828,-120.010895,60.187691,24.830145,13.967055,10.503875,-1.0,-1.0,100.569664,0.380493,3.122626,-0.027642,-1.615588
832641.448156,0.12857967,0.25282332,9.79562835,0.004976,-0.001548,0.003698,-100.892776,103.593231,-119.952805,60.187691,24.830145,13.967055,10.503875,-1.0,-1.0,100.569664,0.380493,3.122685,-0.027642,-1.61558
832641.468142,0.12199716,0.2718351,9.768533130000002,0.002374,0.002168,0.002962,-100.881134,103.400772,-120.125092,60.187691,24.830145,13.967055,10.503875,-1.0,-1.0,100.569664,0.380493,3.122722,-0.027646,-1.615577
832641.488128,0.13831119,0.28725642,9.7695828,0.004599,0.000113,0.002627,-101.148636,103.556015,-119.933853,60.187691,24.830145,13.967055,10.503875,-1.0,-1.0,100.569664,0.380493,3.122763,-0.027636,-1.615573
832641.508113,0.12424365,0.27168795,9.78889869,0.004137,-0.000501,0.00485,-101.148636,103.556015,-119.933853,60.187691,24.830145,13.967055,10.503875,-1.0,-1.0,100.569664,0.380493,3.122816,-0.02764,-1.615576
832641.528099,0.13785993,0.27273762,9.779314320000001,0.002664,0.004586,0.003298,-100.945312,103.507736,-119.851013,60.187691,24.830145,13.967055,10.503875,-1.0,-1.0,100.569664,0.380493,3.122854,-0.027631,-1.615575
832641.528099,0.13785993,0.27273762,9.779314320000001,0.002664,0.004586,0.003298,-100.945312,103.507736,-119.851013,60.187691,24.830145,13.967055,10.503875,-1.0,-1.0,100.569664,0.380493,3.122854,-0.027631,-1.615575
832641.528099,0.13785993,0.27273762,9.779314320000001,0.002664,0.004586,0.003298,-100.945312,103.507736,-119.851013,60.187691,24.830145,13.967055,10.503875,-1.0,-1.0,100.569664,0.380493,3.122854,-0.027631,-1.615575
