timestamp,accel_x,accel_y,accel_z,gyro_x,gyro_y,gyro_z,mag_x,mag_y,mag_z,gps_lat,gps_lon,gps_alt,gps_accuracy,gps_speed,gps_course,pressure,altitude,roll,pitch,yaw
879034.327063,-0.09759969,-0.15582204,-9.844727400000002,0.004772,0.007083,0.003125,-78.222168,95.819077,-209.208176,60.187678,24.830148,13.271888,19.855396,-1.0,-1.0,100.077316,-0.084549,-0.008211,0.017302,0.762473
879034.387018,-0.06735546,-0.1764819,-9.77781339,0.002963,-0.005198,0.005565,-78.386581,95.605042,-209.203278,60.187678,24.830148,13.271888,19.855396,-1.0,-1.0,100.077316,-0.084549,-0.008185,0.017316,0.762442
879034.426988,-0.05673123,-0.16361118,-9.78859458,0.00493,0.000314,0.003549,-78.196411,95.532547,-209.483017,60.187678,24.830148,13.271888,19.855396,-1.0,-1.0,100.077316,-0.084549,-0.008193,0.017298,0.762434
879034.446972,-0.08951625,-0.16136469,-9.82616688,0.003889,0.001122,0.004935,-78.15387,95.823547,-209.277969,60.187678,24.830148,13.271888,19.855396,-1.0,-1.0,100.077316,-0.084549,-0.008199,0.017321,0.762435
879034.486941,-0.07409493,-0.16825131000000002,-9.81464013,0.003357,-0.001758,0.005253,-78.083237,96.058456,-209.00676,60.187678,24.830148,13.271888,19.855396,-1.0,-1.0,100.077316,-0.084549,-0.008201,0.017314,0.762443
879034.506926,-0.07858791000000001,-0.17543223,-9.831552570000001,0.00153,-0.000525,0.004333,-78.355591,95.722885,-208.941284,60.187678,24.830148,13.271888,19.855396,-1.0,-1.0,100.077316,-0.084549,-0.008212,0.017305,0.762457
879034.526911,-0.07679268,-0.17588349,-9.80266212,0.005039,-0.001086,0.00352,-78.15564,95.792862,-208.912582,60.187667,24.830163,13.390236,19.939844,-1.0,-1.0,100.077316,-0.084549,-0.008203,0.017292,0.76246
879034.526911,-0.07679268,-0.17588349,-9.80266212,0.005039,-0.001086,0.00352,-78.15564,95.792862,-208.912582,60.187667,24.830163,13.390236,19.939844,-1.0,-1.0,100.077316,-0.084549,-0.008203,0.017292,0.76246
879034.566881,-0.07948062,-0.16839846000000003,-9.81449298,0.002232,-0.000579,0.003305,-77.943024,95.710342,-208.99704,60.187667,24.830163,13.390236,19.939844,-1.0,-1.0,100.077316,-0.084549,-0.008202,0.017311,0.76246
879034.586866,-0.07199559,-0.16630893,-9.82856052,0.003556,-0.000305,0.003829,-78.165833,95.636063,-209.078552,60.187667,24.830163,13.390236,19.939844,-1.0,-1.0,100.077316,-0.084549,-0.008212,0.017317,0.762462
879034.60685,-0.08861373,-0.16675038,-9.839037600000001,0.003702,-0.000413,0.002334,-78.023743,95.742477,-209.161087,60.187667,24.830163,13.390236,19.939844,-1.0,-1.0,100.077316,-0.084549,-0.008217,0.017335,0.762465
879034.626835,-0.08262963000000001,-0.1793268,-9.799522920000001,0.002725,0.000305,0.004013,-77.973022,95.905792,-208.764114,60.187667,24.830163,13.390236,19.939844,-1.0,-1.0,100.077316,-0.084549,-0.008201,0.01733,0.762455
879034.64682,-0.08532738,-0.16495515000000002,-9.83035575,0.003172,0.000138,0.005491,-78.014633,95.947479,-209.279266,60.187667,24.830163,13.390236,19.939844,-1.0,-1.0,100.077316,-0.084549,-0.00819,0.017315,0.762449
879034.64682,-0.08532738,-0.16495515000000002,-9.83035575,0.003172,0.000138,0.005491,-78.014633,95.947479,-209.279266,60.187667,24.830163,13.390236,19.939844,-1.0,-1.0,100.077316,-0.084549,-0.00819,0.017315,0.762449
879034.64682,-0.08532738,-0.16495515000000002,-9.83035575,0.003172,0.000138,0.005491,-78.014633,95.947479,-209.279266,60.187667,24.830163,13.390236,19.939844,-1.0,-1.0,100.077316,-0.084549,-0.00819,0.017315,0.762449
879034.64682,-0.08532738,-0.16495515000000002,-9.83035575,0.003172,0.000138,0.005491,-78.014633,95.947479,-209.279266,60.187667,24.830163,13.390236,19.939844,-1.0,-1.0,100.077316,-0.084549,-0.00819,0.017315,0.762449
879034.72676,-0.06765957,-0.17633475,-9.80057259,0.003923,-0.000935,0.004405,-77.854736,96.02092,-209.112869,60.187667,24.830163,13.390236,19.939844,-1.0,-1.0,100.077316,-0.084549,-0.008149,0.017345,0.762448
879034.746745,-0.07484049000000001,-0.17109621000000003,-9.84637548,0.002304,0.000442,0.00487,-77.931137,95.921692,-208.872986,60.187667,24.830163,13.390236,19.939844,-1.0,-1.0,100.077316,-0.084549,-0.008148,0.017359,0.762447
879034.766729,-0.07844076,-0.16256151,-9.801171,0.002745,-0.001166,0.002999,-77.893143,95.784332,-209.18399,60.187667,24.830163,13.390236,19.939844,-1.0,-1.0,100.077316,-0.084549,-0.008136,0.017352,0.762443
879034.786714,-0.08607294000000001,-0.16181595000000001,-9.84592422,0.003359,0.001057,0.005101,-78.038986,95.623047,-209.26915,60.187667,24.830163,13.390236,19.939844,-1.0,-1.0,100.077316,-0.084549,-0.008134,0.017361,0.762438
879034.806699,-0.08277678,-0.16765290000000002,-9.81464013,0.003965,0.000762,0.004497,-77.837753,95.913101,-209.087662,60.187667,24.830163,13.390236,19.939844,-1.0,-1.0,100.077316,-0.084549,-0.008106,0.017362,0.76244
879034.826684,-0.07275096,-0.16241436,-9.79742358,0.003481,-0.000423,0.004255,-77.9814,95.695541,-209.380142,60.187667,24.830163,13.390236,19.939844,-1.0,-1.0,100.077316,-0.084549,-0.00809,0.017365,0.762448
879034.846669,-0.07110288000000001,-0.16645608,-9.834397469999999,0.003995,0.000397,0.003845,-78.070267,95.747925,-208.869171,60.187667,24.830163,13.390236,19.939844,-1.0,-1.0,100.077316,-0.084549,-0.00808,0.017366,0.762439
879034.866654,-0.07320222,-0.18126918000000003,-9.80206371,0.003295,-0.00084,0.00419,-78.188934,95.746338,-209.162415,60.187667,24.830163,13.390236,19.939844,-1.0,-1.0,100.077316,-0.084549,-0.008066,0.017363,0.762435
879034.886639,-0.08262963000000001,-0.16450389,-9.82586277,0.002835,-0.000857,0.002757,-77.953064,95.881058,-209.014313,60.187667,24.830163,13.390236,19.939844,-1.0,-1.0,100.077316,-0.084549,-0.008075,0.017351,0.762432
879034.906624,-0.08352234000000001,-0.17528507999999998,-9.82930608,0.003057,0.000425,0.003847,-77.876099,95.922485,-208.839279,60.187667,24.830163,13.390236,19.939844,-1.0,-1.0,100.077316,-0.084549,-0.008089,0.017356,0.762436
879034.926608,-0.08232552,-0.17064495000000002,-9.80565417,0.004303,-0.001158,0.002523,-77.972015,95.885498,-209.065109,60.187667,24.830163,13.390236,19.939844,-1.0,-1.0,100.077316,-0.084549,-0.008077,0.017356,0.76244
879034.946593,-0.08128566000000001,-0.16884972000000004,-9.84248091,0.001729,-0.000204,0.004521,-78.122498,95.966156,-208.997314,60.187667,24.830163,13.390236,19.939844,-1.0,-1.0,100.077316,-0.084549,-0.008094,0.017369,0.762433
879034.966578,-0.07184844,-0.17513793000000002,-9.80581113,0.003388,-0.000345,0.003109,-78.056076,95.699554,-208.834076,60.187667,24.830163,13.390236,19.939844,-1.0,-1.0,100.077316,-0.084549,-0.008078,0.017362,0.762424
879034.986563,-0.06017454,-0.17289144,-9.84353058,0.002882,0.000736,0.004951,-78.083603,95.926788,-208.756622,60.187667,24.830163,13.390236,19.939844,-1.0,-1.0,100.077316,-0.084549,-0.008079,0.017378,0.762409
879035.006548,-0.06795387,-0.18157329000000003,-9.813590460000002,0.004946,-0.000532,0.003586,-78.083603,95.926788,-208.756622,60.187667,24.830163,13.390236,19.939844,-1.0,-1.0,100.077316,-0.084549,-0.008064,0.017378,0.76241
879035.026533,-0.07873506000000001,-0.16675038,-9.820182780000001,0.004051,-0.000829,0.004145,-78.204056,95.872559,-208.703033,60.187667,24.830163,13.390236,19.939844,-1.0,-1.0,100.077316,-0.084549,-0.008056,0.017385,0.762414
879035.046518,-0.09026181000000001,-0.15956946,-9.83140542,0.002604,-3.8e-05,0.003182,-78.077545,95.984421,-208.775986,60.187667,24.830163,13.390236,19.939844,-1.0,-1.0,100.077316,-0.084549,-0.008063,0.017392,0.762409
879035.086488,-0.08023599000000001,-0.17094906,-9.85027005,0.002903,0.000826,0.003451,-78.122223,96.040466,-208.902985,60.187667,24.830163,13.390236,19.939844,-1.0,-1.0,100.077316,-0.084549,-0.008052,0.017403,0.762399
879035.106472,-0.06452037000000001,-0.16211025,-9.80626239,0.003614,-0.002567,0.004047,-78.033493,96.067627,-208.681946,60.187667,24.830163,13.390236,19.939844,-1.0,-1.0,100.077316,-0.084549,-0.008046,0.017401,0.762386
879035.126457,-0.08053028999999999,-0.16765290000000002,-9.835447140000001,0.002746,-0.002164,0.005206,-78.356766,95.908371,-208.512344,60.187667,24.830163,13.390236,19.939844,-1.0,-1.0,100.077316,-0.084549,-0.008064,0.017399,0.76239
879035.126457,-0.08053028999999999,-0.16765290000000002,-9.835447140000001,0.002746,-0.002164,0.005206,-78.356766,95.908371,-208.512344,60.187667,24.830163,13.390236,19.939844,-1.0,-1.0,100.077316,-0.084549,-0.008064,0.017399,0.76239
879035.166427,-0.07708698000000001,-0.16315992,-9.795775500000001,0.004255,-0.000982,0.002967,-78.155472,95.91713,-209.328964,60.187667,24.830163,13.390236,19.939844,-1.0,-1.0,100.077316,-0.084549,-0.008095,0.01737,0.762386
879035.186412,-0.08203122,-0.16884972000000004,-9.828707670000002,0.00339,-0.00063,0.00664,-78.140198,96.090622,-208.811523,60.187667,24.830163,13.390236,19.939844,-1.0,-1.0,100.077316,-0.084549,-0.008112,0.01738,0.762379
879035.206397,-0.07948062,-0.17678601,-9.80820477,0.003736,-0.000243,0.002556,-78.321533,96.012558,-208.533096,60.187667,24.830163,13.390236,19.939844,-1.0,-1.0,100.077316,-0.084549,-0.008114,0.017369,0.762374
879035.226382,-0.07933347,-0.17094906,-9.831709530000001,0.00351,-0.002211,0.00256,-78.172318,95.926743,-208.841568,60.187667,24.830163,13.390236,19.939844,-1.0,-1.0,100.077316,-0.084549,-0.008116,0.017358,0.76237
879035.226382,-0.07933347,-0.17094906,-9.831709530000001,0.00351,-0.002211,0.00256,-78.172318,95.926743,-208.841568,60.187667,24.830163,13.390236,19.939844,-1.0,-1.0,100.077316,-0.084549,-0.008116,0.017358,0.76237
879035.266352,-0.08636724,-0.16301277,-9.80775351,0.004605,-0.001731,0.004511,-78.014832,96.049637,-208.229797,60.187667,24.830163,13.390236,19.939844,-1.0,-1.0,100.077316,-0.084549,-0.008127,0.017331,0.762368
879035.286336,-0.07289811,-0.16600482,-9.84233376,0.00325,0.001055,0.00469,-78.087784,96.055878,-208.813828,60.187667,24.830163,13.390236,19.939844,-1.0,-1.0,100.077316,-0.084549,-0.008148,0.017325,0.76237
879035.306321,-0.07095573000000001,-0.17528507999999998,-9.795029940000001,0.003972,-0.002818,0.004484,-78.148544,96.13295,-208.484375,60.187667,24.830163,13.390236,19.939844,-1.0,-1.0,100.077316,-0.084549,-0.008139,0.01732,0.762375
879035.326306,-0.08172711,-0.16555356,-9.83679111,0.003426,1.1e-05,0.003523,-78.181808,95.780853,-208.732315,60.187667,24.830163,13.390236,19.939844,-1.0,-1.0,100.077316,-0.084549,-0.008174,0.017322,0.762378
879035.326306,-0.08172711,-0.16555356,-9.83679111,0.003426,1.1e-05,0.003523,-78.181808,95.780853,-208.732315,60.187667,24.830163,13.390236,19.939844,-1.0,-1.0,100.077316,-0.084549,-0.008174,0.017322,0.762378
879035.366276,-0.07708698000000001,-0.17543223,-9.81808344,0.003729,-0.000536,0.003933,-78.074692,96.019852,-208.699799,60.187667,24.830163,13.390236,19.939844,-1.0,-1.0,100.077271,-0.081909,-0.008162,0.017309,0.76237
879035.386261,-0.07454619,-0.16270866,-9.840234420000002,0.001948,-0.000481,0.003292,-78.075684,96.20784,-208.899124,60.187667,24.830163,13.390236,19.939844,-1.0,-1.0,100.077271,-0.081909,-0.008177,0.017318,0.762362
879035.406246,-0.08203122,-0.15851979,-9.79817895,0.004378,3.1e-05,0.005249,-78.129883,96.065613,-208.615173,60.187667,24.830163,13.390236,19.939844,-1.0,-1.0,100.077271,-0.081909,-0.008177,0.017304,0.762348
879035.426231,-0.08562168,-0.164808,-9.848170710000002,0.00188,2e-06,0.004441,-78.018066,95.998306,-208.691132,60.187667,24.830163,13.390236,19.939844,-1.0,-1.0,100.077271,-0.081909,-0.008176,0.017325,0.762348
879035.446216,-0.07933347,-0.16390548000000002,-9.80595828,0.003316,-0.000461,0.004098,-78.131393,96.083069,-208.654755,60.187667,24.830163,13.390236,19.939844,-1.0,-1.0,100.077271,-0.081909,-0.008168,0.01731,0.762348
879035.466201,-0.08128566000000001,-0.16226721000000002,-9.82078119,0.003231,-0.001033,0.004388,-78.091583,96.108124,-209.14566,60.187667,24.830163,13.390236,19.939844,-1.0,-1.0,100.077271,-0.081909,-0.008178,0.017321,0.762342
879035.486186,-0.07574301000000001,-0.16031502,-9.835143030000001,0.004102,0.000398,0.003982,-78.134735,96.07103,-208.81749,60.187667,24.830163,13.390236,19.939844,-1.0,-1.0,100.077271,-0.081909,-0.008181,0.017307,0.762352
879035.50617,-0.08322804,-0.1707921,-9.81014715,0.00512,7e-06,0.003055,-78.126724,95.984848,-208.971207,60.187667,24.830163,13.390236,19.939844,-1.0,-1.0,100.077271,-0.081909,-0.008188,0.017315,0.762355
879035.526155,-0.07978473,-0.16076628,-9.85400766,0.000382,-0.001079,0.005623,-78.11676,96.088074,-208.959457,60.187667,24.830163,13.390236,19.939844,-1.0,-1.0,100.077271,-0.081909,-0.008198,0.01733,0.762335
879035.54614,-0.07724394000000001,-0.1704978,-9.801171,0.002451,-0.001583,0.004202,-78.173767,96.150864,-209.208649,60.187667,24.830163,13.390236,19.939844,-1.0,-1.0,100.077271,-0.081909,-0.008195,0.017316,0.762344
879035.566125,-0.08203122,-0.16870257000000002,-9.820025820000001,0.003558,-0.00209,0.002599,-78.199387,95.911011,-208.954422,60.187667,24.830163,13.390236,19.939844,-1.0,-1.0,100.077271,-0.081909,-0.008183,0.017333,0.762344
879035.58611,-0.06615864,-0.1588239,-9.82078119,0.003592,-4.8e-05,0.00438,-78.140152,96.101089,-209.082703,60.187667,24.830163,13.390236,19.939844,-1.0,-1.0,100.077271,-0.081909,-0.008185,0.017334,0.762325
879035.606095,-0.07304526,-0.17513793000000002,-9.790988220000001,0.005709,-0.002888,0.003159,-78.053741,95.832306,-209.30304,60.187667,24.830163,13.390236,19.939844,-1.0,-1.0,100.077271,-0.081909,-0.008163,0.017352,0.762319
879035.62608,-0.08951625,-0.16794720000000002,-9.820182780000001,0.004467,0.000443,0.005101,-78.237228,95.898727,-209.006363,60.187667,24.830163,13.390236,19.939844,-1.0,-1.0,100.077271,-0.081909,-0.00816,0.017386,0.762315
879035.646065,-0.07784234999999999,-0.17035065,-9.78215922,0.002876,-0.002365,0.005452,-78.034088,96.001556,-208.734619,60.187667,24.830163,13.390236,19.939844,-1.0,-1.0,100.077271,-0.081909,-0.008153,0.01739,0.762318
879035.66605,-0.07813665,-0.16750575,-9.82586277,0.001693,-0.002653,0.004808,-78.073502,96.058029,-208.761642,60.187667,24.830163,13.390236,19.939844,-1.0,-1.0,100.077271,-0.081909,-0.00819,0.017377,0.762323
879035.686035,-0.07559586,-0.17468667000000002,-9.81509139,0.00165,-0.003055,0.004598,-78.065048,96.164856,-209.020752,60.187667,24.830163,13.390236,19.939844,-1.0,-1.0,100.077271,-0.081909,-0.008213,0.017353,0.762327
879035.70602,-0.07199559,-0.16450389,-9.80581113,0.002414,-0.002434,0.003316,-78.099854,96.134445,-209.121414,60.187667,24.830163,13.390236,19.939844,-1.0,-1.0,100.077271,-0.081909,-0.008255,0.017329,0.762323
879035.726004,-0.07260381,-0.17423541,-9.83769363,0.002487,0.000523,0.004126,-78.099854,96.134445,-209.121414,60.187667,24.830163,13.390236,19.939844,-1.0,-1.0,100.077271,-0.081909,-0.00829,0.017303,0.76231
879035.765974,-0.0811287,-0.16839846000000003,-9.8358984,0.000927,-0.001231,0.004255,-78.086868,95.988998,-209.13443,60.187667,24.830163,13.390236,19.939844,-1.0,-1.0,100.077271,-0.081909,-0.008303,0.017287,0.762315
879035.765974,-0.0811287,-0.16839846000000003,-9.8358984,0.000927,-0.001231,0.004255,-78.086868,95.988998,-209.13443,60.187667,24.830163,13.390236,19.939844,-1.0,-1.0,100.077271,-0.081909,-0.008303,0.017287,0.762315
879035.805944,-0.0782838,-0.16959528000000001,-9.8128449,0.003545,-0.000268,0.004912,-78.060638,95.99118,-208.574707,60.187667,24.830163,13.390236,19.939844,-1.0,-1.0,100.077271,-0.081909,-0.008288,0.017283,0.762316
879035.825929,-0.08352234000000001,-0.17528507999999998,-9.82646118,0.003453,-0.00043,0.00448,-78.03714,96.103683,-208.67131,60.187667,24.830163,13.390236,19.939844,-1.0,-1.0,100.077271,-0.081909,-0.008265,0.017294,0.762323
879035.825929,-0.08352234000000001,-0.17528507999999998,-9.82646118,0.003453,-0.00043,0.00448,-78.03714,96.103683,-208.67131,60.187667,24.830163,13.390236,19.939844,-1.0,-1.0,100.077271,-0.081909,-0.008265,0.017294,0.762323
879035.845914,-0.06870924,-0.17109621000000003,-9.80655669,0.00382,0.000846,0.005444,-78.195984,95.753174,-209.0289,60.187667,24.830163,13.390236,19.939844,-1.0,-1.0,100.077271,-0.081909,-0.008251,0.017303,0.762326
879035.885884,-0.08128566000000001,-0.16720164,-9.79398027,0.002893,0.000312,0.003396,-78.128281,95.801102,-209.134995,60.187667,24.830163,13.390236,19.939844,-1.0,-1.0,100.077271,-0.081909,-0.008201,0.017306,0.76233
879035.885884,-0.08128566000000001,-0.16720164,-9.79398027,0.002893,0.000312,0.003396,-78.128281,95.801102,-209.134995,60.187667,24.830163,13.390236,19.939844,-1.0,-1.0,100.077271,-0.081909,-0.008201,0.017306,0.76233
879035.925854,-0.08248248000000001,-0.16870257000000002,-9.826912440000001,0.001949,0.000228,0.003518,-78.2034,95.902298,-209.19458,60.187667,24.830163,13.390236,19.939844,-1.0,-1.0,100.077271,-0.081909,-0.008156,0.017317,0.762331
879035.945839,-0.06885639,-0.17229302999999999,-9.80026848,0.004018,3.9e-05,0.004642,-78.044525,95.870193,-208.816879,60.187667,24.830163,13.390236,19.939844,-1.0,-1.0,100.077271,-0.081909,-0.008146,0.017302,0.762344
879035.945839,-0.06885639,-0.17229302999999999,-9.80026848,0.004018,3.9e-05,0.004642,-78.044525,95.870193,-208.816879,60.187667,24.830163,13.390236,19.939844,-1.0,-1.0,100.077271,-0.081909,-0.008146,0.017302,0.762344
879035.985808,-0.07529175,-0.17184177000000003,-9.796079610000001,0.002689,0.001089,0.004552,-78.206299,95.905701,-208.769745,60.187667,24.830163,13.390236,19.939844,-1.0,-1.0,100.077271,-0.081909,-0.008134,0.017299,0.762345
879036.005793,-0.0836793,-0.16585766999999998,-9.82078119,0.002551,-0.000238,0.004927,-78.435913,95.949921,-209.004532,60.187667,24.830163,13.390236,19.939844,-1.0,-1.0,100.077271,-0.081909,-0.008129,0.017302,0.762347
879036.025778,-0.07708698000000001,-0.15253569,-9.82466595,0.003533,0.000493,0.004918,-78.195541,95.871277,-208.739532,60.187667,24.830163,13.390236,19.939844,-1.0,-1.0,100.077271,-0.081909,-0.008123,0.017304,0.762346
879036.045763,-0.07693983,-0.16615197,-9.80461431,0.004008,-9.9e-05,0.0034,-78.141891,95.968536,-209.176071,60.187667,24.830163,13.390236,19.939844,-1.0,-1.0,100.077271,-0.081909,-0.008107,0.017311,0.762354
879036.065748,-0.09100737,-0.16854560999999998,-9.846826740000001,0.001641,0.00026,0.003002,-77.991074,96.166,-208.844116,60.187667,24.830163,13.390236,19.939844,-1.0,-1.0,100.077271,-0.081909,-0.008113,0.017314,0.76235
879036.085733,-0.08038314,-0.17244018,-9.7954812,0.003697,-0.000164,0.002972,-78.146896,96.022095,-209.338669,60.187667,24.830163,13.390236,19.939844,-1.0,-1.0,100.077271,-0.081909,-0.008096,0.017307,0.762341
879036.105718,-0.07244685000000001,-0.16899687,-9.82946304,0.003404,-0.000512,0.004092,-78.096207,96.087296,-208.939468,60.187667,24.830163,13.390236,19.939844,-1.0,-1.0,100.077271,-0.081909,-0.008099,0.017302,0.762338
879036.125703,-0.07768539,-0.16226721000000002,-9.80670384,0.003881,-0.001318,0.005192,-77.947113,96.002579,-209.157608,60.187667,24.830163,13.390236,19.939844,-1.0,-1.0,100.077271,-0.081909,-0.008095,0.017292,0.762335
879036.145688,-0.07005321,-0.16854560999999998,-9.796678020000002,0.004474,-0.000677,0.004396,-78.119644,96.022919,-208.79686,60.187667,24.830163,13.390236,19.939844,-1.0,-1.0,100.077271,-0.081909,-0.008105,0.017291,0.762344
879036.165673,-0.09011466,-0.16734879000000003,-9.833053500000002,0.00353,-0.000473,0.004244,-78.124252,95.940063,-208.876953,60.187667,24.830163,13.390236,19.939844,-1.0,-1.0,100.077271,-0.081909,-0.008109,0.017297,0.76235
879036.185658,-0.07184844,-0.17035065,-9.79847325,0.00358,-0.000588,0.005285,-78.107269,95.954315,-208.896759,60.187667,24.830163,13.390236,19.939844,-1.0,-1.0,100.077271,-0.081909,-0.008103,0.017296,0.762357
879036.205643,-0.08188407,-0.17109621000000003,-9.82901178,0.003357,-0.001165,0.003372,-78.063675,95.941925,-209.060074,60.187667,24.830163,13.390236,19.939844,-1.0,-1.0,100.077271,-0.081909,-0.008104,0.017298,0.762359
879036.225628,-0.0811287,-0.17184177000000003,-9.80445735,0.002504,0.000281,0.004757,-77.931442,96.034546,-209.255417,60.187667,24.830163,13.390236,19.939844,-1.0,-1.0,100.077271,-0.081909,-0.008106,0.017291,0.762352
879036.245613,-0.07844076,-0.15672456,-9.81777933,0.001914,-0.000351,0.003223,-78.140305,96.020248,-209.069061,60.187667,24.830163,13.390236,19.939844,-1.0,-1.0,100.077271,-0.081909,-0.008098,0.017288,0.762351
879036.245613,-0.07844076,-0.15672456,-9.81777933,0.001914,-0.000351,0.003223,-78.140305,96.020248,-209.069061,60.187667,24.830163,13.390236,19.939844,-1.0,-1.0,100.077271,-0.081909,-0.008098,0.017288,0.762351
879036.285582,-0.07050447,-0.17842428,-9.79473564,0.003991,-0.000213,0.004343,-77.949539,95.89917,-208.803802,60.187667,24.830163,13.390236,19.939844,-1.0,-1.0,100.077271,-0.081909,-0.008087,0.017294,0.762352
879036.305567,-0.08262963000000001,-0.16346403,-9.844727400000002,0.003901,-0.000574,0.004373,-78.145782,95.990082,-209.045975,60.187667,24.830163,13.390236,19.939844,-1.0,-1.0,100.077271,-0.081909,-0.008085,0.017295,0.762364
879036.325552,-0.08636724,-0.173637,-9.80281908,0.005861,0.000664,0.003938,-77.963821,95.968353,-209.154053,60.187667,24.830163,13.390236,19.939844,-1.0,-1.0,100.077271,-0.081909,-0.008077,0.0173,0.762376
879036.345537,-0.07469334000000001,-0.1562733,-9.827814960000001,0.005287,-0.001332,0.003354,-78.039871,95.846909,-208.943741,60.187667,24.830163,13.390236,19.939844,-1.0,-1.0,100.077271,-0.081909,-0.008069,0.017337,0.762372
879036.365522,-0.08921214,-0.17334270000000002,-9.823469130000001,0.003128,-0.000383,0.005236,-78.15062,95.900269,-209.099335,60.187667,24.830163,13.390236,19.939844,-1.0,-1.0,100.077271,-0.081909,-0.00808,0.017344,0.762371
879036.385507,-0.07260381,-0.15478218000000002,-9.79593246,0.00234,-0.000945,0.004251,-78.162186,95.780579,-209.149918,60.187667,24.830163,13.390236,19.939844,-1.0,-1.0,100.077271,-0.081909,-0.008067,0.01735,0.762377
879036.405492,-0.09026181000000001,-0.17004654,-9.831709530000001,0.001767,-0.000156,0.003961,-77.878632,96.086578,-208.816849,60.187667,24.830163,13.390236,19.939844,-1.0,-1.0,100.077271,-0.081909,-0.008076,0.017346,0.762366
879036.425477,-0.07933347,-0.16585766999999998,-9.79742358,0.003335,-0.000484,0.003031,-77.878632,96.086578,-208.816849,60.187667,24.830163,13.390236,19.939844,-1.0,-1.0,100.077415,-0.092476,-0.008074,0.017327,0.762367
879036.445462,-0.08232552,-0.164808,-9.829610190000002,0.0038,-0.000446,0.002902,-78.008057,96.120453,-208.837723,60.187667,24.830163,13.390236,19.939844,-1.0,-1.0,100.077415,-0.092476,-0.008078,0.017335,0.762368
879036.465447,-0.07784234999999999,-0.16555356,-9.81583695,0.003887,0.000191,0.004914,-78.170029,95.951324,-208.639404,60.187667,24.830163,13.390236,19.939844,-1.0,-1.0,100.077415,-0.092476,-0.008076,0.017347,0.76237
879036.505417,-0.07784234999999999,-0.16165899,-9.83814489,0.00442,-0.001018,0.004114,-78.110519,95.978821,-209.002426,60.187667,24.830163,13.390236,19.939844,-1.0,-1.0,100.077415,-0.092476,-0.008092,0.017364,0.762368
879036.505417,-0.07784234999999999,-0.16165899,-9.83814489,0.00442,-0.001018,0.004114,-78.110519,95.978821,-209.002426,60.187667,24.830163,13.390236,19.939844,-1.0,-1.0,100.077415,-0.092476,-0.008092,0.017364,0.762368
879036.525402,-0.08098155,-0.17483382000000003,-9.80086689,0.003704,-0.000531,0.006274,-78.022354,96.132217,-208.81131,60.187667,24.830163,13.390236,19.939844,-1.0,-1.0,100.077415,-0.092476,-0.008091,0.017357,0.762362
879036.565372,-0.08861373,-0.15342840000000002,-9.80670384,0.0037,-0.000244,0.004186,-78.001968,95.960831,-208.728912,60.187667,24.830163,13.390236,19.939844,-1.0,-1.0,100.077415,-0.092476,-0.008098,0.017347,0.76236
879036.585357,-0.08203122,-0.16645608,-9.80670384,0.004183,-0.001548,0.004157,-78.081894,96.179291,-208.880981,60.187667,24.830163,13.390236,19.939844,-1.0,-1.0,100.077415,-0.092476,-0.008092,0.017356,0.762356
879036.605342,-0.08067744,-0.16450389,-9.84098979,0.003023,-0.000193,0.001668,-77.931839,96.116318,-208.860931,60.187667,24.830163,13.390236,19.939844,-1.0,-1.0,100.077415,-0.092476,-0.008107,0.017358,0.762359
879036.625327,-0.07933347,-0.15642045000000002,-9.80670384,0.00449,0.000103,0.005999,-78.092728,96.118439,-208.939255,60.187667,24.830163,13.390236,19.939844,-1.0,-1.0,100.077415,-0.092476,-0.008111,0.017346,0.762348
879036.645312,-0.09131148000000001,-0.17124336,-9.834397469999999,0.003577,-0.001135,0.00347,-78.069717,96.0914,-208.934158,60.187667,24.830163,13.390236,19.939844,-1.0,-1.0,100.077415,-0.092476,-0.008109,0.017349,0.762352
879036.645312,-0.09131148000000001,-0.17124336,-9.834397469999999,0.003577,-0.001135,0.00347,-78.069717,96.0914,-208.934158,60.187667,24.830163,13.390236,19.939844,-1.0,-1.0,100.077415,-0.092476,-0.008109,0.017349,0.762352
879036.685281,-0.09040896000000001,-0.16061913,-9.80775351,0.00454,-0.001134,0.005975,-77.918381,96.032257,-209.082718,60.187667,24.830163,13.390236,19.939844,-1.0,-1.0,100.077415,-0.092476,-0.008119,0.017335,0.762348
879036.685281,-0.09040896000000001,-0.16061913,-9.80775351,0.00454,-0.001134,0.005975,-77.918381,96.032257,-209.082718,60.187667,24.830163,13.390236,19.939844,-1.0,-1.0,100.077415,-0.092476,-0.008119,0.017335,0.762348
879036.725251,-0.07050447,-0.16420959000000002,-9.813590460000002,0.002615,0.000377,0.004482,-78.002914,96.007782,-209.181778,60.187667,24.830163,13.390236,19.939844,-1.0,-1.0,100.077415,-0.092476,-0.008139,0.01733,0.76238
879036.745236,-0.07813665,-0.17453952,-9.830502899999999,0.004197,-0.001031,0.003863,-77.966965,95.917435,-209.191132,60.187667,24.830163,13.390236,19.939844,-1.0,-1.0,100.077415,-0.092476,-0.008144,0.017326,0.762382
879036.765221,-0.07199559,-0.16884972000000004,-9.803260530000001,0.003704,-0.001103,0.002913,-78.068726,96.139236,-209.195602,60.187667,24.830163,13.390236,19.939844,-1.0,-1.0,100.077415,-0.092476,-0.008144,0.017338,0.762379
879036.785206,-0.08772102000000001,-0.17229302999999999,-9.8361927,0.003298,-0.000655,0.003364,-77.831985,96.272675,-208.976624,60.187667,24.830163,13.390236,19.939844,-1.0,-1.0,100.077415,-0.092476,-0.008145,0.017343,0.762371
879036.805191,-0.08322804,-0.16375833,-9.820928340000002,0.004019,0.000486,0.003759,-78.138245,96.130356,-208.942749,60.187667,24.830163,13.390236,19.939844,-1.0,-1.0,100.077415,-0.092476,-0.008147,0.017342,0.762375
879036.825176,-0.059428980000000006,-0.17124336,-9.80565417,0.003744,-0.001521,0.00497,-78.094406,96.109894,-208.946655,60.187667,24.830163,13.390236,19.939844,-1.0,-1.0,100.077415,-0.092476,-0.008135,0.017337,0.762369
879036.845161,-0.07170129,-0.16989939,-9.825715620000002,0.002941,4e-06,0.004814,-77.860199,96.143417,-209.235168,60.187667,24.830163,13.390236,19.939844,-1.0,-1.0,100.077415,-0.092476,-0.008138,0.017344,0.762369
879036.865146,-0.08427771,-0.17318574,-9.80595828,0.003544,-0.000593,0.004901,-77.903915,95.990112,-209.170456,60.187667,24.830163,13.390236,19.939844,-1.0,-1.0,100.077415,-0.092476,-0.008119,0.017345,0.762371
879036.885131,-0.07020036,-0.15777423000000002,-9.82631403,0.002841,-0.001295,0.004873,-78.207962,96.082504,-209.012405,60.187667,24.830163,13.390236,19.939844,-1.0,-1.0,100.077415,-0.092476,-0.008124,0.017356,0.762373
879036.905116,-0.07589016,-0.17019369,-9.82062423,0.002103,-6.6e-05,0.00446,-77.9823,96.148849,-209.171127,60.187667,24.830163,13.390236,19.939844,-1.0,-1.0,100.077415,-0.092476,-0.008124,0.017338,0.762381
879036.925101,-0.07963758,-0.16270866,-9.80550702,0.00402,5.6e-05,0.003218,-78.002686,96.165497,-209.178711,60.187667,24.830163,13.390236,19.939844,-1.0,-1.0,100.077415,-0.092476,-0.008104,0.017328,0.76238
879036.945086,-0.08188407,-0.16600482,-9.819731520000001,0.002532,-5.5e-05,0.004368,-77.94339,95.958557,-209.046295,60.187667,24.830163,13.390236,19.939844,-1.0,-1.0,100.077415,-0.092476,-0.00808,0.017327,0.762371
879036.965071,-0.07469334000000001,-0.17678601,-9.799974180000001,0.001986,-0.000729,0.003144,-77.958511,95.9646,-209.050552,60.187667,24.830163,13.390236,19.939844,-1.0,-1.0,100.077415,-0.092476,-0.008069,0.017314,0.762364
879036.985056,-0.08576883000000002,-0.17184177000000003,-9.82586277,0.001584,-0.000572,0.004863,-77.879929,95.938049,-209.138565,60.187667,24.830163,13.390236,19.939844,-1.0,-1.0,100.077415,-0.092476,-0.008066,0.017293,0.762354
879037.005041,-0.08756406,-0.17887554,-9.812246490000001,0.003232,0.000216,0.005063,-77.980484,96.104767,-208.881363,60.187667,24.830163,13.390236,19.939844,-1.0,-1.0,100.077415,-0.092476,-0.008059,0.017269,0.762357
879037.025026,-0.07993188000000001,-0.16660323000000002,-9.81928026,0.003658,-0.00011,0.002183,-77.891251,96.161499,-208.886246,60.187667,24.830163,13.390236,19.939844,-1.0,-1.0,100.077415,-0.092476,-0.008066,0.017262,0.762358
879037.045011,-0.08023599000000001,-0.16705449,-9.8213796,0.003239,0.000586,0.00531,-78.105118,95.886551,-209.266129,60.187667,24.830163,13.390236,19.939844,-1.0,-1.0,100.077415,-0.092476,-0.008053,0.017262,0.762346
879037.064996,-0.08308089000000002,-0.17603064000000002,-9.7986204,0.002539,-0.0001,0.003209,-77.953262,95.890182,-209.088638,60.187667,24.830163,13.390236,19.939844,-1.0,-1.0,100.077415,-0.092476,-0.008043,0.017259,0.762348
879037.084981,-0.07050447,-0.17499078,-9.835751250000001,0.002085,-4.1e-05,0.00459,-78.060318,95.93396,-208.939209,60.187667,24.830163,13.390236,19.939844,-1.0,-1.0,100.077415,-0.092476,-0.008038,0.017262,0.762334
879037.124951,-0.08562168,-0.16570071,-9.816739470000002,0.00362,-0.000793,0.003286,-77.813751,96.069199,-208.849182,60.187667,24.830163,13.390236,19.939844,-1.0,-1.0,100.077415,-0.092476,-0.008018,0.017239,0.76233
879037.144936,-0.07574301000000001,-0.16765290000000002,-9.824822910000002,0.004426,-7.5e-05,0.004432,-77.813751,96.069199,-208.849182,60.187667,24.830163,13.390236,19.939844,-1.0,-1.0,100.077415,-0.092476,-0.008019,0.017228,0.762322
879037.164921,-0.07724394000000001,-0.16720164,-9.807302250000001,0.003402,0.0003,0.005454,-78.006821,95.966141,-208.777618,60.187667,24.830163,13.390236,19.939844,-1.0,-1.0,100.077415,-0.092476,-0.008013,0.017231,0.762324
879037.184906,-0.0751446,-0.17198892,-9.83829204,0.002391,0.000427,0.004557,-77.910416,96.129227,-208.950089,60.187667,24.830163,13.390236,19.939844,-1.0,-1.0,100.077415,-0.092476,-0.008003,0.017233,0.76233
879037.204891,-0.07244685000000001,-0.16734879000000003,-9.80385894,0.002045,-0.000251,0.00464,-77.78688,95.940887,-208.951538,60.187667,24.830163,13.390236,19.939844,-1.0,-1.0,100.077415,-0.092476,-0.007983,0.017214,0.762334
879037.224876,-0.07844076,-0.16974243,-9.82078119,0.003543,0.000507,0.004014,-78.040436,95.941086,-208.84787,60.187667,24.830163,13.390236,19.939844,-1.0,-1.0,100.077415,-0.092476,-0.007983,0.017214,0.762333
879037.224876,-0.07844076,-0.16974243,-9.82078119,0.003543,0.000507,0.004014,-78.040436,95.941086,-208.84787,60.187667,24.830163,13.390236,19.939844,-1.0,-1.0,100.077415,-0.092476,-0.007983,0.017214,0.762333
879037.264846,-0.0751446,-0.16046217000000002,-9.811343970000001,0.003785,-0.000775,0.004079,-77.963181,95.956451,-208.845551,60.187667,24.830163,13.390236,19.939844,-1.0,-1.0,100.077415,-0.092476,-0.007973,0.017228,0.762325
879037.284831,-0.07155414,-0.16301277,-9.82975734,0.003044,-0.00028,0.004511,-78.020752,95.914047,-208.832672,60.187667,24.830163,13.390236,19.939844,-1.0,-1.0,100.077415,-0.092476,-0.007972,0.017217,0.762318
879037.304816,-0.08517042000000001,-0.16989939,-9.7954812,0.004012,7.7e-05,0.00451,-77.934708,95.960159,-209.010712,60.187667,24.830163,13.390236,19.939844,-1.0,-1.0,100.077415,-0.092476,-0.00798,0.017227,0.762314
879037.324801,-0.07844076,-0.18022932,-9.8333478,0.004176,-0.000333,0.003393,-77.889343,96.053009,-209.024109,60.187667,24.830163,13.390236,19.939844,-1.0,-1.0,100.077415,-0.092476,-0.007983,0.017239,0.762313
879037.344786,-0.0782838,-0.17064495000000002,-9.81254079,0.002857,-2.3e-05,0.004505,-77.908127,96.111847,-208.769073,60.187667,24.830163,13.390236,19.939844,-1.0,-1.0,100.077415,-0.092476,-0.007981,0.017255,0.762303
879037.364771,-0.07215255000000001,-0.164808,-9.81928026,0.004551,-0.000663,0.004483,-77.747696,95.963821,-208.653214,60.187667,24.830163,13.390236,19.939844,-1.0,-1.0,100.077415,-0.092476,-0.007987,0.017253,0.762299
879037.384756,-0.07260381,-0.16959528000000001,-9.82107549,0.002072,-0.000787,0.003397,-77.865082,95.905212,-208.966888,60.187667,24.830163,13.390236,19.939844,-1.0,-1.0,100.077415,-0.092476,-0.007991,0.017265,0.762297
879037.404741,-0.06840513000000001,-0.17887554,-9.80445735,0.003225,-0.000829,0.005123,-77.973755,95.915466,-209.036545,60.187667,24.830163,13.390236,19.939844,-1.0,-1.0,100.077415,-0.092476,-0.007986,0.017247,0.762295
879037.424725,-0.08592579,-0.16825131000000002,-9.82542132,0.002031,-0.000532,0.004228,-77.886475,95.944794,-208.99968,60.187667,24.830163,13.390236,19.939844,-1.0,-1.0,100.077415,-0.092476,-0.007984,0.017252,0.762292
879037.444711,-0.08007903000000001,-0.17169462000000002,-9.80954874,0.002715,-0.00183,0.003242,-77.821426,96.191315,-208.76416,60.187667,24.830163,13.390236,19.939844,-1.0,-1.0,100.077415,-0.092476,-0.007995,0.017233,0.762281
879037.464696,-0.0754389,-0.17408826000000002,-9.80565417,0.002463,-0.002516,0.005117,-77.702896,96.204941,-208.823395,60.187667,24.830163,13.390236,19.939844,-1.0,-1.0,100.077415,-0.092476,-0.008006,0.017234,0.762281
879037.48468,-0.06960195,-0.17198892,-9.81718092,0.003045,-9.6e-05,0.004536,-78.031036,96.113022,-209.038986,60.187667,24.830163,13.390236,19.939844,-1.0,-1.0,100.077415,-0.092476,-0.008018,0.017234,0.762279
879037.504666,-0.07873506000000001,-0.17289144,-9.820182780000001,0.004934,-0.001401,0.003813,-77.695358,96.103546,-208.932007,60.187667,24.830163,13.390236,19.939844,-1.0,-1.0,100.077415,-0.092476,-0.008018,0.017241,0.762275
879037.52465,-0.08248248000000001,-0.1761876,-9.81494424,0.003332,0.000716,0.003935,-77.947342,96.071899,-209.172348,60.187667,24.830163,13.390236,19.939844,-1.0,-1.0,100.077415,-0.092476,-0.008024,0.017262,0.762273
879037.544635,-0.08352234000000001,-0.17064495000000002,-9.818829,0.002678,-0.001135,0.003332,-77.811783,96.123306,-208.794937,60.187667,24.830163,13.390236,19.939844,-1.0,-1.0,100.077415,-0.092476,-0.008022,0.017268,0.762263
879037.56462,-0.08053028999999999,-0.15837263999999998,-9.816141060000001,0.003022,0.00065,0.004681,-78.202255,95.99614,-209.242386,60.187667,24.830163,13.390236,19.939844,-1.0,-1.0,100.077415,-0.092476,-0.00803,0.017287,0.762247
879037.584605,-0.07380063,-0.16450389,-9.832307940000002,0.003878,-0.000929,0.00372,-77.996948,95.963364,-209.202164,60.187667,24.830163,13.390236,19.939844,-1.0,-1.0,100.077415,-0.092476,-0.008007,0.017292,0.762251
879037.60459,-0.07184844,-0.17678601,-9.81688662,0.003514,-0.000506,0.00267,-78.113541,95.917191,-209.141724,60.187667,24.830163,13.390236,19.939844,-1.0,-1.0,100.077415,-0.092476,-0.008014,0.017303,0.762238
879037.624575,-0.07993188000000001,-0.16555356,-9.81164808,0.002513,-0.00058,0.00502,-77.652206,96.17514,-209.117752,60.187667,24.830163,13.390236,19.939844,-1.0,-1.0,100.077415,-0.092476,-0.008023,0.017312,0.76222
879037.64456,-0.08921214,-0.15387966,-9.817485030000002,0.004217,-0.000446,0.003461,-77.954712,95.904068,-209.303162,60.187667,24.830163,13.390236,19.939844,-1.0,-1.0,100.077415,-0.092476,-0.008026,0.017306,0.762224
879037.664545,-0.07229970000000001,-0.18411408,-9.811343970000001,0.003811,2.3e-05,0.005798,-77.889008,95.999802,-209.550064,60.187667,24.830163,13.390236,19.939844,-1.0,-1.0,100.077415,-0.092476,-0.008026,0.017312,0.762208
879037.684531,-0.06571719000000001,-0.16466085000000003,-9.83350476,0.004355,-0.000872,0.004831,-77.857224,96.206543,-209.184174,60.187667,24.830163,13.390236,19.939844,-1.0,-1.0,100.077415,-0.092476,-0.008026,0.01731,0.762213
879037.704515,-0.07110288000000001,-0.16765290000000002,-9.819427410000001,0.004175,0.000258,0.005323,-77.664886,96.086212,-209.195358,60.187667,24.830163,13.390236,19.939844,-1.0,-1.0,100.077415,-0.092476,-0.00803,0.017328,0.762217
879037.7245,-0.07439904,-0.16420959000000002,-9.81344331,0.002657,-2.8e-05,0.00448,-77.891785,95.939728,-209.128937,60.187667,24.830163,13.390236,19.939844,-1.0,-1.0,100.077415,-0.092476,-0.008023,0.017336,0.762219
879037.744486,-0.07304526,-0.16720164,-9.820477080000002,0.002562,-0.000633,0.004947,-77.855957,96.065231,-208.721695,60.187667,24.830163,13.390236,19.939844,-1.0,-1.0,100.077415,-0.092476,-0.008029,0.01733,0.762231
879037.764471,-0.07244685000000001,-0.17229302999999999,-9.80445735,0.003194,-0.000153,0.003233,-77.954086,96.035202,-208.896118,60.187667,24.830163,13.390236,19.939844,-1.0,-1.0,100.077415,-0.092476,-0.00802,0.017338,0.762223
879037.804441,-0.07993188000000001,-0.1651023,-9.823469130000001,0.003635,-0.000532,0.00508,-77.99057,96.000214,-209.28833,60.187667,24.830163,13.390236,19.939844,-1.0,-1.0,100.077415,-0.092476,-0.008011,0.01733,0.762197
879037.804441,-0.07993188000000001,-0.1651023,-9.823469130000001,0.003635,-0.000532,0.00508,-77.99057,96.000214,-209.28833,60.187667,24.830163,13.390236,19.939844,-1.0,-1.0,100.077415,-0.092476,-0.008011,0.01733,0.762197
879037.844411,-0.07499745000000001,-0.17064495000000002,-9.8213796,0.00344,0.000244,0.004356,-77.937973,96.001495,-209.122345,60.187667,24.830163,13.390236,19.939844,-1.0,-1.0,100.077415,-0.092476,-0.008012,0.017331,0.762211
879037.844411,-0.07499745000000001,-0.17064495000000002,-9.8213796,0.00344,0.000244,0.004356,-77.937973,96.001495,-209.122345,60.187667,24.830163,13.390236,19.939844,-1.0,-1.0,100.077415,-0.092476,-0.008012,0.017331,0.762211
879037.884381,-0.09071307,-0.16390548000000002,-9.83274939,0.002264,0.000418,0.003529,-78.217255,95.995956,-209.178406,60.187667,24.830163,13.390236,19.939844,-1.0,-1.0,100.077415,-0.092476,-0.007997,0.017323,0.762213
879037.904366,-0.07229970000000001,-0.17139051000000002,-9.819133110000001,0.002353,0.001141,0.003979,-77.924652,96.025681,-208.962784,60.187667,24.830163,13.390236,19.939844,-1.0,-1.0,100.077415,-0.092476,-0.00799,0.017313,0.762209
879037.924351,-0.0666099,-0.17169462000000002,-9.81464013,0.003267,-0.000142,0.004928,-77.852005,96.144989,-209.179504,60.187667,24.830163,13.390236,19.939844,-1.0,-1.0,100.077415,-0.092476,-0.007978,0.017313,0.762209
879037.944336,-0.07275096,-0.16660323000000002,-9.83814489,0.00432,-0.000325,0.004698,-77.87825,96.26474,-208.802475,60.187667,24.830163,13.390236,19.939844,-1.0,-1.0,100.077415,-0.092476,-0.007971,0.017326,0.762202
879037.964321,-0.08442486000000002,-0.18576216000000004,-9.799071660000001,0.003652,-0.000367,0.00331,-78.009354,95.954086,-209.029068,60.187667,24.830163,13.390236,19.939844,-1.0,-1.0,100.077415,-0.092476,-0.007964,0.017334,0.7622
879037.984306,-0.07304526,-0.16690734000000002,-9.839037600000001,0.004171,-0.00066,0.00364,-78.011551,95.956726,-209.053329,60.187667,24.830163,13.390236,19.939844,-1.0,-1.0,100.077415,-0.092476,-0.007972,0.017325,0.762197
879038.004291,-0.07334937000000001,-0.17917965,-9.812246490000001,0.004146,0.000268,0.004235,-78.008301,96.20578,-208.841095,60.187667,24.830163,13.390236,19.939844,-1.0,-1.0,100.077415,-0.092476,-0.007974,0.017325,0.762197
879038.024276,-0.07184844,-0.173637,-9.819584370000001,0.002878,-0.000705,0.004873,-77.933212,95.997986,-209.127899,60.187667,24.830163,13.390236,19.939844,-1.0,-1.0,100.077415,-0.092476,-0.007962,0.017334,0.762207
879038.044261,-0.07619427,-0.17019369,-9.836045550000001,0.002867,-4.8e-05,0.003989,-78.031006,96.085388,-208.926346,60.187667,24.830163,13.390236,19.939844,-1.0,-1.0,100.077415,-0.092476,-0.007966,0.017328,0.762215
879038.064246,-0.07260381,-0.17274429,-9.79398027,0.003062,0.000664,0.004993,-78.031586,96.010162,-208.889069,60.187667,24.830163,13.390236,19.939844,-1.0,-1.0,100.077415,-0.092476,-0.007956,0.017335,0.762203
879038.084231,-0.08337519,-0.17423541,-9.83769363,0.004161,-0.000323,0.003857,-78.092545,96.015701,-208.805466,60.187667,24.830163,13.390236,19.939844,-1.0,-1.0,100.077415,-0.092476,-0.007955,0.017337,0.762205
879038.104216,-0.07559586,-0.17109621000000003,-9.8068608,0.003095,0.00079,0.004633,-78.020401,96.045532,-209.03476,60.187667,24.830163,13.390236,19.939844,-1.0,-1.0,100.077415,-0.092476,-0.007956,0.017352,0.762201
879038.124201,-0.07439904,-0.16165899,-9.82856052,0.004656,-0.001552,0.003814,-78.069122,95.959503,-208.866302,60.187667,24.830163,13.390236,19.939844,-1.0,-1.0,100.077415,-0.092476,-0.007949,0.017359,0.762196
879038.144186,-0.07948062,-0.16406244,-9.818829,0.003929,-0.000232,0.003744,-77.99971,96.023544,-208.809692,60.187667,24.830163,13.390236,19.939844,-1.0,-1.0,100.077415,-0.092476,-0.007965,0.017369,0.762196
879038.164171,-0.07978473,-0.17499078,-9.793087560000002,0.003944,-0.002769,0.001794,-77.996597,96.032318,-209.113678,60.187667,24.830163,13.390236,19.939844,-1.0,-1.0,100.077415,-0.092476,-0.007964,0.01737,0.762187
879038.184156,-0.07679268,-0.15942231,-9.84218661,0.002854,-0.00062,0.003507,-77.673096,96.144089,-208.70462,60.187667,24.830163,13.390236,19.939844,-1.0,-1.0,100.077415,-0.092476,-0.007984,0.017372,0.762163
879038.204141,-0.0754389,-0.17992521,-9.799071660000001,0.004327,0.000388,0.004238,-78.05838,96.149063,-208.857071,60.187667,24.830163,13.390236,19.939844,-1.0,-1.0,100.077415,-0.092476,-0.007982,0.01737,0.762149
879038.224126,-0.07184844,-0.16091343000000002,-9.81449298,0.002714,-0.000835,0.00425,-78.186142,96.152039,-208.768677,60.187667,24.830163,13.390236,19.939844,-1.0,-1.0,100.077415,-0.092476,-0.007991,0.017376,0.762142
879038.244111,-0.07648857,-0.17109621000000003,-9.828707670000002,0.003174,-0.001069,0.002612,-78.134262,96.171417,-208.893738,60.187667,24.830163,13.390236,19.939844,-1.0,-1.0,100.077415,-0.092476,-0.007991,0.017359,0.762143
879038.264096,-0.06301944000000001,-0.17812998000000002,-9.80521272,0.002792,-0.001332,0.003201,-77.887405,96.018509,-208.95578,60.187667,24.830163,13.390236,19.939844,-1.0,-1.0,100.077415,-0.092476,-0.007998,0.017366,0.762115
879038.284081,-0.07589016,-0.16870257000000002,-9.8302086,0.003772,-0.000205,0.003731,-77.915161,96.066345,-209.313797,60.187667,24.830163,13.390236,19.939844,-1.0,-1.0,100.077415,-0.092476,-0.008019,0.017357,0.762089
879038.304066,-0.0868185,-0.16705449,-9.81733788,0.0034,-0.000946,0.005292,-78.034348,96.00528,-209.001465,60.187667,24.830163,13.390236,19.939844,-1.0,-1.0,100.077415,-0.092476,-0.008024,0.017354,0.762083
879038.324051,-0.06811083000000001,-0.16525926000000002,-9.833053500000002,0.003948,-0.000749,0.004175,-78.209839,96.175705,-208.950668,60.187667,24.830163,13.390236,19.939844,-1.0,-1.0,100.077415,-0.092476,-0.008045,0.017363,0.762091
879038.344036,-0.08562168,-0.16165899,-9.80655669,0.002114,0.000487,0.002934,-78.094055,96.105835,-209.273682,60.187667,24.830163,13.390236,19.939844,-1.0,-1.0,100.077415,-0.092476,-0.008057,0.017369,0.762091
879038.364021,-0.07739109000000001,-0.16944813,-9.81389457,0.004009,-0.00099,0.003197,-78.041183,96.161545,-209.045975,60.187667,24.830163,13.390236,19.939844,-1.0,-1.0,100.077415,-0.092476,-0.008041,0.017367,0.762087
879038.384006,-0.07768539,-0.17214588000000003,-9.838890450000001,0.003142,0.000677,0.003434,-77.975967,96.102905,-208.817795,60.187667,24.830163,13.390236,19.939844,-1.0,-1.0,100.077415,-0.092476,-0.008035,0.017367,0.762074
879038.403991,-0.06975891000000001,-0.16780005,-9.783208890000001,0.003169,-0.00132,0.004919,-78.147598,96.011917,-208.980133,60.187667,24.830163,13.390236,19.939844,-1.0,-1.0,100.077415,-0.092476,-0.008039,0.017369,0.762068
879038.423976,-0.07559586,-0.17633475,-9.838890450000001,0.002046,0.000292,0.003534,-78.002594,96.03772,-208.851273,60.187667,24.830163,13.390236,19.939844,-1.0,-1.0,100.077415,-0.092476,-0.008043,0.017376,0.762087
879038.443962,-0.08696565,-0.17109621000000003,-9.8043102,0.00305,-0.001017,0.004894,-78.047058,96.17218,-208.837372,60.187667,24.830163,13.390236,19.939844,-1.0,-1.0,100.077415,-0.092476,-0.008037,0.017355,0.762081
879038.483932,-0.06945480000000001,-0.17169462000000002,-9.846522629999999,0.002722,0.000593,0.00349,-78.009796,96.071045,-208.931122,60.187667,24.830163,13.390236,19.939844,-1.0,-1.0,100.077415,-0.092476,-0.008028,0.017367,0.762086
879038.503917,-0.08038314,-0.17139051000000002,-9.80026848,0.00449,0.000741,0.004998,-77.991638,95.99762,-209.084854,60.187667,24.830163,13.390236,19.939844,-1.0,-1.0,100.077415,-0.092476,-0.008016,0.017363,0.762084
879038.503917,-0.08038314,-0.17139051000000002,-9.80026848,0.00449,0.000741,0.004998,-77.991638,95.99762,-209.084854,60.187667,24.830163,13.390236,19.939844,-1.0,-1.0,100.077415,-0.092476,-0.008016,0.017363,0.762084
879038.543887,-0.07724394000000001,-0.16630893,-9.78904584,0.002905,-0.000429,0.003422,-77.945587,95.855942,-208.988052,60.187667,24.830163,13.390236,19.939844,-1.0,-1.0,100.077415,-0.092476,-0.008006,0.017352,0.762088
879038.543887,-0.07724394000000001,-0.16630893,-9.78904584,0.002905,-0.000429,0.003422,-77.945587,95.855942,-208.988052,60.187667,24.830163,13.390236,19.939844,-1.0,-1.0,100.077415,-0.092476,-0.008006,0.017352,0.762088
879038.583857,-0.07020036,-0.17423541,-9.82272357,0.00308,0.000729,0.004924,-78.096802,96.014374,-208.920303,60.187667,24.830163,13.390236,19.939844,-1.0,-1.0,100.078011,-0.142685,-0.00801,0.017363,0.762088
879038.603842,-0.08457201,-0.17453952,-9.800121330000001,0.004518,0.001567,0.003622,-77.60054,96.120178,-208.577042,60.187667,24.830163,13.390236,19.939844,-1.0,-1.0,100.078011,-0.142685,-0.008003,0.017349,0.762087
879038.603842,-0.08457201,-0.17453952,-9.800121330000001,0.004518,0.001567,0.003622,-77.60054,96.120178,-208.577042,60.187667,24.830163,13.390236,19.939844,-1.0,-1.0,100.078011,-0.142685,-0.008003,0.017349,0.762087
879038.643812,-0.07648857,-0.16750575,-9.81718092,0.003722,-0.001044,0.003262,-77.816788,96.11644,-209.194839,60.187667,24.830163,13.390236,19.939844,-1.0,-1.0,100.078011,-0.142685,-0.007992,0.017336,0.76206
879038.663797,-0.06452037000000001,-0.17423541,-9.83858634,0.002932,8.8e-05,0.004879,-78.101807,95.99353,-209.14798,60.187667,24.830163,13.390236,19.939844,-1.0,-1.0,100.078011,-0.142685,-0.007989,0.017331,0.762049
879038.683782,-0.0751446,-0.16825131000000002,-9.813590460000002,0.002442,-0.000468,0.004758,-77.941055,95.940491,-208.86969,60.187667,24.830163,13.390236,19.939844,-1.0,-1.0,100.078011,-0.142685,-0.00798,0.017326,0.762059
879038.703767,-0.07603731000000001,-0.17318574,-9.81209934,0.003583,-0.000478,0.004265,-77.724442,95.961716,-208.958008,60.187667,24.830163,13.390236,19.939844,-1.0,-1.0,100.078011,-0.142685,-0.00798,0.017325,0.762058
879038.723752,-0.07529175,-0.16765290000000002,-9.83200383,0.003046,-0.000591,0.004572,-78.029694,95.970444,-208.65625,60.187667,24.830163,13.390236,19.939844,-1.0,-1.0,100.078011,-0.142685,-0.007979,0.017323,0.76207
879038.743737,-0.07753824,-0.17019369,-9.80266212,0.004843,0.000534,0.004903,-77.919205,95.998367,-208.925171,60.187667,24.830163,13.390236,19.939844,-1.0,-1.0,100.078011,-0.142685,-0.007974,0.017311,0.762065
879038.763722,-0.07873506000000001,-0.16675038,-9.835751250000001,0.003692,6.5e-05,0.005477,-77.89006,95.990448,-209.110794,60.187667,24.830163,13.390236,19.939844,-1.0,-1.0,100.078011,-0.142685,-0.007968,0.017322,0.762071
879038.783707,-0.07364367000000001,-0.17348985,-9.81194238,0.003808,0.000176,0.004629,-77.642029,96.029114,-208.84465,60.187667,24.830163,13.390236,19.939844,-1.0,-1.0,100.078011,-0.142685,-0.007952,0.01732,0.762079
879038.803692,-0.07978473,-0.16974243,-9.8128449,0.004903,-0.000541,0.00301,-77.767639,96.097275,-208.779358,60.187667,24.830163,13.390236,19.939844,-1.0,-1.0,100.078011,-0.142685,-0.007938,0.017322,0.762089
879038.823678,-0.08308089000000002,-0.16870257000000002,-9.827363700000001,0.002035,-0.000849,0.005124,-78.017258,96.007156,-209.050919,60.187667,24.830163,13.390236,19.939844,-1.0,-1.0,100.078011,-0.142685,-0.007937,0.017334,0.762076
879038.843663,-0.08382645000000001,-0.16106057999999998,-9.80940159,0.002523,-0.000867,0.003714,-78.054733,95.752884,-208.862289,60.187667,24.830163,13.390236,19.939844,-1.0,-1.0,100.078011,-0.142685,-0.007941,0.017315,0.762081
879038.863648,-0.07603731000000001,-0.16390548000000002,-9.827363700000001,0.002682,0.000208,0.005155,-77.590942,95.868546,-208.872177,60.187667,24.830163,13.390236,19.939844,-1.0,-1.0,100.078011,-0.142685,-0.007943,0.017314,0.762089
879038.883633,-0.08203122,-0.17603064000000002,-9.79562835,0.003193,-0.001015,0.004424,-78.203583,95.884064,-209.370743,60.187667,24.830163,13.390236,19.939844,-1.0,-1.0,100.078011,-0.142685,-0.007932,0.017306,0.762103
879038.903618,-0.07139718,-0.17573634,-9.83200383,0.003905,-0.000862,0.004057,-77.976212,95.936935,-209.218536,60.187667,24.830163,13.390236,19.939844,-1.0,-1.0,100.078011,-0.142685,-0.00795,0.017307,0.762104
879038.923603,-0.08232552,-0.17408826000000002,-9.823027680000001,0.002802,-0.001594,0.004867,-78.122238,96.133194,-209.115143,60.187667,24.830163,13.390236,19.939844,-1.0,-1.0,100.078011,-0.142685,-0.007956,0.017319,0.762112
879038.943588,-0.08038314,-0.18217170000000002,-9.81538569,0.003825,-0.000974,0.004295,-78.129135,96.0504,-209.121826,60.187667,24.830163,13.390236,19.939844,-1.0,-1.0,100.078011,-0.142685,-0.007972,0.017314,0.762122
879038.963573,-0.09205704,-0.16420959000000002,-9.84307932,0.002836,-0.000271,0.004448,-78.285233,95.979919,-209.17157,60.187667,24.830163,13.390236,19.939844,-1.0,-1.0,100.078011,-0.142685,-0.007979,0.017311,0.762121
879038.983558,-0.07784234999999999,-0.16555356,-9.823469130000001,0.004531,-0.00169,0.005688,-78.266296,96.050674,-209.21254,60.187667,24.830163,13.390236,19.939844,-1.0,-1.0,100.078011,-0.142685,-0.007974,0.0173,0.762128
879039.003543,-0.07095573000000001,-0.16585766999999998,-9.820477080000002,0.003944,-0.000349,0.004295,-78.289154,95.952789,-209.177628,60.187667,24.830163,13.390236,19.939844,-1.0,-1.0,100.078011,-0.142685,-0.007983,0.01731,0.762141
879039.023528,-0.07394778,-0.16884972000000004,-9.82466595,0.003493,-0.000915,0.003123,-77.968811,95.89119,-209.291763,60.187667,24.830163,13.390236,19.939844,-1.0,-1.0,100.078011,-0.142685,-0.007982,0.017322,0.762138
879039.043513,-0.06675705000000001,-0.15672456,-9.82841337,0.003505,-0.001453,0.003788,-78.104324,95.937149,-209.04332,60.187667,24.830163,13.390236,19.939844,-1.0,-1.0,100.078011,-0.142685,-0.007986,0.017331,0.762144
879039.063498,-0.09176274,-0.16375833,-9.82078119,0.001898,-0.001113,0.003675,-78.111862,95.934357,-209.028778,60.187667,24.830163,13.390236,19.939844,-1.0,-1.0,100.078011,-0.142685,-0.008016,0.017339,0.762141
879039.083483,-0.07903917,-0.17394111,-9.81344331,0.004113,-0.000948,0.003557,-78.115372,95.812424,-209.395477,60.187667,24.830163,13.390236,19.939844,-1.0,-1.0,100.078011,-0.142685,-0.008035,0.017321,0.762139
879039.103469,-0.07260381,-0.17094906,-9.82107549,0.003232,-0.000228,0.003982,-78.114044,96.040512,-209.334824,60.187667,24.830163,13.390236,19.939844,-1.0,-1.0,100.078011,-0.142685,-0.008036,0.017325,0.762139
879039.123454,-0.08067744,-0.16645608,-9.811795230000001,0.003759,-0.000957,0.003468,-78.213455,95.993301,-209.090286,60.187667,24.830163,13.390236,19.939844,-1.0,-1.0,100.078011,-0.142685,-0.00804,0.017327,0.76213
879039.143439,-0.06706116000000001,-0.16091343000000002,-9.82721655,0.002764,-0.000815,0.003873,-78.010864,95.776382,-209.43187,60.187667,24.830163,13.390236,19.939844,-1.0,-1.0,100.078011,-0.142685,-0.008053,0.017335,0.762125
879039.163424,-0.07020036,-0.16780005,-9.807155100000001,0.0033,-0.000127,0.002623,-78.028091,95.7155,-209.274567,60.187667,24.830163,13.390236,19.939844,-1.0,-1.0,100.078011,-0.142685,-0.008058,0.017332,0.762117
879039.183409,-0.08412075,-0.1704978,-9.82631403,0.003221,-0.001093,0.004045,-78.092545,95.804398,-209.131714,60.187667,24.830163,13.390236,19.939844,-1.0,-1.0,100.078011,-0.142685,-0.008057,0.017328,0.762105
879039.203394,-0.0811287,-0.164808,-9.82212516,0.001537,0.000887,0.004917,-78.187744,95.714096,-209.379929,60.187667,24.830163,13.390236,19.939844,-1.0,-1.0,100.078011,-0.142685,-0.008059,0.017318,0.762099
879039.243364,-0.08412075,-0.16091343000000002,-9.835143030000001,0.002963,0.001232,0.003933,-78.202972,96.0569,-209.279037,60.187667,24.830163,13.390236,19.939844,-1.0,-1.0,100.078011,-0.142685,-0.008055,0.017324,0.762101
879039.263349,-0.07753824,-0.1591182,-9.80416305,0.004234,-0.000472,0.002755,-78.230301,96.169754,-209.039215,60.187667,24.830163,13.390236,19.939844,-1.0,-1.0,100.078011,-0.142685,-0.008043,0.017332,0.762104
879039.283334,-0.07260381,-0.17334270000000002,-9.83425032,0.002504,-0.000319,0.004127,-78.230301,96.169754,-209.039215,60.187667,24.830163,13.390236,19.939844,-1.0,-1.0,100.078011,-0.142685,-0.008049,0.01733,0.762106
879039.303319,-0.07663572,-0.16825131000000002,-9.82062423,0.004751,-0.000102,0.003618,-78.076416,96.058624,-209.268646,60.187667,24.830163,13.390236,19.939844,-1.0,-1.0,100.078011,-0.142685,-0.008036,0.017326,0.762106
879039.323304,-0.07380063,-0.18306441,-9.80909748,0.002999,-0.002324,0.003132,-78.171188,95.899796,-209.095184,60.187667,24.830163,13.390236,19.939844,-1.0,-1.0,100.078011,-0.142685,-0.008037,0.017337,0.762104
879039.343289,-0.06945480000000001,-0.17198892,-9.83798793,0.00276,9e-05,0.004944,-78.019302,96.136612,-209.202133,60.187667,24.830163,13.390236,19.939844,-1.0,-1.0,100.078011,-0.142685,-0.008056,0.017336,0.762093
879039.363275,-0.07304526,-0.17693316,-9.78904584,0.004003,-0.000562,0.005841,-77.890106,96.075928,-209.401978,60.187667,24.830163,13.390236,19.939844,-1.0,-1.0,100.078011,-0.142685,-0.00805,0.01733,0.762098
879039.38326,-0.07693983,-0.17154747,-9.83634966,0.003045,-0.000173,0.003942,-78.032288,96.138565,-209.156281,60.187667,24.830163,13.390236,19.939844,-1.0,-1.0,100.078011,-0.142685,-0.008056,0.017339,0.762104
879039.403245,-0.07529175,-0.16705449,-9.81014715,0.003572,-0.000508,0.002403,-77.830399,96.053894,-209.153275,60.187667,24.830163,13.390236,19.939844,-1.0,-1.0,100.078011,-0.142685,-0.008047,0.017331,0.762107
879039.42323,-0.07349652000000001,-0.16810416,-9.81329616,0.003457,-0.001842,0.003936,-78.036041,95.724823,-209.372482,60.187667,24.830163,13.390236,19.939844,-1.0,-1.0,100.078011,-0.142685,-0.008042,0.017352,0.762087
879039.443215,-0.07304526,-0.1704978,-9.827814960000001,0.003637,-0.000473,0.004659,-78.170319,95.876892,-209.22493,60.187667,24.830163,13.390236,19.939844,-1.0,-1.0,100.078011,-0.142685,-0.008052,0.017336,0.762083
879039.4632,-0.06885639,-0.16301277,-9.81119682,0.002957,-0.000119,0.004388,-78.139542,95.949112,-209.191513,60.187667,24.830163,13.390236,19.939844,-1.0,-1.0,100.078011,-0.142685,-0.008046,0.017324,0.762078
879039.483185,-0.09100737,-0.16241436,-9.83679111,0.002846,0.000245,0.003237,-78.222687,95.989883,-208.849167,60.187667,24.830163,13.390236,19.939844,-1.0,-1.0,100.078011,-0.142685,-0.008039,0.017322,0.762095
879039.503171,-0.06885639,-0.16780005,-9.787397760000001,0.003972,-0.000638,0.00511,-78.076889,95.859589,-208.75296,60.187667,24.830163,13.390236,19.939844,-1.0,-1.0,100.078011,-0.142685,-0.008035,0.017314,0.762092
879039.523156,-0.0751446,-0.164808,-9.837840779999999,0.00287,-0.000595,0.004916,-78.00618,95.9879,-209.041046,60.187667,24.830163,13.390236,19.939844,-1.0,-1.0,100.078011,-0.142685,-0.008033,0.017303,0.762094
879039.543141,-0.07933347,-0.16226721000000002,-9.811500930000001,0.001814,-3.1e-05,0.004191,-77.967163,95.942474,-209.164871,60.187667,24.830163,13.390236,19.939844,-1.0,-1.0,100.078011,-0.142685,-0.008038,0.017297,0.762106
879039.563126,-0.07603731000000001,-0.16660323000000002,-9.807302250000001,0.00349,-0.000199,0.003646,-78.133987,96.020828,-209.015106,60.187667,24.830163,13.390236,19.939844,-1.0,-1.0,100.078011,-0.142685,-0.008034,0.017291,0.762109
879039.583112,-0.0782838,-0.15792138000000003,-9.84353058,0.00394,-0.000166,0.004613,-77.92569,95.785248,-209.142654,60.187667,24.830163,13.390236,19.939844,-1.0,-1.0,100.078011,-0.142685,-0.008035,0.017292,0.762104
879039.603097,-0.07559586,-0.17035065,-9.80490861,0.00486,0.000178,0.004545,-78.310303,95.962631,-209.226822,60.187667,24.830163,13.390236,19.939844,-1.0,-1.0,100.078011,-0.142685,-0.008016,0.017295,0.762104
879039.623082,-0.06481467,-0.16675038,-9.852065280000001,0.00334,-0.000124,0.003788,-78.021057,95.969742,-209.056778,60.187667,24.830163,13.390236,19.939844,-1.0,-1.0,100.078011,-0.142685,-0.008016,0.017306,0.762098
879039.643067,-0.06825798,-0.16286562,-9.799670070000001,0.003572,-0.001214,0.005307,-78.051025,96.090179,-209.51033,60.187667,24.830163,13.390236,19.939844,-1.0,-1.0,100.078766,-0.2061,-0.008004,0.0173,0.762084
879039.663052,-0.06870924,-0.15701886,-9.829610190000002,0.003285,0.00109,0.00261,-78.078583,95.884079,-209.082199,60.187667,24.830163,13.390236,19.939844,-1.0,-1.0,100.078766,-0.2061,-0.008005,0.017298,0.762078
879039.683037,-0.08382645000000001,-0.1707921,-9.83274939,0.003159,0.000659,0.004602,-78.178635,95.984375,-209.207687,60.187667,24.830163,13.390236,19.939844,-1.0,-1.0,100.078766,-0.2061,-0.007985,0.017296,0.762069
879039.703022,-0.06930765,-0.16914402,-9.80445735,0.00444,-0.001539,0.004544,-78.278564,95.937836,-209.203354,60.187667,24.830163,13.390236,19.939844,-1.0,-1.0,100.078766,-0.2061,-0.007981,0.017299,0.762074
879039.723007,-0.08607294000000001,-0.15942231,-9.835143030000001,0.0036,-0.000765,0.006253,-78.235046,95.961243,-209.212677,60.187667,24.830163,13.390236,19.939844,-1.0,-1.0,100.078766,-0.2061,-0.007991,0.017308,0.762083
879039.742992,-0.07813665,-0.16495515000000002,-9.80610543,0.004245,-0.001754,0.003699,-78.245102,95.949661,-209.226959,60.187667,24.830163,13.390236,19.939844,-1.0,-1.0,100.078766,-0.2061,-0.007988,0.017308,0.762106
879039.762977,-0.07574301000000001,-0.17543223,-9.820182780000001,0.004542,-0.001246,0.004278,-78.238876,95.656784,-209.205963,60.187667,24.830163,13.390236,19.939844,-1.0,-1.0,100.078766,-0.2061,-0.007994,0.017307,0.762106
879039.782962,-0.08337519,-0.17154747,-9.82197801,0.002505,-0.001134,0.003956,-78.123795,95.887192,-209.296448,60.187667,24.830163,13.390236,19.939844,-1.0,-1.0,100.078766,-0.2061,-0.007995,0.017311,0.762098
879039.802948,-0.0782838,-0.18157329000000003,-9.81239364,0.002868,-0.002613,0.002442,-78.275208,95.90741,-209.263809,60.187667,24.830163,13.390236,19.939844,-1.0,-1.0,100.078766,-0.2061,-0.007995,0.017306,0.762101
879039.822933,-0.07409493,-0.15942231,-9.843226470000001,0.002736,-0.000553,0.004861,-78.135437,95.87088,-209.091721,60.187667,24.830163,13.390236,19.939844,-1.0,-1.0,100.078766,-0.2061,-0.008009,0.017285,0.762084
879039.842918,-0.07349652000000001,-0.16810416,-9.81373761,0.002748,0.000195,0.003875,-77.964432,95.946854,-209.22435,60.187667,24.830163,13.390236,19.939844,-1.0,-1.0,100.078766,-0.2061,-0.008007,0.017279,0.762091
879039.862903,-0.07559586,-0.15088761,-9.84262806,0.003486,-0.000286,0.005501,-78.003174,96.017242,-209.337372,60.187667,24.830163,13.390236,19.939844,-1.0,-1.0,100.078766,-0.2061,-0.00801,0.017285,0.762095
879039.882888,-0.0782838,-0.16270866,-9.81418887,0.002139,-0.000105,0.004534,-77.935867,96.0448,-209.261536,60.187667,24.830163,13.390236,19.939844,-1.0,-1.0,100.078766,-0.2061,-0.008001,0.017281,0.762096
879039.902873,-0.06271533,-0.17214588000000003,-9.81254079,0.003245,-0.001306,0.00506,-77.898804,95.894104,-208.972046,60.187667,24.830163,13.390236,19.939844,-1.0,-1.0,100.078766,-0.2061,-0.008013,0.017278,0.762098
879039.922858,-0.08248248000000001,-0.16570071,-9.813590460000002,0.004467,0.000182,0.005989,-78.05365,95.984711,-209.044128,60.187667,24.830163,13.390236,19.939844,-1.0,-1.0,100.078766,-0.2061,-0.00801,0.017265,0.7621
879039.962828,-0.07768539,-0.17244018,-9.81329616,0.003596,-0.000501,0.005017,-77.965378,95.894836,-209.222961,60.187667,24.830163,13.390236,19.939844,-1.0,-1.0,100.078766,-0.2061,-0.008004,0.017277,0.762123
879039.962828,-0.07768539,-0.17244018,-9.81329616,0.003596,-0.000501,0.005017,-77.965378,95.894836,-209.222961,60.187667,24.830163,13.390236,19.939844,-1.0,-1.0,100.078766,-0.2061,-0.008004,0.017277,0.762123
879040.002799,-0.07529175,-0.17303859,-9.83290635,0.00452,-0.000946,0.004992,-77.975571,95.628036,-209.334152,60.187667,24.830163,13.390236,19.939844,-1.0,-1.0,100.078766,-0.2061,-0.007986,0.017274,0.762122
879040.002799,-0.07529175,-0.17303859,-9.83290635,0.00452,-0.000946,0.004992,-77.975571,95.628036,-209.334152,60.187667,24.830163,13.390236,19.939844,-1.0,-1.0,100.078766,-0.2061,-0.007986,0.017274,0.762122
879040.022784,-0.06945480000000001,-0.16211025,-9.808803180000002,0.003435,0.000286,0.004264,-77.879913,95.945068,-209.283096,60.187667,24.830163,13.390236,19.939844,-1.0,-1.0,100.078766,-0.2061,-0.007985,0.017288,0.76214
