timestamp,accel_x,accel_y,accel_z,gyro_x,gyro_y,gyro_z,mag_x,mag_y,mag_z,gps_lat,gps_lon,gps_alt,gps_accuracy,gps_speed,gps_course,pressure,altitude,roll,pitch,yaw
880260.202149,-9.41272443,0.4252635,-3.07535652,0.002747,-0.025133,0.003743,-118.182541,101.019485,-197.879776,60.187674,24.830139,12.674889,11.186872,-1.0,-1.0,100.075363,0.079269,-1.270253,-0.038691,-1.833384
880260.242121,-9.358533990000002,0.30955455000000004,-2.89617687,0.000973,-0.004891,0.002929,-118.113647,100.884369,-198.266541,60.187665,24.830102,12.275963,21.894098,-1.0,-1.0,100.075363,0.079269,-1.270241,-0.038669,-1.83337
880260.262107,-9.41871834,0.36823797,-2.8472249700000005,0.002,-0.004968,0.002434,-118.120819,101.099213,-197.818405,60.187665,24.830102,12.275963,21.894098,-1.0,-1.0,100.075363,0.079269,-1.270252,-0.038661,-1.833356
880260.282092,-9.390122190000001,0.42317397000000007,-2.8548669600000003,0.000555,0.007405,0.006018,-118.090866,100.961319,-197.675339,60.187665,24.830102,12.275963,21.894098,-1.0,-1.0,100.075363,0.079269,-1.270292,-0.038653,-1.833399
880260.282092,-9.390122190000001,0.42317397000000007,-2.8548669600000003,0.000555,0.007405,0.006018,-118.090866,100.961319,-197.675339,60.187665,24.830102,12.275963,21.894098,-1.0,-1.0,100.075363,0.079269,-1.270292,-0.038653,-1.833399
880260.322064,-9.446255010000002,0.36299943,-2.84198643,-0.000543,0.005311,0.004544,-118.157837,101.010269,-197.72525,60.187665,24.830102,12.275963,21.894098,-1.0,-1.0,100.075363,0.079269,-1.270265,-0.038653,-1.833366
880260.362035,-9.370512000000002,0.40445649000000006,-2.8864453500000002,0.001947,-0.002293,0.002443,-118.023239,101.117737,-197.78331,60.187665,24.830102,12.275963,21.894098,-1.0,-1.0,100.075363,0.079269,-1.270236,-0.038673,-1.83336
880260.382021,-9.441320580000001,0.39548034000000004,-2.8620478800000004,0.003913,0.005047,0.00692,-118.023239,101.117737,-197.78331,60.187665,24.830102,12.275963,21.894098,-1.0,-1.0,100.075363,0.079269,-1.27026,-0.038658,-1.833397
880260.402007,-9.369619290000001,0.32557428000000005,-2.88405171,0.006806,-0.004004,0.004733,-117.883667,101.229385,-197.824219,60.187665,24.830102,12.275963,21.894098,-1.0,-1.0,100.075363,0.079269,-1.270231,-0.038666,-1.833357
880260.402007,-9.369619290000001,0.32557428000000005,-2.88405171,0.006806,-0.004004,0.004733,-117.883667,101.229385,-197.824219,60.187665,24.830102,12.275963,21.894098,-1.0,-1.0,100.075363,0.079269,-1.270231,-0.038666,-1.833357
880260.441978,-9.414823770000002,0.40296537000000004,-2.8827077400000003,0.010974,-0.001809,0.005846,-118.169662,100.912048,-197.925217,60.187665,24.830102,12.275963,21.894098,-1.0,-1.0,100.075363,0.079269,-1.270261,-0.038689,-1.833396
880260.461964,-9.36018207,0.33081282000000006,-2.8957256100000004,-0.000742,0.000136,0.00281,-118.031204,101.027786,-198.045181,60.187665,24.830102,12.275963,21.894098,-1.0,-1.0,100.074936,0.113625,-1.270222,-0.038696,-1.833329
880260.48195,-9.41407821,0.38560167000000006,-2.86518708,0.003103,-0.001009,0.004369,-118.021805,100.864502,-198.044525,60.187665,24.830102,12.275963,21.894098,-1.0,-1.0,100.074936,0.113625,-1.270218,-0.038705,-1.833341
880260.48195,-9.41407821,0.38560167000000006,-2.86518708,0.003103,-0.001009,0.004369,-118.021805,100.864502,-198.044525,60.187665,24.830102,12.275963,21.894098,-1.0,-1.0,100.074936,0.113625,-1.270218,-0.038705,-1.833341
880260.521921,-9.35659161,0.36374499000000005,-2.90516283,-0.002382,0.001043,0.0059,-117.937927,100.983414,-198.120087,60.187665,24.830102,12.275963,21.894098,-1.0,-1.0,100.074936,0.113625,-1.270217,-0.038723,-1.833335
880260.541907,-9.42754734,0.36688419000000005,-2.8515708,0.009316,-0.002671,0.005078,-118.063263,100.935806,-198.084808,60.187665,24.830102,12.275963,21.894098,-1.0,-1.0,100.074936,0.113625,-1.270232,-0.038712,-1.833338
880260.561893,-9.3730626,0.36164565000000004,-2.8880934300000005,-0.001936,0.003472,0.004714,-117.965179,101.143753,-198.139511,60.187665,24.830102,12.275963,21.894098,-1.0,-1.0,100.074936,0.113625,-1.270237,-0.038711,-1.83333
880260.581878,-9.37156167,0.39952206,-2.88929025,0.004335,-0.003071,0.005172,-118.158798,100.850861,-197.957886,60.187665,24.830102,12.275963,21.894098,-1.0,-1.0,100.074936,0.113625,-1.270217,-0.038751,-1.833334
880260.601864,-9.4169133,0.38185425,-2.86803198,0.006505,0.00013,0.005059,-118.177216,100.995819,-197.708878,60.187665,24.830102,12.275963,21.894098,-1.0,-1.0,100.074936,0.113625,-1.270252,-0.038737,-1.83336
880260.62185,-9.38368683,0.34353639,-2.88225648,-0.001328,0.001503,0.004819,-118.040512,100.937393,-198.014069,60.187665,24.830102,12.275963,21.894098,-1.0,-1.0,100.074936,0.113625,-1.270228,-0.038752,-1.83334
880260.641836,-9.39970656,0.40026762,-2.87327052,0.009193,-0.006003,0.002547,-117.899826,101.06546,-198.02298,60.187665,24.830102,12.275963,21.894098,-1.0,-1.0,100.074936,0.113625,-1.270224,-0.038773,-1.83334
880260.66182,-9.40074642,0.40296537000000004,-2.86279344,5e-05,0.005334,0.005553,-118.073303,100.735397,-198.36293,60.187665,24.830102,12.275963,21.894098,-1.0,-1.0,100.074936,0.113625,-1.27025,-0.038758,-1.833347
880260.681806,-9.36842247,0.35625996000000004,-2.883159,0.006173,-0.006295,0.004762,-118.256912,100.806564,-198.162354,60.187665,24.830102,12.275963,21.894098,-1.0,-1.0,100.074936,0.113625,-1.270216,-0.038785,-1.833321
880260.701792,-9.41422536,0.38574882000000005,-2.8692288,0.000749,0.001626,0.005119,-118.05455,100.817596,-197.912155,60.187665,24.830102,12.275963,21.894098,-1.0,-1.0,100.074936,0.113625,-1.270246,-0.038775,-1.833307
880260.721778,-9.397312920000001,0.40715424,-2.8886918400000003,0.001799,0.00203,0.004853,-118.003906,101.007217,-197.985291,60.187665,24.830102,12.275963,21.894098,-1.0,-1.0,100.074936,0.113625,-1.270261,-0.038779,-1.833327
880260.741763,-9.37859544,0.36104724000000005,-2.90156256,0.007603,-0.006387,0.002364,-117.997726,100.72583,-197.811508,60.187665,24.830102,12.275963,21.894098,-1.0,-1.0,100.074936,0.113625,-1.270249,-0.038783,-1.833286
880260.761749,-9.41616774,0.38096154000000004,-2.8678848300000004,-0.001515,0.005458,0.005617,-118.17131,101.034576,-197.842987,60.187665,24.830102,12.275963,21.894098,-1.0,-1.0,100.074936,0.113625,-1.270281,-0.03878,-1.833279
880260.781735,-9.38009637,0.36898353,-2.90605554,0.006299,-0.004509,0.003115,-117.988937,100.97171,-197.889816,60.187665,24.830102,12.275963,21.894098,-1.0,-1.0,100.074936,0.113625,-1.270269,-0.038784,-1.833276
880260.801721,-9.38084193,0.37811664000000006,-2.88615105,0.000702,0.000197,0.003649,-118.137634,100.764175,-197.918777,60.187665,24.830102,12.275963,21.894098,-1.0,-1.0,100.074936,0.113625,-1.27028,-0.03878,-1.833255
880260.821706,-9.40987953,0.38020617,-2.8551612600000005,0.003913,0.000588,0.006787,-118.123062,100.749527,-198.450089,60.187665,24.830102,12.275963,21.894098,-1.0,-1.0,100.074936,0.113625,-1.270303,-0.038769,-1.833275
880260.841692,-9.379341,0.35880075000000006,-2.89347912,0.004216,-0.002026,0.002534,-118.477829,100.70343,-198.103333,60.187665,24.830102,12.275963,21.894098,-1.0,-1.0,100.074936,0.113625,-1.270293,-0.038785,-1.83325
880260.861678,-9.39521358,0.38844657000000005,-2.8689345,-0.001811,0.002726,0.003581,-117.967987,100.925232,-197.785248,60.187665,24.830102,12.275963,21.894098,-1.0,-1.0,100.074936,0.113625,-1.270308,-0.038769,-1.833257
880260.881663,-9.390426300000001,0.35730963,-2.8827077400000003,0.004292,0.001038,0.007331,-118.094009,101.010666,-197.910019,60.187665,24.830102,12.275963,21.894098,-1.0,-1.0,100.074936,0.113625,-1.270337,-0.038775,-1.833265
880260.901649,-9.38548206,0.27453285,-2.98688994,-0.005318,0.010569,0.001001,-118.292465,100.713608,-198.100876,60.187665,24.830102,12.275963,21.894098,-1.0,-1.0,100.074936,0.113625,-1.270311,-0.038816,-1.833283
880260.901649,-9.38548206,0.27453285,-2.98688994,-0.005318,0.010569,0.001001,-118.292465,100.713608,-198.100876,60.187665,24.830102,12.275963,21.894098,-1.0,-1.0,100.074936,0.113625,-1.270311,-0.038816,-1.833283
880260.961606,-9.493705980000001,0.74485368,-3.09631068,-0.006574,0.0164,-0.013047,-117.84938,100.767426,-197.633453,60.187665,24.830102,12.275963,21.894098,-1.0,-1.0,100.074936,0.113625,-1.270156,-0.038806,-1.834486
880260.981592,-9.02847654,0.8155053,-3.0942113400000006,0.002303,-0.006622,0.017318,-117.473984,100.571777,-197.863068,60.187665,24.830102,12.275963,21.894098,-1.0,-1.0,100.074936,0.113625,-1.269918,-0.038684,-1.83497
880260.981592,-9.02847654,0.8155053,-3.0942113400000006,0.002303,-0.006622,0.017318,-117.473984,100.571777,-197.863068,60.187665,24.830102,12.275963,21.894098,-1.0,-1.0,100.074936,0.113625,-1.269918,-0.038684,-1.83497
880261.001578,-9.53562411,0.33215679000000004,-3.1448113200000005,0.025558,-0.009367,0.009226,-117.577759,100.520203,-197.788712,60.187665,24.830102,12.275963,21.894098,-1.0,-1.0,100.074936,0.113625,-1.26986,-0.038661,-1.834931
880261.041549,-9.27725814,0.08427771,-2.75277429,-0.021919,-0.026165,0.004335,-117.794052,100.635193,-197.815018,60.187665,24.830102,12.275963,21.894098,-1.0,-1.0,100.074936,0.113625,-1.269987,-0.038884,-1.833861
880261.061535,-9.492813270000001,0.32482872,-2.92880493,-0.013305,0.011973,-0.005363,-117.774643,100.846054,-198.033478,60.187665,24.830102,12.275963,21.894098,-1.0,-1.0,100.074936,0.113625,-1.269981,-0.038868,-1.834002
880261.081521,-9.28923615,0.45520362000000003,-2.87342748,5.4e-05,-0.005536,0.002761,-117.492783,100.857346,-197.730377,60.187665,24.830102,12.275963,21.894098,-1.0,-1.0,100.074936,0.113625,-1.270006,-0.038836,-1.834423
880261.081521,-9.28923615,0.45520362000000003,-2.87342748,5.4e-05,-0.005536,0.002761,-117.492783,100.857346,-197.730377,60.187665,24.830102,12.275963,21.894098,-1.0,-1.0,100.074936,0.113625,-1.270006,-0.038836,-1.834423
880261.121492,-9.32276673,0.41029344,-2.97041895,0.00914,0.002629,0.009955,-117.624466,100.49646,-197.890869,60.187665,24.830102,12.275963,21.894098,-1.0,-1.0,100.074936,0.113625,-1.269966,-0.038907,-1.834361
880261.141478,-9.28744092,0.29084688000000003,-2.8711809900000005,0.00709,-0.022515,0.006644,-117.536316,100.633286,-197.859741,60.187665,24.830102,12.275963,21.894098,-1.0,-1.0,100.074936,0.113625,-1.269917,-0.038902,-1.834066
880261.161464,-9.34895943,0.36389214000000003,-2.8689345,0.00706,-0.014046,-0.003905,-117.441101,100.651016,-197.689575,60.187665,24.830102,12.275963,21.894098,-1.0,-1.0,100.074936,0.113625,-1.270158,-0.038954,-1.833838
880261.18145,-9.68905251,0.41373675,-2.75188158,0.020599,0.01509,0.0135,-117.40535,100.611755,-198.230301,60.187665,24.830102,12.275963,21.894098,-1.0,-1.0,100.074936,0.113625,-1.270477,-0.038747,-1.833941
880261.201435,-9.07427943,0.19938825000000002,-2.9713214700000004,0.003899,-0.001052,0.008115,-117.534973,100.802673,-197.902145,60.187665,24.830102,12.275963,21.894098,-1.0,-1.0,100.074936,0.113625,-1.27022,-0.038774,-1.83363
880261.221421,-9.29956608,0.27572967000000004,-2.9440791,-0.00423,-0.023781,-0.007611,-117.352432,100.864319,-198.007751,60.187665,24.830102,12.275963,21.894098,-1.0,-1.0,100.074936,0.113625,-1.270179,-0.038892,-1.833502
880261.241407,-9.57678687,0.34547877,-2.90770362,0.011398,-0.001399,0.01067,-117.556931,100.964554,-198.19899,60.187665,24.830102,12.275963,21.894098,-1.0,-1.0,100.074936,0.113625,-1.270611,-0.038735,-1.833755
880261.261393,-9.39461517,0.24055101,-2.88419886,0.011398,-0.001399,0.01067,-117.414078,101.021591,-197.438324,60.187665,24.830102,12.275963,21.894098,-1.0,-1.0,100.074936,0.113625,-1.270791,-0.038794,-1.833654
880261.281378,-9.36108459,0.18322137,-2.9624924700000004,0.00818,-0.002565,0.005229,-117.17662,101.030426,-197.790375,60.187665,24.830102,12.275963,21.894098,-1.0,-1.0,100.074936,0.113625,-1.270796,-0.038887,-1.83347
880261.301364,-9.31348647,0.09415638000000001,-3.0108361500000003,0.03367,-0.014755,0.014038,-116.699173,101.297302,-197.612961,60.187665,24.830102,12.275963,21.894098,-1.0,-1.0,100.074936,0.113625,-1.270879,-0.038859,-1.833404
880261.32135,-9.17233038,0.25896438000000005,-3.22878492,0.049067,-0.071067,0.015759,-115.689178,101.638748,-197.101852,60.187665,24.830102,12.275963,21.894098,-1.0,-1.0,100.074936,0.113625,-1.271027,-0.038909,-1.832908
880261.341336,-9.06380235,0.33365772000000005,-3.1841788500000003,0.048617,-0.179162,0.000578,-115.075714,102.204941,-196.532684,60.187665,24.830102,12.275963,21.894098,-1.0,-1.0,100.074936,0.113625,-1.271997,-0.038883,-1.832122
880261.361322,-9.23190651,0.32901759,-3.1542387300000003,-0.000692,-0.250379,0.006192,-114.857483,103.092346,-196.04454,60.187665,24.830102,12.275963,21.894098,-1.0,-1.0,100.074936,0.113625,-1.275099,-0.038562,-1.831305
880261.381307,-9.25076133,0.32407335000000004,-2.9133934200000002,-0.040355,-0.317922,-0.003121,-114.809753,104.214615,-195.746277,60.187665,24.830102,12.275963,21.894098,-1.0,-1.0,100.074936,0.113625,-1.279794,-0.038553,-1.831075
880261.401293,-9.15196482,0.02185668,-2.8744771500000006,-0.076567,-0.401088,-0.00186,-115.362808,105.170578,-195.057343,60.187665,24.830102,12.275963,21.894098,-1.0,-1.0,100.074936,0.113625,-1.285772,-0.038657,-1.831768
880261.421279,-9.14538231,-0.25492266,-2.8868966100000004,-0.131797,-0.489866,-0.046268,-116.686523,106.390961,-194.557205,60.187665,24.830102,12.275963,21.894098,-1.0,-1.0,100.074936,0.113625,-1.293313,-0.038927,-1.833139
880261.441265,-9.639649350000001,0.18710613,-2.5896143700000005,-0.147619,-0.524302,0.007946,-120.234543,106.825241,-194.704208,60.187665,24.830102,12.275963,21.894098,-1.0,-1.0,100.074936,0.113625,-1.302677,-0.038813,-1.835654
880261.46125,-9.62588592,0.18590931,-2.6048787300000003,-0.156172,-0.484008,-0.005956,-122.737747,105.457504,-195.880051,60.187665,24.830102,12.275963,21.894098,-1.0,-1.0,100.074936,0.113625,-1.313095,-0.039305,-1.838704
880261.481236,-9.67558338,0.01511721,-2.83480551,-0.126358,-0.543642,-0.001715,-122.864899,103.883652,-195.937042,60.187665,24.830102,12.275963,21.894098,-1.0,-1.0,100.074936,0.113625,-1.323213,-0.039868,-1.84157
880261.501222,-9.23983299,0.25657074,-3.0726587700000003,-0.087253,-0.61887,0.008041,-118.718277,102.818802,-195.016937,60.187665,24.830102,12.275963,21.894098,-1.0,-1.0,100.074936,0.113625,-1.333715,-0.040258,-1.844279
880261.521208,-9.14103648,0.55713933,-2.99198133,-0.028004,-0.676226,0.03244,-114.377792,104.841217,-193.041107,60.187665,24.830102,12.275963,21.894098,-1.0,-1.0,100.074936,0.113625,-1.345809,-0.040764,-1.846219
880261.561179,-9.37650591,0.25177365,-2.20192317,0.006781,-0.853289,0.045964,-122.740402,108.300919,-192.694855,60.187665,24.830102,12.275963,21.894098,-1.0,-1.0,100.07489,0.118904,-1.374044,-0.04213,-1.846932
880261.581165,-9.34013043,0.27453285,-2.22257322,-0.01273,-0.967694,0.036162,-124.534042,105.277496,-193.67186,60.187665,24.830102,12.275963,21.894098,-1.0,-1.0,100.07489,0.118904,-1.390528,-0.042933,-1.846707
880261.581165,-9.34013043,0.27453285,-2.22257322,-0.01273,-0.967694,0.036162,-124.534042,105.277496,-193.67186,60.187665,24.830102,12.275963,21.894098,-1.0,-1.0,100.07489,0.118904,-1.390528,-0.042933,-1.846707
880261.601151,-9.13684761,0.49083354000000007,-2.10941487,-0.050493,-1.111492,0.041805,-120.529236,103.449844,-191.969604,60.187665,24.830102,12.275963,21.894098,-1.0,-1.0,100.07489,0.118904,-1.409312,-0.043672,-1.846726
880261.641122,-9.08116605,0.91175121,-1.7188787700000001,-0.057728,-1.42889,0.061153,-120.592972,108.529648,-187.395798,60.187665,24.830102,12.275963,21.894098,-1.0,-1.0,100.07489,0.118904,-1.455457,-0.04548,-1.848849
880261.661109,-9.20510559,0.8313680700000001,-1.30917393,-0.038005,-1.528396,0.069823,-123.693054,109.651642,-186.369125,60.187665,24.830102,12.275963,21.894098,-1.0,-1.0,100.07489,0.118904,-1.483192,-0.046681,-1.850026
880261.681095,-9.09702882,0.94393782,-1.14496434,-0.012881,-1.660123,0.079871,-126.222122,109.704422,-185.670822,60.187665,24.830102,12.275963,21.894098,-1.0,-1.0,100.07489,0.118904,-1.513216,-0.048037,-1.850835
880261.701081,-9.083706840000001,1.2328325100000002,-1.1587375800000002,0.020274,-1.796551,0.07935,-127.541718,109.130432,-185.124557,60.187665,24.830102,12.275963,21.894098,-1.0,-1.0,100.07489,0.118904,-1.545667,-0.049534,-1.851171
880261.721066,-15.034737330000002,3.09272022,0.006582510000000001,0.26033,-0.72288,0.045406,-127.687988,109.522125,-185.120163,60.187665,24.830102,12.275963,21.894098,-1.0,-1.0,100.07489,0.118904,-1.580789,-0.051311,-1.851278
880261.741052,-10.30591512,0.97851807,1.2410729100000002,0.345483,-0.749617,-0.021743,-128.319901,108.924637,-184.440186,60.187665,24.830102,12.275963,21.894098,-1.0,-1.0,100.07489,0.118904,-1.605292,-0.05721,-1.848566
880261.761038,-9.489664260000001,1.3750382700000001,1.94056515,0.433828,-0.835481,0.044923,-128.11174,107.245346,-184.252319,60.187665,24.830102,12.275963,21.894098,-1.0,-1.0,100.07489,0.118904,-1.627803,-0.058526,-1.844458
880261.781024,-10.025251019999999,1.3392612000000002,1.7604927900000003,0.485031,-0.686723,0.019894,-124.241241,105.997696,-183.61261,60.187665,24.830102,12.275963,21.894098,-1.0,-1.0,100.07489,0.118904,-1.64578,-0.059977,-1.837451
880261.801009,-10.153232280000001,1.22625,1.12596237,0.516085,-0.67239,-0.025036,-120.864731,108.311264,-181.517532,60.187665,24.830102,12.275963,21.894098,-1.0,-1.0,100.07489,0.118904,-1.660434,-0.060752,-1.828471
880261.820995,-9.85804938,0.8584632900000001,0.7896069000000001,0.506414,-0.627488,-0.031137,-120.864731,108.311264,-181.517532,60.187665,24.830102,12.275963,21.894098,-1.0,-1.0,100.07489,0.118904,-1.673063,-0.061223,-1.818651
880261.840981,-9.72677196,0.7414103700000001,0.86070978,0.488085,-0.634335,-0.030457,-123.646362,111.050537,-180.855911,60.187665,24.830102,12.275963,21.894098,-1.0,-1.0,100.07489,0.118904,-1.684733,-0.061582,-1.808376
880261.860967,-9.73396269,0.36059598,1.0529073,0.462041,-0.689946,-0.030949,-129.898422,109.98114,-182.209702,60.187665,24.830102,12.275963,21.894098,-1.0,-1.0,100.07489,0.118904,-1.696393,-0.06203,-1.798422
880261.880953,-9.731863350000001,0.31045707000000006,1.4974866900000001,0.422808,-0.74486,-0.04181,-130.003708,106.128876,-182.64595,60.187665,24.830102,12.275963,21.894098,-1.0,-1.0,100.07489,0.118904,-1.708786,-0.062609,-1.788938
880261.900938,-9.644142330000001,0.15971661,1.7893832400000003,0.332559,-0.833754,-0.03921,-124.391205,104.374908,-181.20752,60.187665,24.830102,12.275963,21.894098,-1.0,-1.0,100.07489,0.118904,-1.722796,-0.06302,-1.780245
880261.920924,-9.46720917,0.12813822000000002,1.93621932,0.220569,-0.930732,-0.024762,-121.29274,106.009766,-179.354462,60.187665,24.830102,12.275963,21.894098,-1.0,-1.0,100.07489,0.118904,-1.738698,-0.063288,-1.773159
880261.94091,-9.40314987,0.18546786,2.3571468,0.105415,-1.037648,-0.005167,-121.605423,107.781937,-178.274948,60.187665,24.830102,12.275963,21.894098,-1.0,-1.0,100.07489,0.118904,-1.756708,-0.063567,-1.768214
880261.960896,-9.43458111,0.23246757,2.23545375,0.037259,-1.009966,0.015631,-123.08609,108.995972,-177.482529,60.187665,24.830102,12.275963,21.894098,-1.0,-1.0,100.07489,0.118904,-1.77671,-0.06387,-1.765589
880261.980881,-9.17756892,0.07499745000000001,2.7867561300000006,-0.054862,-1.065452,0.045093,-124.537964,109.726486,-176.315811,60.187665,24.830102,12.275963,21.894098,-1.0,-1.0,100.07489,0.118904,-1.797195,-0.06424,-1.764742
880262.000867,-9.11589345,0.01227231,2.79005229,-0.153699,-1.165084,0.076249,-125.085114,110.084671,-175.903595,60.187665,24.830102,12.275963,21.894098,-1.0,-1.0,100.07489,0.118904,-1.818553,-0.064689,-1.765645
880262.020853,-9.71344998,-0.10269108,3.48535566,-0.269642,-1.227416,-0.002377,-125.316467,110.254181,-174.590179,60.187665,24.830102,12.275963,21.894098,-1.0,-1.0,100.07489,0.118904,-1.841672,-0.065205,-1.768536
880262.040839,-8.895855150000001,1.11233628,3.11292882,-0.222738,-1.222509,0.186498,-124.246033,109.785599,-173.246414,60.187665,24.830102,12.275963,21.894098,-1.0,-1.0,100.07489,0.118904,-1.866522,-0.064597,-1.773379
880262.060825,-9.67886973,0.35595585,2.4667245,-0.202898,-1.215028,0.03488,-123.63414,109.707443,-171.72197,60.187665,24.830102,12.275963,21.894098,-1.0,-1.0,100.07489,0.118904,-1.890534,-0.065019,-1.778374
880262.08081,-8.90662653,0.93750246,3.25078875,-0.147993,-1.25888,0.105356,-123.678101,110.140518,-170.862518,60.187665,24.830102,12.275963,21.894098,-1.0,-1.0,100.07489,0.118904,-1.914842,-0.065306,-1.782651
880262.100796,-8.922195,0.62330778,2.16988371,-0.106942,-1.070861,0.049611,-123.076019,110.102829,-169.195282,60.187665,24.830102,12.275963,21.894098,-1.0,-1.0,100.07489,0.118904,-1.939649,-0.06594,-1.786378
880262.120782,-9.5413041,1.06249167,2.97386226,-0.05693,-1.119594,0.046856,-122.921326,109.805847,-168.346054,60.187665,24.830102,12.275963,21.894098,-1.0,-1.0,100.07489,0.118904,-1.964323,-0.065913,-1.789248
880262.140768,-8.4334608,0.56641959,3.95792298,-0.056666,-1.020405,0.049159,-122.491531,109.496765,-167.335907,60.187665,24.830102,12.275963,21.894098,-1.0,-1.0,100.07489,0.118904,-1.988101,-0.066142,-1.791286
880262.180739,-8.144566110000001,0.56552688,4.8975149700000005,0.023111,-1.042319,0.021606,-121.52829,108.085297,-165.564819,60.187665,24.830102,12.275963,21.894098,-1.0,-1.0,100.07489,0.118904,-2.028922,-0.066663,-1.793737
880262.180739,-8.144566110000001,0.56552688,4.8975149700000005,0.023111,-1.042319,0.021606,-121.52829,108.085297,-165.564819,60.187665,24.830102,12.275963,21.894098,-1.0,-1.0,100.07489,0.118904,-2.028922,-0.066663,-1.793737
880262.200725,-8.89121502,0.7024842900000001,4.5870579000000005,0.049181,-1.069066,-0.009859,-121.282181,107.407303,-165.256393,60.187665,24.830102,12.275963,21.894098,-1.0,-1.0,100.07489,0.118904,-2.048918,-0.067196,-1.793671
880262.240697,-8.6389803,0.54950715,4.72177863,0.041485,-1.102659,0.022278,-122.145523,105.797989,-163.667053,60.187665,24.830102,12.275963,21.894098,-1.0,-1.0,100.07489,0.118904,-2.091739,-0.068384,-1.792219
880262.260683,-8.069117400000001,0.27123669,5.132827440000001,-0.000186,-1.135311,0.040177,-122.877869,105.380722,-162.944275,60.187665,24.830102,12.275963,21.894098,-1.0,-1.0,100.07489,0.118904,-2.113768,-0.069124,-1.791733
880262.280668,-8.35008561,0.40835106000000004,5.42801034,-0.016887,-1.149967,0.039513,-124.318207,105.30574,-162.510498,60.187665,24.830102,12.275963,21.894098,-1.0,-1.0,100.07489,0.118904,-2.136572,-0.069715,-1.792023
880262.300654,-7.691452020000001,0.5117877000000001,5.52800367,-0.027203,-1.171853,0.049528,-126.127563,105.035004,-161.922134,60.187665,24.830102,12.275963,21.894098,-1.0,-1.0,100.07489,0.118904,-2.159607,-0.070105,-1.792675
880262.32064,-8.02017531,0.55728648,5.6118301200000005,-0.017322,-1.15194,0.044776,-128.120087,105.489029,-160.734177,60.187665,24.830102,12.275963,21.894098,-1.0,-1.0,100.07489,0.118904,-2.182918,-0.070521,-1.793666
880262.340626,-7.69324725,0.48304440000000004,5.77469574,-0.010832,-1.146714,0.045956,-129.512009,106.628555,-159.705643,60.187665,24.830102,12.275963,21.894098,-1.0,-1.0,100.07489,0.118904,-2.206078,-0.070907,-1.79452
880262.360612,-7.491171060000001,0.32467176000000003,6.10056432,-0.009464,-1.132223,0.061716,-129.244293,108.256638,-158.335449,60.187665,24.830102,12.275963,21.894098,-1.0,-1.0,100.07489,0.118904,-2.229069,-0.071416,-1.795274
880262.380597,-7.591017240000001,-0.00404172,6.44739687,-0.023998,-1.101279,0.053576,-126.626984,109.444153,-155.891464,60.187665,24.830102,12.275963,21.894098,-1.0,-1.0,100.07489,0.118904,-2.251805,-0.07211,-1.796105
880262.400583,-7.148085930000001,-0.19564083,6.56115363,-0.041132,-1.083283,0.05857,-121.629791,109.23436,-153.41391,60.187665,24.830102,12.275963,21.894098,-1.0,-1.0,100.07489,0.118904,-2.273973,-0.072612,-1.797109
880262.420569,-7.28310096,-0.23935419000000002,6.51384981,-0.031462,-1.033865,0.053533,-119.205048,106.131683,-152.643036,60.187665,24.830102,12.275963,21.894098,-1.0,-1.0,100.07489,0.118904,-2.295601,-0.07296,-1.798317
880262.440555,-7.097044500000001,-0.21450546,6.19381818,-0.004992,-1.001778,0.030805,-124.906845,104.026718,-153.723907,60.187665,24.830102,12.275963,21.894098,-1.0,-1.0,100.07489,0.118904,-2.316283,-0.073263,-1.799494
880262.460541,-7.5077892,-0.06780672,6.4553233500000005,-0.003292,-0.867984,-0.024391,-124.804001,107.868607,-150.249268,60.187665,24.830102,12.275963,21.894098,-1.0,-1.0,100.07489,0.118904,-2.336447,-0.073564,-1.800119
880262.480526,-6.47493354,2.23005825,5.720358150000001,0.229437,-0.755046,0.018892,-119.710281,105.758636,-148.329529,60.187665,24.830102,12.275963,21.894098,-1.0,-1.0,100.07489,0.118904,-2.354922,-0.073439,-1.799876
880262.500512,-6.627920490000001,2.42585604,6.82535655,0.313279,-0.929998,-0.043043,-119.497314,101.969025,-149.48909,60.187665,24.830102,12.275963,21.894098,-1.0,-1.0,100.07489,0.118904,-2.37283,-0.074663,-1.798341
880262.520498,-5.948784000000001,2.08157409,7.1934375600000005,0.327595,-1.000576,-0.052304,-121.548859,101.393921,-148.50737,60.187665,24.830102,12.275963,21.894098,-1.0,-1.0,100.07489,0.118904,-2.392233,-0.078036,-1.794949
880262.540484,-6.480172080000001,1.7542045800000001,6.51415392,0.40879,-1.013678,-0.020058,-121.548859,101.393921,-148.50737,60.187665,24.830102,12.275963,21.894098,-1.0,-1.0,100.07489,0.118904,-2.411633,-0.081854,-1.789781
880262.56047,-6.086339820000001,1.40287905,6.38197398,0.490596,-1.031739,-0.004458,-122.977112,102.281143,-148.597427,60.187665,24.830102,12.275963,21.894098,-1.0,-1.0,100.07489,0.118904,-2.430855,-0.08732,-1.783953
880262.580455,-5.62844826,1.52922204,6.953494770000001,0.529102,-1.06155,0.047347,-123.115738,102.893524,-147.979645,60.187665,24.830102,12.275963,21.894098,-1.0,-1.0,100.07489,0.118904,-2.450829,-0.094452,-1.77779
880262.600441,-5.41903419,1.2478025700000002,7.158710160000001,0.519523,-1.182366,0.081564,-122.944687,103.949295,-146.990265,60.187665,24.830102,12.275963,21.894098,-1.0,-1.0,100.07489,0.118904,-2.471444,-0.102714,-1.771921
880262.620427,-5.57575875,1.29795129,7.27696971,0.500973,-1.264703,0.164269,-122.339493,104.486816,-146.400177,60.187665,24.830102,12.275963,21.894098,-1.0,-1.0,100.074638,0.140045,-2.493896,-0.111529,-1.766578
880262.640413,-5.5221667199999995,1.20379491,7.4904255,0.471875,-1.370317,0.140386,-121.436203,105.043243,-145.474304,60.187665,24.830102,12.275963,21.894098,-1.0,-1.0,100.074638,0.140045,-2.518451,-0.12145,-1.762911
880262.660399,-5.178777480000001,1.3681516500000002,8.108337780000001,0.415581,-1.451526,0.137476,-120.418457,105.615509,-144.540512,60.187665,24.830102,12.275963,21.894098,-1.0,-1.0,100.074638,0.140045,-2.545313,-0.130869,-1.759847
880262.680384,-4.17721572,1.1752085700000001,9.82646118,0.128597,-1.648535,0.179923,-119.574097,105.699829,-143.863312,60.187665,24.830102,12.275963,21.894098,-1.0,-1.0,100.074638,0.140045,-2.574344,-0.139523,-1.757298
880262.700369,-4.2081957,1.3793841000000002,9.41346999,0.128597,-1.648535,0.179923,-118.592819,105.675461,-142.168655,60.187665,24.830102,12.275963,21.894098,-1.0,-1.0,100.074638,0.140045,-2.606736,-0.144673,-1.758237
880262.720355,-4.35025431,1.81811673,8.931779370000001,-0.195329,-1.749353,0.26298,-117.422897,105.289246,-140.976944,60.187665,24.830102,12.275963,21.894098,-1.0,-1.0,100.074638,0.140045,-2.641984,-0.145774,-1.761983
880262.760327,-3.30722568,2.5255452600000003,8.47866528,-0.071028,-1.280799,0.468043,-112.149628,104.885086,-136.71788,60.187665,24.830102,12.275963,21.894098,-1.0,-1.0,100.074638,0.140045,-2.710388,-0.144698,-1.775466
880262.780313,-3.94145199,2.30715504,9.15600654,-0.081865,-1.078355,0.578203,-111.213211,108.301453,-134.360397,60.187665,24.830102,12.275963,21.894098,-1.0,-1.0,100.074638,0.140045,-2.738321,-0.146659,-1.783998
880262.800298,-3.90402684,1.97034831,9.107957160000002,-0.17282,-0.838013,0.684762,-114.550613,109.094833,-135.367462,60.187665,24.830102,12.275963,21.894098,-1.0,-1.0,100.074638,0.140045,-2.762648,-0.149266,-1.794711
880262.820284,-4.194128160000001,0.69575463,12.851678790000001,-0.313112,-1.230219,0.261164,-112.942032,107.703278,-134.848389,60.187665,24.830102,12.275963,21.894098,-1.0,-1.0,100.074638,0.140045,-2.782496,-0.151384,-1.807635
880262.84027,-3.24734544,1.09377576,8.386461090000001,-0.357715,-1.271456,0.154074,-110.982742,106.820496,-133.665237,60.187665,24.830102,12.275963,21.894098,-1.0,-1.0,100.074638,0.140045,-2.807338,-0.148969,-1.8164
880262.860256,-1.91676609,2.4379812,9.27575721,-0.147296,-1.456622,0.048832,-109.221436,106.903397,-132.435211,60.187665,24.830102,12.275963,21.894098,-1.0,-1.0,100.074638,0.140045,-2.83426,-0.14034,-1.823306
880262.880242,-2.43558756,2.68841088,6.72401925,0.118268,-1.182945,0.030234,-106.840179,107.987747,-130.547073,60.187665,24.830102,12.275963,21.894098,-1.0,-1.0,100.074638,0.140045,-2.860453,-0.13822,-1.825516
880262.900228,-2.4896210400000003,2.0122664400000003,9.95325543,0.148153,-1.205785,0.012233,-106.505585,109.793015,-129.522049,60.187665,24.830102,12.275963,21.894098,-1.0,-1.0,100.074638,0.140045,-2.885284,-0.138026,-1.826281
880262.920213,-1.43581122,1.7341431300000003,8.988804900000002,0.182334,-1.174063,0.005099,-109.691223,110.270111,-130.728668,60.187665,24.830102,12.275963,21.894098,-1.0,-1.0,100.074638,0.140045,-2.908803,-0.141374,-1.825592
880262.940199,-1.39330449,1.3681516500000002,10.85602068,0.021499,-1.230887,0.020787,-109.700378,108.235931,-130.677338,60.187665,24.830102,12.275963,21.894098,-1.0,-1.0,100.074638,0.140045,-2.932487,-0.144564,-1.824868
880262.960185,-1.5908877000000001,1.4555685600000001,9.11395107,0.019775,-1.161919,0.042163,-104.500565,107.542648,-127.963211,60.187665,24.830102,12.275963,21.894098,-1.0,-1.0,100.074638,0.140045,-2.95689,-0.145956,-1.824832
880262.980171,-3.07580778,0.38080458,12.645099810000001,-0.510315,-1.299475,-0.169118,-102.564102,109.674973,-126.566086,60.187665,24.830102,12.275963,21.894098,-1.0,-1.0,100.074638,0.140045,-2.980959,-0.146098,-1.825476
880263.000157,-1.8037450800000001,2.55114936,17.437834170000002,-1.307119,-1.904293,-0.167348,-102.165024,107.932358,-125.585892,60.187665,24.830102,12.275963,21.894098,-1.0,-1.0,100.074638,0.140045,-3.003413,-0.140932,-1.824788
880263.000157,-1.8037450800000001,2.55114936,17.437834170000002,-1.307119,-1.904293,-0.167348,-102.165024,107.932358,-125.585892,60.187665,24.830102,12.275963,21.894098,-1.0,-1.0,100.074638,0.140045,-3.003413,-0.140932,-1.824788
880263.040128,-1.31441247,0.56072979,17.56028259,-0.913618,-0.718106,0.055742,-105.926178,109.086899,-126.076385,60.187665,24.830102,12.275963,21.894098,-1.0,-1.0,100.074638,0.140045,-3.030604,-0.113726,-1.823636
880263.060114,0.32796792,1.5030293399999999,3.29165721,-0.300338,-0.285341,0.308365,-105.500656,105.989761,-126.526413,60.187665,24.830102,12.275963,21.894098,-1.0,-1.0,100.074638,0.140045,-3.046073,-0.098932,-1.825536
880263.0801,-0.71805276,0.51762465,12.56891535,-0.468275,-0.500828,0.244147,-100.125748,105.260071,-124.444778,60.187665,24.830102,12.275963,21.894098,-1.0,-1.0,100.074638,0.140045,-3.054524,-0.092024,-1.831628
880263.100086,0.17094906,0.23022108,9.45763461,-0.388917,-0.719179,0.047568,-101.350067,107.961777,-123.674911,60.187665,24.830102,12.275963,21.894098,-1.0,-1.0,100.074638,0.140045,-3.065757,-0.083116,-1.838058
880263.120072,-0.9318126600000001,0.00194238,8.28362286,-0.361857,-0.569577,-0.009325,-103.427063,106.972931,-123.877869,60.187665,24.830102,12.275963,21.894098,-1.0,-1.0,100.074638,0.140045,-3.079956,-0.07603,-1.839803
880263.140058,-0.36823797,0.71460945,10.10324052,-0.352108,-0.604964,-0.054543,-104.524872,105.257767,-123.642227,60.187665,24.830102,12.275963,21.894098,-1.0,-1.0,100.074638,0.140045,-3.093033,-0.068132,-1.840756
880263.160043,-0.22034241,0.5063922000000001,10.041270749999999,-0.336325,-0.586841,-0.001937,-102.999573,103.277313,-124.066772,60.187665,24.830102,12.275963,21.894098,-1.0,-1.0,100.074638,0.140045,-3.10591,-0.060732,-1.839764
880263.180029,-0.21420135,0.21046374,9.81299205,-0.307836,-0.476549,0.115321,-98.264664,103.437851,-122.601379,60.187665,24.830102,12.275963,21.894098,-1.0,-1.0,100.074638,0.140045,-3.117681,-0.053589,-1.839584
880263.200015,-0.16165899,0.31898196000000006,9.24552279,-0.235261,-0.405194,0.158284,-94.895691,105.451523,-121.353531,60.187665,24.830102,12.275963,21.894098,-1.0,-1.0,100.074638,0.140045,-3.127661,-0.047586,-1.84136
880263.220001,-0.46238454000000007,-0.14250006,10.023455790000002,-0.267906,-0.403275,0.082421,-96.129288,107.480804,-121.252182,60.187665,24.830102,12.275963,21.894098,-1.0,-1.0,100.074638,0.140045,-3.13629,-0.042491,-1.844417
880263.239987,-0.32557428000000005,0.31988447999999997,9.1854954,-0.229254,-0.382599,-0.007763,-99.687088,107.877808,-121.00322,60.187665,24.830102,12.275963,21.894098,-1.0,-1.0,100.074638,0.140045,3.138667,-0.037332,-1.846516
880263.259973,-1.21218246,1.14871176,11.971957230000001,-0.052424,-0.299357,0.057974,-99.687088,107.877808,-121.00322,60.187665,24.830102,12.275963,21.894098,-1.0,-1.0,100.074638,0.140045,3.13112,-0.032996,-1.847016
880263.279958,0.12558762,-0.68752404,10.38794634,-0.092521,-0.374645,-0.090157,-101.978516,106.498611,-121.593719,60.187665,24.830102,12.275963,21.894098,-1.0,-1.0,100.074638,0.140045,3.130863,-0.03304,-1.848251
880263.299944,1.02297699,-0.00643536,6.05431017,-0.003824,0.013582,0.052859,-101.698853,104.398697,-121.792435,60.187665,24.830102,12.275963,21.894098,-1.0,-1.0,100.074638,0.140045,3.130539,-0.0331,-1.847384
880263.31993,0.64710684,-0.01661814,8.22883401,0.01588,0.047506,0.065253,-99.511795,103.324463,-121.868134,60.187665,24.830102,12.275963,21.894098,-1.0,-1.0,100.074638,0.140045,3.131419,-0.03341,-1.848175
880263.339916,-0.38560167000000006,0.13531914,9.71285157,0.006664,0.029763,0.018804,-97.593246,102.732925,-121.811096,60.187665,24.830102,12.275963,21.894098,-1.0,-1.0,100.074638,0.140045,3.131226,-0.033325,-1.849547
880263.359902,-0.02963601,0.43574058,9.832602240000002,0.012873,-0.003954,0.009026,-96.05864,103.060394,-121.14682,60.187665,24.830102,12.275963,21.894098,-1.0,-1.0,100.074638,0.140045,3.131107,-0.0333,-1.850072
880263.379888,-0.058232160000000005,0.10119015,10.126588320000002,-0.003611,-0.019692,0.015259,-95.299042,103.281815,-120.898285,60.187665,24.830102,12.275963,21.894098,-1.0,-1.0,100.074638,0.140045,3.130863,-0.033382,-1.850216
880263.399873,0.021258270000000003,0.04879494,9.74638215,-0.001188,-0.01537,0.030332,-94.76889,103.568802,-120.849854,60.187665,24.830102,12.275963,21.894098,-1.0,-1.0,100.074638,0.140045,3.130715,-0.033375,-1.850357
880263.419859,0.03367773,0.12214431,9.63172287,0.003447,-0.015588,0.0443,-94.695999,103.800797,-120.519806,60.187665,24.830102,12.275963,21.894098,-1.0,-1.0,100.074638,0.140045,3.130617,-0.03345,-1.850817
880263.459831,0.023504760000000003,0.21135645000000003,9.751326390000001,5.2e-05,-0.008967,0.071627,-94.639374,104.639008,-120.711075,60.187665,24.830102,12.275963,21.894098,-1.0,-1.0,100.074638,0.140045,3.1304,-0.033486,-1.852577
880263.459831,0.023504760000000003,0.21135645000000003,9.751326390000001,5.2e-05,-0.008967,0.071627,-94.639374,104.639008,-120.711075,60.187665,24.830102,12.275963,21.894098,-1.0,-1.0,100.074638,0.140045,3.1304,-0.033486,-1.852577
880263.499803,0.01092834,0.28874754,9.87720831,-0.004096,-0.001317,0.10969,-94.606476,105.296677,-120.287872,60.187665,24.830102,12.275963,21.894098,-1.0,-1.0,100.074638,0.140045,3.130154,-0.033532,-1.855428
880263.499803,0.01092834,0.28874754,9.87720831,-0.004096,-0.001317,0.10969,-94.606476,105.296677,-120.287872,60.187665,24.830102,12.275963,21.894098,-1.0,-1.0,100.074638,0.140045,3.130154,-0.033532,-1.855428
880263.539774,-0.0489519,0.51148359,9.67154166,-0.000129,0.005742,0.212737,-95.270599,106.460037,-120.019974,60.187665,24.830102,12.275963,21.894098,-1.0,-1.0,100.074638,0.140045,3.129918,-0.033502,-1.860262
880263.55976,-0.01586277,0.5089428,9.75011976,-0.001787,-0.002903,0.236307,-96.182175,107.13475,-119.866425,60.187665,24.830102,12.275963,21.894098,-1.0,-1.0,100.074638,0.140045,3.129875,-0.033448,-1.864189
880263.579746,-0.017667810000000003,0.62914473,9.71524521,0.000625,0.001378,0.232502,-97.371048,108.114365,-119.892807,60.187665,24.830102,12.275963,21.894098,-1.0,-1.0,100.074638,0.140045,3.129803,-0.033359,-1.868749
880263.599732,0.14340258,0.72105462,9.79024266,-0.00094,0.008766,0.225538,-99.077866,108.639175,-119.910355,60.187665,24.830102,12.275963,21.894098,-1.0,-1.0,100.074638,0.140045,3.129855,-0.033291,-1.873334
880263.619718,0.08128566000000001,0.6224052600000001,9.84876912,-0.00094,0.008766,0.225538,-100.570358,108.106979,-120.948059,60.187665,24.830102,12.275963,21.894098,-1.0,-1.0,100.074638,0.140045,3.129819,-0.033207,-1.877797
880263.639704,0.03382488,0.49861287,9.63860949,-0.000646,0.009183,0.142479,-100.96077,106.711548,-121.47522,60.187665,24.830102,12.275963,21.894098,-1.0,-1.0,100.074638,0.140045,3.129889,-0.033203,-1.881788
880263.659689,0.14369688,0.35401347000000005,9.63935505,0.010844,-0.004922,0.068311,-99.963638,105.294296,-121.904022,60.187665,24.830102,12.275963,21.894098,-1.0,-1.0,100.074638,0.140045,3.129925,-0.033265,-1.88483
880263.679675,0.35281665,0.19264878,9.74563659,0.005394,-0.010945,-0.016482,-98.35817,104.582916,-122.127045,60.187665,24.830102,12.275963,21.894098,-1.0,-1.0,100.074638,0.140045,3.129864,-0.033462,-1.886522
880263.699661,0.21166056000000003,0.20597076000000003,9.78170796,0.003451,0.009302,-0.068509,-96.548416,104.671799,-121.852737,60.187665,24.830102,12.275963,21.894098,-1.0,-1.0,100.074013,0.192894,3.129663,-0.033549,-1.886551
880263.719647,0.19908414,-0.00913311,9.7582032,-0.001414,-0.004885,-0.112786,-95.886673,104.786926,-121.866867,60.187665,24.830102,12.275963,21.894098,-1.0,-1.0,100.074013,0.192894,3.129672,-0.033596,-1.88533
880263.739633,0.07559586,-0.0022464900000000003,9.63801108,-0.000605,-0.003565,-0.12972,-95.616867,105.24852,-121.813797,60.187665,24.830102,12.275963,21.894098,-1.0,-1.0,100.074013,0.192894,3.129658,-0.033594,-1.883215
880263.759619,0.029488860000000002,-0.07320222,9.6827643,0.001448,-0.00305,-0.125267,-95.562637,105.23877,-121.787201,60.187665,24.830102,12.275963,21.894098,-1.0,-1.0,100.074013,0.192894,3.129787,-0.033603,-1.88057
880263.779605,-0.030832830000000002,-0.11451213,9.744439770000001,0.001823,0.006181,-0.085787,-95.94603,105.216827,-122.257523,60.187665,24.830102,12.275963,21.894098,-1.0,-1.0,100.074013,0.192894,3.12982,-0.033584,-1.87793
880263.79959,-0.01571562,-0.01362609,9.735306660000001,0.001134,-0.003833,-0.013238,-96.130051,105.208359,-122.477783,60.187665,24.830102,12.275963,21.894098,-1.0,-1.0,100.074013,0.192894,3.129918,-0.033589,-1.87588
880263.819576,0.03143124,0.09700128,9.708809850000002,0.003328,0.000264,0.026769,-96.094482,104.944931,-122.303986,60.187665,24.830102,12.275963,21.894098,-1.0,-1.0,100.074013,0.192894,3.129951,-0.033605,-1.875123
880263.839562,0.030391380000000003,0.08487612,9.749227050000002,0.00256,0.001851,0.010538,-96.64743,104.776932,-122.241287,60.187665,24.830102,12.275963,21.894098,-1.0,-1.0,100.074013,0.192894,3.129924,-0.033604,-1.875464
880263.859548,-0.020355750000000002,0.15387966,9.732010500000001,0.005635,-0.000249,-0.003865,-97.442688,104.522278,-122.44075,60.187665,24.830102,12.275963,21.894098,-1.0,-1.0,100.074013,0.192894,3.129933,-0.033597,-1.875693
880263.879534,0.055534410000000006,0.22512969000000002,9.76733631,0.001766,0.003935,-0.00079,-98.311447,104.658752,-122.56543,60.187665,24.830102,12.275963,21.894098,-1.0,-1.0,100.074013,0.192894,3.129951,-0.033636,-1.875611
880263.89952,0.1474443,0.34114275,9.74188917,0.00025,0.000957,-0.00176,-99.135315,104.546783,-122.355438,60.187665,24.830102,12.275963,21.894098,-1.0,-1.0,100.074013,0.192894,3.129982,-0.033639,-1.875503
880263.919506,0.01856052,0.44352972000000007,9.77482134,0.001546,0.002755,0.001033,-99.561691,105.017914,-122.363815,60.187665,24.830102,12.275963,21.894098,-1.0,-1.0,100.074013,0.192894,3.129984,-0.033613,-1.875354
880263.939491,0.04939335000000001,0.53843166,9.77856876,0.000627,-0.003994,0.002592,-100.108398,105.166077,-122.13443,60.187665,24.830102,12.275963,21.894098,-1.0,-1.0,100.074013,0.192894,3.13002,-0.033599,-1.875257
880263.959477,0.173637,0.45670455000000004,9.696537540000001,0.004567,4.5e-05,0.001447,-100.480255,105.261658,-121.814941,60.187665,24.830102,12.275963,21.894098,-1.0,-1.0,100.074013,0.192894,3.130007,-0.033578,-1.875264
880263.979463,0.09415638000000001,0.47855142,9.70282575,0.002471,0.011914,0.005014,-100.480255,105.261658,-121.814941,60.187665,24.830102,12.275963,21.894098,-1.0,-1.0,100.074013,0.192894,3.129988,-0.03358,-1.875254
880263.999449,-0.00045126000000000004,0.49861287,9.67303278,0.004006,0.008142,0.002876,-100.353043,105.460403,-121.7155,60.187665,24.830102,12.275963,21.894098,-1.0,-1.0,100.074013,0.192894,3.130037,-0.033588,-1.875254
880264.039421,0.05029587,0.46029501,9.73126494,0.001513,0.003208,0.005617,-100.418228,105.482071,-121.56369,60.187665,24.830102,12.275963,21.894098,-1.0,-1.0,100.074013,0.192894,3.129988,-0.033592,-1.875197
880264.059407,0.08981055,0.43679025000000005,9.73215765,0.004661,0.000337,0.003093,-100.406738,105.410721,-122.113739,60.187665,24.830102,12.275963,21.894098,-1.0,-1.0,100.074013,0.192894,3.130005,-0.033592,-1.875191
880264.079392,0.06765957,0.38290392,9.7866522,0.000187,-0.001151,0.001669,-100.08551,105.246262,-121.806,60.187665,24.830102,12.275963,21.894098,-1.0,-1.0,100.074013,0.192894,3.12998,-0.033587,-1.875179
880264.099378,0.08726976,0.35671122,9.74698056,0.002045,0.000429,0.005257,-99.714905,104.970581,-121.88797,60.187665,24.830102,12.275963,21.894098,-1.0,-1.0,100.074013,0.192894,3.129988,-0.033571,-1.87516
880264.119364,0.09145863,0.34533162,9.70851555,0.004846,0.00083,0.003559,-99.188248,104.771439,-122.281387,60.187665,24.830102,12.275963,21.894098,-1.0,-1.0,100.074013,0.192894,3.12998,-0.033589,-1.875135
880264.119364,0.09145863,0.34533162,9.70851555,0.004846,0.00083,0.003559,-99.188248,104.771439,-122.281387,60.187665,24.830102,12.275963,21.894098,-1.0,-1.0,100.074013,0.192894,3.12998,-0.033589,-1.875135
880264.119364,0.09145863,0.34533162,9.70851555,0.004846,0.00083,0.003559,-99.188248,104.771439,-122.281387,60.187665,24.830102,12.275963,21.894098,-1.0,-1.0,100.074013,0.192894,3.12998,-0.033589,-1.875135
880264.179322,0.05883057,0.27662238,9.74279169,0.002853,0.004228,0.004119,-97.979233,104.490646,-122.370651,60.187665,24.830102,12.275963,21.894098,-1.0,-1.0,100.074013,0.192894,3.130011,-0.033585,-1.875146
880264.199308,0.0782838,0.23755896,9.74518533,0.001686,0.001549,0.003849,-97.651657,104.478592,-122.313583,60.187665,24.830102,12.275963,21.894098,-1.0,-1.0,100.074013,0.192894,3.130024,-0.033594,-1.875152
880264.219294,0.07948062,0.23665644,9.75176784,0.003861,0.001162,0.004406,-97.368057,104.394226,-122.33493,60.187665,24.830102,12.275963,21.894098,-1.0,-1.0,100.074013,0.192894,3.130026,-0.033591,-1.875141
880264.239279,0.07155414,0.22498254,9.74817738,0.001626,0.002791,0.003164,-97.28389,104.547882,-122.318222,60.187665,24.830102,12.275963,21.894098,-1.0,-1.0,100.074013,0.192894,3.130042,-0.033598,-1.875158
880264.259265,0.07739109000000001,0.21929274,9.74982546,0.004476,0.000518,0.005567,-97.260269,104.700989,-122.12883,60.187665,24.830102,12.275963,21.894098,-1.0,-1.0,100.074013,0.192894,3.130051,-0.033598,-1.875146
880264.279251,0.07768539,0.22348161,9.743841360000001,0.00176,0.002292,0.003274,-97.004852,104.914185,-122.103241,60.187665,24.830102,12.275963,21.894098,-1.0,-1.0,100.074013,0.192894,3.130046,-0.033605,-1.875163
880264.299237,0.052542359999999996,0.21899844000000002,9.775871010000001,0.001816,0.003484,0.004956,-97.01329,104.869415,-122.132996,60.187665,24.830102,12.275963,21.894098,-1.0,-1.0,100.074013,0.192894,3.130049,-0.033606,-1.875167
880264.319223,0.06825798,0.25925868,9.73755315,0.002844,0.000424,0.002462,-97.26268,104.67955,-122.129715,60.187665,24.830102,12.275963,21.894098,-1.0,-1.0,100.074013,0.192894,3.130061,-0.033595,-1.875178
880264.339209,0.06795387,0.27841761000000004,9.739348380000001,0.004087,0.001478,0.004695,-97.600784,104.400391,-122.236328,60.187665,24.830102,12.275963,21.894098,-1.0,-1.0,100.074013,0.192894,3.13005,-0.033599,-1.875171
880264.359195,0.0751446,0.29893032,9.77048532,0.003999,0.001896,0.002778,-97.649323,104.511414,-122.187866,60.187665,24.830102,12.275963,21.894098,-1.0,-1.0,100.074013,0.192894,3.130047,-0.033605,-1.875173
880264.379181,0.07784234999999999,0.3125466,9.756260820000001,0.001207,0.001182,0.002965,-97.965576,104.6035,-122.242798,60.187665,24.830102,12.275963,21.894098,-1.0,-1.0,100.074013,0.192894,3.130044,-0.033609,-1.875158
880264.399166,0.07708698000000001,0.34638129,9.723632760000001,0.005477,0.002342,0.006971,-97.949402,104.693253,-122.409225,60.187665,24.830102,12.275963,21.894098,-1.0,-1.0,100.074013,0.192894,3.130055,-0.033595,-1.875145
880264.419152,0.07155414,0.34159401,9.763451550000001,0.003537,0.000611,0.002131,-98.164505,104.464706,-122.306519,60.187665,24.830102,12.275963,21.894098,-1.0,-1.0,100.074013,0.192894,3.130056,-0.03361,-1.875167
880264.439138,0.07648857,0.34967745000000006,9.75850731,0.001185,0.000674,0.003475,-98.616577,104.591629,-122.452957,60.187665,24.830102,12.275963,21.894098,-1.0,-1.0,100.074013,0.192894,3.130055,-0.033603,-1.875159
880264.459124,0.07813665,0.36883638,9.70971237,0.001185,0.000674,0.003475,-98.576874,104.458038,-122.191849,60.187665,24.830102,12.275963,21.894098,-1.0,-1.0,100.074013,0.192894,3.130055,-0.033598,-1.875159
880264.47911,0.08098155,0.37706697,9.71823726,0.00248,0.002218,0.004231,-98.67543,104.602371,-122.514725,60.187665,24.830102,12.275963,21.894098,-1.0,-1.0,100.074013,0.192894,3.130051,-0.0336,-1.875152
880264.499096,0.07050447,0.37302525000000003,9.76464837,0.003926,0.001907,0.003314,-98.723877,104.603149,-122.533966,60.187665,24.830102,12.275963,21.894098,-1.0,-1.0,100.074013,0.192894,3.130048,-0.033595,-1.875139
880264.519082,0.0691605,0.36389214000000003,9.724074210000001,0.003103,0.001173,0.001868,-98.593613,104.724762,-122.182892,60.187665,24.830102,12.275963,21.894098,-1.0,-1.0,100.074013,0.192894,3.130052,-0.033581,-1.875149
880264.539068,0.07603731000000001,0.35431757999999997,9.75431844,0.003036,0.004684,0.005497,-98.45784,104.437454,-122.020432,60.187665,24.830102,12.275963,21.894098,-1.0,-1.0,100.074013,0.192894,3.130057,-0.033587,-1.875138
880264.559054,0.07184844,0.32018859000000005,9.7784118,0.003306,0.001649,0.004315,-98.468842,104.524918,-122.183578,60.187665,24.830102,12.275963,21.894098,-1.0,-1.0,100.074013,0.192894,3.130069,-0.033587,-1.875158
880264.579039,0.07079877000000001,0.31629402,9.77407578,0.00161,0.002983,0.004368,-98.366592,104.751846,-121.984268,60.187665,24.830102,12.275963,21.894098,-1.0,-1.0,100.074013,0.192894,3.130071,-0.033597,-1.875165
880264.599025,0.07903917,0.31629402,9.755368110000001,0.004728,0.003229,0.003472,-97.952087,104.600067,-122.265076,60.187665,24.830102,12.275963,21.894098,-1.0,-1.0,100.074013,0.192894,3.130082,-0.033604,-1.87517
880264.619011,0.06706116000000001,0.28709946000000003,9.747127710000001,0.002164,-0.001342,0.00405,-97.868546,104.607483,-121.685471,60.187665,24.830102,12.275963,21.894098,-1.0,-1.0,100.074013,0.192894,3.130081,-0.033618,-1.875176
880264.638997,0.07903917,0.2718351,9.76164651,0.002662,0.00306,0.003564,-97.903168,104.585861,-122.031525,60.187665,24.830102,12.275963,21.894098,-1.0,-1.0,100.074013,0.192894,3.130068,-0.033617,-1.875182
880264.678968,0.06137136000000001,0.28874754,9.75072798,0.00291,0.000581,0.004669,-97.748688,104.70488,-122.108032,60.187665,24.830102,12.275963,21.894098,-1.0,-1.0,100.074013,0.192894,3.130065,-0.033622,-1.87519
880264.698955,0.07065162,0.28410741,9.76060665,0.004714,0.001609,0.002884,-97.748688,104.70488,-122.108032,60.187665,24.830102,12.275963,21.894098,-1.0,-1.0,100.074013,0.192894,3.130067,-0.033631,-1.875195
880264.718941,0.07155414,0.29024847,9.73306017,0.001433,0.002342,0.003392,-97.824432,104.631241,-122.105484,60.187665,24.830102,12.275963,21.894098,-1.0,-1.0,100.074013,0.192894,3.130066,-0.033638,-1.875198
880264.738927,0.07768539,0.30147111000000004,9.76913154,0.003102,0.002218,0.003648,-97.774078,104.794937,-121.98027,60.187665,24.830102,12.275963,21.894098,-1.0,-1.0,100.074013,0.192894,3.130066,-0.033636,-1.875174
880264.738927,0.07768539,0.30147111000000004,9.76913154,0.003102,0.002218,0.003648,-97.774078,104.794937,-121.98027,60.187665,24.830102,12.275963,21.894098,-1.0,-1.0,100.074013,0.192894,3.130066,-0.033636,-1.875174
880264.758913,0.06196977,0.30386475,9.76599234,0.001089,-0.000307,0.001702,-97.822037,104.634109,-121.952942,60.187665,24.830102,12.275963,21.894098,-1.0,-1.0,100.074013,0.192894,3.130061,-0.03364,-1.875169
880264.798884,0.08412075,0.3239262,9.76090095,0.00297,0.00097,0.004084,-98.148254,104.635986,-122.237839,60.187665,24.830102,12.275963,21.894098,-1.0,-1.0,100.074013,0.192894,3.130062,-0.033645,-1.875152
880264.81887,0.06601149,0.32976315,9.75326877,-0.000392,0.003125,0.005715,-98.348633,104.457596,-121.937912,60.187665,24.830102,12.275963,21.894098,-1.0,-1.0,100.074013,0.192894,3.130061,-0.033645,-1.875148
880264.838856,0.06511878,0.3441348,9.72647766,0.003758,0.002368,0.003073,-98.290131,104.630142,-122.007263,60.187665,24.830102,12.275963,21.894098,-1.0,-1.0,100.074013,0.192894,3.130073,-0.033643,-1.875147
880264.838856,0.06511878,0.3441348,9.72647766,0.003758,0.002368,0.003073,-98.290131,104.630142,-122.007263,60.187665,24.830102,12.275963,21.894098,-1.0,-1.0,100.074013,0.192894,3.130073,-0.033643,-1.875147
880264.878828,0.0811287,0.33380487000000003,9.755515260000001,0.003592,0.003124,0.002843,-98.230728,104.547302,-121.819153,60.187665,24.830102,12.275963,21.894098,-1.0,-1.0,100.074013,0.192894,3.13008,-0.033651,-1.875156
880264.898814,0.07349652000000001,0.33260805,9.75745764,0.003519,0.001878,0.00317,-98.409058,104.497635,-122.059265,60.187665,24.830102,12.275963,21.894098,-1.0,-1.0,100.074013,0.192894,3.130089,-0.03366,-1.875142
880264.9188,0.07469334000000001,0.33246090000000006,9.73829871,0.002541,0.003358,0.005194,-98.14267,104.648422,-122.115631,60.187665,24.830102,12.275963,21.894098,-1.0,-1.0,100.074013,0.192894,3.130073,-0.033671,-1.875137
880264.938786,0.07619427,0.3034233,9.78829047,0.004173,0.000795,0.004194,-98.170807,104.521622,-122.148285,60.187665,24.830102,12.275963,21.894098,-1.0,-1.0,100.074013,0.192894,3.130078,-0.033669,-1.875139
880264.958772,0.06675705000000001,0.31134978,9.76404996,0.002888,0.002558,0.003432,-98.28923,104.388962,-122.217194,60.187665,24.830102,12.275963,21.894098,-1.0,-1.0,100.074013,0.192894,3.130071,-0.033676,-1.875144
880264.978757,0.06571719000000001,0.31419468,9.76688505,0.004202,0.002587,0.003611,-98.226257,104.582855,-122.366486,60.187665,24.830102,12.275963,21.894098,-1.0,-1.0,100.074013,0.192894,3.130078,-0.033685,-1.875141
880264.998743,0.07394778,0.30027429,9.77601816,0.003027,0.000233,0.00351,-98.077835,104.591293,-122.258057,60.187665,24.830102,12.275963,21.894098,-1.0,-1.0,100.074013,0.192894,3.130075,-0.033699,-1.875132
880264.998743,0.07394778,0.30027429,9.77601816,0.003027,0.000233,0.00351,-98.077835,104.591293,-122.258057,60.187665,24.830102,12.275963,21.894098,-1.0,-1.0,100.074013,0.192894,3.130075,-0.033699,-1.875132
880265.038715,0.07784234999999999,0.30821058,9.76195062,0.004521,0.001945,0.004037,-98.256729,104.513077,-122.593964,60.187665,24.830102,12.275963,21.894098,-1.0,-1.0,100.074013,0.192894,3.130088,-0.0337,-1.875129
880265.058701,0.08502327,0.29952873,9.77287896,0.002014,0.001933,0.002208,-97.901459,104.486954,-122.052887,60.187665,24.830102,12.275963,21.894098,-1.0,-1.0,100.074013,0.192894,3.130089,-0.033708,-1.875129
880265.078687,0.06466752,0.31134978,9.76224492,0.003541,0.003401,0.004217,-98.080872,104.415192,-122.1828,60.187665,24.830102,12.275963,21.894098,-1.0,-1.0,100.074013,0.192894,3.130089,-0.033713,-1.875119
880265.098672,0.07005321,0.32423030999999997,9.752366250000001,0.003734,-6.6e-05,0.004027,-98.355728,104.323639,-122.149979,60.187665,24.830102,12.275963,21.894098,-1.0,-1.0,100.074013,0.192894,3.130095,-0.033714,-1.875123
880265.118659,0.08906499000000001,0.32527017,9.76704201,0.005084,0.001525,0.005089,-98.406113,104.393372,-122.26001,60.187665,24.830102,12.275963,21.894098,-1.0,-1.0,100.074013,0.192894,3.130099,-0.033728,-1.875118
880265.138645,0.06571719000000001,0.32377905,9.7812567,0.003963,0.000915,0.003147,-98.198456,104.714691,-122.359314,60.187665,24.830102,12.275963,21.894098,-1.0,-1.0,100.074013,0.192894,3.130095,-0.033751,-1.875126
880265.158631,0.07679268,0.32946885,9.73380573,0.003963,0.000915,0.003147,-98.410141,104.896973,-122.115143,60.187665,24.830102,12.275963,21.894098,-1.0,-1.0,100.074013,0.192894,3.130094,-0.033757,-1.875118
880265.178617,0.07469334000000001,0.32363190000000003,9.76404996,0.003826,0.001239,0.002817,-98.492249,104.546188,-122.265549,60.187665,24.830102,12.275963,21.894098,-1.0,-1.0,100.074013,0.192894,3.130111,-0.033772,-1.875098
880265.198603,0.07139718,0.3150972,9.752670360000002,0.001614,0.001206,0.003888,-98.179626,104.857285,-122.280731,60.187665,24.830102,12.275963,21.894098,-1.0,-1.0,100.074013,0.192894,3.130096,-0.033772,-1.875091
880265.218588,0.07215255000000001,0.33186249,9.737101890000002,0.003444,0.003899,0.003095,-98.256851,104.673294,-122.22052,60.187665,24.830102,12.275963,21.894098,-1.0,-1.0,100.074013,0.192894,3.130108,-0.03377,-1.875082
880265.238574,0.07918631999999999,0.30716091,9.780962400000002,0.00306,0.001542,0.002681,-98.06105,104.799133,-122.486313,60.187665,24.830102,12.275963,21.894098,-1.0,-1.0,100.074013,0.192894,3.130107,-0.033783,-1.875078
880265.25856,0.0754389,0.31913892,9.746235,0.002056,0.000598,0.003027,-98.193878,104.608719,-122.272934,60.187665,24.830102,12.275963,21.894098,-1.0,-1.0,100.074013,0.192894,3.130115,-0.033783,-1.875069
880265.278546,0.07693983,0.31883481,9.72691911,0.004434,0.002945,0.003325,-98.176804,104.474289,-122.245956,60.187665,24.830102,12.275963,21.894098,-1.0,-1.0,100.074013,0.192894,3.130122,-0.033798,-1.875069
880265.298532,0.06795387,0.3065625,9.763294590000001,0.00213,0.001041,0.00356,-97.73494,104.502991,-121.877701,60.187665,24.830102,12.275963,21.894098,-1.0,-1.0,100.074013,0.192894,3.13012,-0.033804,-1.875069
880265.318518,0.07079877000000001,0.30042144,9.76508982,0.003095,0.003088,0.004352,-98.156342,104.727676,-122.047745,60.187665,24.830102,12.275963,21.894098,-1.0,-1.0,100.074013,0.192894,3.130124,-0.033808,-1.875064
880265.338504,0.07125003,0.31060422000000004,9.75640797,0.002381,0.002296,0.004129,-98.061859,104.511627,-122.260696,60.187665,24.830102,12.275963,21.894098,-1.0,-1.0,100.074013,0.192894,3.130122,-0.033807,-1.875071
880265.35849,0.07768539,0.31270356000000005,9.743841360000001,0.003208,0.003088,0.003482,-98.183823,104.650543,-121.925629,60.187665,24.830102,12.275963,21.894098,-1.0,-1.0,100.074013,0.192894,3.130129,-0.033815,-1.87507
880265.35849,0.07768539,0.31270356000000005,9.743841360000001,0.003208,0.003088,0.003482,-98.183823,104.650543,-121.925629,60.187665,24.830102,12.275963,21.894098,-1.0,-1.0,100.074013,0.192894,3.130129,-0.033815,-1.87507
880265.398462,0.08023599000000001,0.32258223,9.75716334,0.004124,0.001247,0.003584,-97.902756,104.59082,-121.956146,60.187665,24.830102,12.275963,21.894098,-1.0,-1.0,100.074013,0.192894,3.130142,-0.033818,-1.875075
880265.418448,0.06122421,0.31689243,9.774968490000001,0.002919,0.003425,0.003874,-97.902756,104.59082,-121.956146,60.187665,24.830102,12.275963,21.894098,-1.0,-1.0,100.074013,0.192894,3.130153,-0.033847,-1.87507
880265.438434,0.07139718,0.32213097,9.76060665,0.002214,0.001687,0.003796,-97.641068,104.868317,-121.942596,60.187665,24.830102,12.275963,21.894098,-1.0,-1.0,100.074013,0.192894,3.13016,-0.033838,-1.875069
880265.478406,0.08786817,0.31404753,9.78230637,0.003715,0.003815,0.0043,-98.079254,104.731476,-122.26622,60.187665,24.830102,12.275963,21.894098,-1.0,-1.0,100.074013,0.192894,3.130165,-0.033866,-1.875096
880265.498392,0.06571719000000001,0.31808925000000005,9.765246780000002,0.002039,-0.00014,0.002956,-98.055954,104.839951,-122.276703,60.187665,24.830102,12.275963,21.894098,-1.0,-1.0,100.074013,0.192894,3.130157,-0.033873,-1.875114
880265.498392,0.06571719000000001,0.31808925000000005,9.765246780000002,0.002039,-0.00014,0.002956,-98.055954,104.839951,-122.276703,60.187665,24.830102,12.275963,21.894098,-1.0,-1.0,100.074013,0.192894,3.130157,-0.033873,-1.875114
880265.518376,0.07409493,0.3210813,9.749227050000002,0.003139,0.004128,0.003728,-98.101822,104.695496,-122.41333,60.187665,24.830102,12.275963,21.894098,-1.0,-1.0,100.074013,0.192894,3.13017,-0.03388,-1.875112
880265.558349,0.07125003,0.30506157,9.76300029,0.00217,0.002509,0.005702,-98.011185,104.575302,-121.812363,60.187665,24.830102,12.275963,21.894098,-1.0,-1.0,100.074013,0.192894,3.130192,-0.0339,-1.87513
880265.578335,0.06511878,0.30806343,9.78021684,0.003328,0.004333,0.004428,-97.982391,104.565872,-122.176071,60.187665,24.830102,12.275963,21.894098,-1.0,-1.0,100.074013,0.192894,3.130202,-0.033914,-1.87513
880265.598321,0.06960195,0.32407335000000004,9.75805605,0.004148,0.002643,0.004065,-98.185944,104.691803,-121.830109,60.187665,24.830102,12.275963,21.894098,-1.0,-1.0,100.074013,0.192894,3.130217,-0.033923,-1.875128
880265.618307,0.07244685000000001,0.31090833,9.771378030000001,0.002902,0.002396,0.005633,-98.000412,104.72467,-121.941574,60.187665,24.830102,12.275963,21.894098,-1.0,-1.0,100.074013,0.192894,3.130249,-0.033944,-1.87512
880265.638293,0.08143281,0.32631984,9.79368597,0.002223,0.00157,0.003698,-98.044785,104.836288,-121.953979,60.187665,24.830102,12.275963,21.894098,-1.0,-1.0,100.074013,0.192894,3.130254,-0.033942,-1.87513
880265.658279,0.07753824,0.3239262,9.77751909,0.003892,0.002819,0.003374,-98.10965,104.654694,-122.062515,60.187665,24.830102,12.275963,21.894098,-1.0,-1.0,100.074013,0.192894,3.130261,-0.03394,-1.875135
880265.678265,0.08248248000000001,0.33351057,9.771829290000001,0.004273,0.000751,0.002295,-98.150803,104.697083,-122.005585,60.187665,24.830102,12.275963,21.894098,-1.0,-1.0,100.074013,0.192894,3.130263,-0.033956,-1.875129
880265.698251,0.06990606,0.31689243,9.7781175,0.002545,0.001592,0.004186,-98.164322,104.684082,-121.964508,60.187665,24.830102,12.275963,21.894098,-1.0,-1.0,100.074013,0.192894,3.130255,-0.033963,-1.875127
880265.698251,0.06990606,0.31689243,9.7781175,0.002545,0.001592,0.004186,-98.164322,104.684082,-121.964508,60.187665,24.830102,12.275963,21.894098,-1.0,-1.0,100.074013,0.192894,3.130255,-0.033963,-1.875127
880265.698251,0.06990606,0.31689243,9.7781175,0.002545,0.001592,0.004186,-98.164322,104.684082,-121.964508,60.187665,24.830102,12.275963,21.894098,-1.0,-1.0,100.074013,0.192894,3.130255,-0.033963,-1.875127
880265.758209,0.07469334000000001,0.33170553,9.779167170000001,0.003251,0.000861,0.005235,-98.20311,104.540985,-122.540787,60.187665,24.830102,12.275963,21.894098,-1.0,-1.0,100.074013,0.192894,3.1303,-0.033964,-1.875124
880265.778195,0.07110288000000001,0.33110712,9.77766624,0.001638,-0.000218,0.003861,-98.266174,104.527344,-122.205643,60.187665,24.830102,12.275963,21.894098,-1.0,-1.0,100.074013,0.192894,3.130308,-0.033969,-1.875124
880265.798181,0.07679268,0.31479309,9.77871591,0.002653,0.00203,0.003812,-97.990402,104.553787,-122.37355,60.187665,24.830102,12.275963,21.894098,-1.0,-1.0,100.074013,0.192894,3.130334,-0.033963,-1.875116
880265.818167,0.06556023,0.32213097,9.768238830000001,0.002374,0.000146,0.004159,-98.164505,104.679932,-122.32663,60.187665,24.830102,12.275963,21.894098,-1.0,-1.0,100.074013,0.192894,3.130357,-0.033973,-1.875109
880265.838153,0.07289811,0.32093415000000003,9.7493742,0.00079,0.001691,0.005698,-98.194672,104.580673,-122.159912,60.187665,24.830102,12.275963,21.894098,-1.0,-1.0,100.07402,0.192894,3.130376,-0.033968,-1.875111
880265.858139,0.07125003,0.320787,9.76374585,0.004396,0.000555,0.003452,-98.141876,104.498718,-122.257629,60.187665,24.830102,12.275963,21.894098,-1.0,-1.0,100.07402,0.192894,3.130412,-0.03398,-1.875114
880265.878124,0.06706116000000001,0.31598991,9.77092677,0.000487,-0.000475,0.004017,-98.162155,104.739029,-122.424438,60.187665,24.830102,12.275963,21.894098,-1.0,-1.0,100.07402,0.192894,3.130405,-0.03399,-1.875107
880265.89811,0.07184844,0.30955455000000004,9.75850731,0.002879,0.000755,0.004837,-98.180206,104.451859,-122.747787,60.187665,24.830102,12.275963,21.894098,-1.0,-1.0,100.07402,0.192894,3.130412,-0.033984,-1.875104
