timestamp,accel_x,accel_y,accel_z,gyro_x,gyro_y,gyro_z,mag_x,mag_y,mag_z,gps_lat,gps_lon,gps_alt,gps_accuracy,gps_speed,gps_course,pressure,altitude,roll,pitch,yaw
879987.24729,-0.08308089000000002,-0.16375833,-9.799218810000001,0.001213,0.000208,0.004339,-76.819168,97.008667,-208.790619,60.187685,24.830143,13.210769,7.174423,-1.0,-1.0,100.068024,0.694931,-0.008773,0.015958,0.314923
879987.267276,-0.09295956000000001,-0.14400099,-9.80865603,0.001622,-0.000832,0.002943,-76.579834,96.975601,-209.156616,60.187685,24.830143,13.210769,7.174423,-1.0,-1.0,100.068024,0.694931,-0.008776,0.015952,0.314923
879987.287262,-0.08622009,-0.15851979,-9.82975734,0.002902,-0.00267,0.005269,-76.579834,96.975601,-209.156616,60.187685,24.830143,13.210769,7.174423,-1.0,-1.0,100.068024,0.694931,-0.008767,0.015937,0.314919
879987.307248,-0.07724394000000001,-0.15418377,-9.80820477,0.003826,-1.5e-05,0.003886,-76.579758,97.147308,-209.069946,60.187685,24.830143,13.210769,7.174423,-1.0,-1.0,100.068024,0.694931,-0.008766,0.015933,0.314924
879987.327234,-0.08741691000000001,-0.15014205,-9.833946209999999,0.002736,5.6e-05,0.003944,-76.606064,97.062286,-208.921524,60.187685,24.830143,13.210769,7.174423,-1.0,-1.0,100.068024,0.694931,-0.008774,0.015938,0.314915
879987.34722,-0.08816247,-0.15342840000000002,-9.815689800000001,0.003906,-0.000773,0.004238,-76.722702,97.062195,-209.053925,60.187685,24.830143,13.210769,7.174423,-1.0,-1.0,100.068024,0.694931,-0.008782,0.015932,0.31492
879987.367206,-0.09145863,-0.16241436,-9.82497006,0.002602,-0.000778,0.004809,-76.643906,96.87558,-209.040649,60.187685,24.830143,13.210769,7.174423,-1.0,-1.0,100.068024,0.694931,-0.008791,0.015931,0.31493
879987.387192,-0.0896634,-0.15777423000000002,-9.8333478,0.003722,-0.001127,0.004873,-76.544342,97.134537,-209.097183,60.187685,24.830143,13.210769,7.174423,-1.0,-1.0,100.068619,0.647369,-0.0088,0.015937,0.31494
879987.427165,-0.09040896000000001,-0.15237873000000002,-9.84532581,0.003874,0.000185,0.003937,-76.493134,97.042618,-208.985794,60.187685,24.830143,13.210769,7.174423,-1.0,-1.0,100.068619,0.647369,-0.008796,0.015935,0.314959
879987.427165,-0.09040896000000001,-0.15237873000000002,-9.84532581,0.003874,0.000185,0.003937,-76.493134,97.042618,-208.985794,60.187685,24.830143,13.210769,7.174423,-1.0,-1.0,100.068619,0.647369,-0.008796,0.015935,0.314959
879987.467137,-0.09475478999999999,-0.14759145,-9.80535987,0.004751,0.001248,0.005672,-76.657852,97.081635,-208.871643,60.187685,24.830143,13.210769,7.174423,-1.0,-1.0,100.068619,0.647369,-0.00879,0.015939,0.314943
879987.467137,-0.09475478999999999,-0.14759145,-9.80535987,0.004751,0.001248,0.005672,-76.657852,97.081635,-208.871643,60.187685,24.830143,13.210769,7.174423,-1.0,-1.0,100.068619,0.647369,-0.00879,0.015939,0.314943
879987.507109,-0.09295956000000001,-0.15402681000000001,-9.80206371,0.003762,-0.00014,0.003166,-76.345901,97.169525,-208.910324,60.187685,24.830143,13.210769,7.174423,-1.0,-1.0,100.068619,0.647369,-0.00877,0.01594,0.314942
879987.507109,-0.09295956000000001,-0.15402681000000001,-9.80206371,0.003762,-0.00014,0.003166,-76.345901,97.169525,-208.910324,60.187685,24.830143,13.210769,7.174423,-1.0,-1.0,100.068619,0.647369,-0.00877,0.01594,0.314942
879987.547081,-0.07454619,-0.15478218000000002,-9.791135370000001,0.003608,0.001233,0.004929,-76.544083,97.075806,-209.153137,60.187685,24.830143,13.210769,7.174423,-1.0,-1.0,100.068619,0.647369,-0.008771,0.015942,0.314935
879987.547081,-0.07454619,-0.15478218000000002,-9.791135370000001,0.003608,0.001233,0.004929,-76.544083,97.075806,-209.153137,60.187685,24.830143,13.210769,7.174423,-1.0,-1.0,100.068619,0.647369,-0.008771,0.015942,0.314935
879987.587053,-0.08502327,-0.14954364,-9.81119682,0.003738,0.000614,0.003589,-76.346252,97.142426,-209.005325,60.187685,24.830143,13.210769,7.174423,-1.0,-1.0,100.068619,0.647369,-0.008768,0.015932,0.314976
879987.587053,-0.08502327,-0.14954364,-9.81119682,0.003738,0.000614,0.003589,-76.346252,97.142426,-209.005325,60.187685,24.830143,13.210769,7.174423,-1.0,-1.0,100.068619,0.647369,-0.008768,0.015932,0.314976
879987.627025,-0.08352234000000001,-0.16061913,-9.824371650000002,0.003594,-0.000434,0.003431,-76.572403,97.018799,-208.755234,60.187685,24.830143,13.210769,7.174423,-1.0,-1.0,100.068619,0.647369,-0.008753,0.015925,0.314973
879987.627025,-0.08352234000000001,-0.16061913,-9.824371650000002,0.003594,-0.000434,0.003431,-76.572403,97.018799,-208.755234,60.187685,24.830143,13.210769,7.174423,-1.0,-1.0,100.068619,0.647369,-0.008753,0.015925,0.314973
879987.666997,-0.09475478999999999,-0.15956946,-9.828707670000002,0.002261,-0.001953,0.004442,-76.460327,97.146667,-208.602112,60.187685,24.830143,13.210769,7.174423,-1.0,-1.0,100.068619,0.647369,-0.008762,0.015937,0.314976
879987.666997,-0.09475478999999999,-0.15956946,-9.828707670000002,0.002261,-0.001953,0.004442,-76.460327,97.146667,-208.602112,60.187685,24.830143,13.210769,7.174423,-1.0,-1.0,100.068619,0.647369,-0.008762,0.015937,0.314976
879987.706969,-0.09370512,-0.14804271000000002,-9.820025820000001,0.00327,-0.001514,0.002886,-76.751068,96.879852,-209.384384,60.187685,24.830143,13.210769,7.174423,-1.0,-1.0,100.068619,0.647369,-0.008773,0.015928,0.315013
879987.706969,-0.09370512,-0.14804271000000002,-9.820025820000001,0.00327,-0.001514,0.002886,-76.751068,96.879852,-209.384384,60.187685,24.830143,13.210769,7.174423,-1.0,-1.0,100.068619,0.647369,-0.008773,0.015928,0.315013
879987.746941,-0.09520605,-0.13936086,-9.79233219,0.00394,0.000637,0.00473,-76.605469,97.09314,-209.133179,60.187685,24.830143,13.210769,7.174423,-1.0,-1.0,100.068619,0.647369,-0.008777,0.015953,0.315016
879987.746941,-0.09520605,-0.13936086,-9.79233219,0.00394,0.000637,0.00473,-76.605469,97.09314,-209.133179,60.187685,24.830143,13.210769,7.174423,-1.0,-1.0,100.068619,0.647369,-0.008777,0.015953,0.315016
879987.786913,-0.09834525,-0.15313410000000002,-9.7894971,0.005652,0.001847,0.00528,-76.671738,96.998779,-209.100998,60.187685,24.830143,13.210769,7.174423,-1.0,-1.0,100.068619,0.647369,-0.008771,0.015979,0.31503
879987.786913,-0.09834525,-0.15313410000000002,-9.7894971,0.005652,0.001847,0.00528,-76.671738,96.998779,-209.100998,60.187685,24.830143,13.210769,7.174423,-1.0,-1.0,100.068619,0.647369,-0.008771,0.015979,0.31503
879987.826885,-0.09011466,-0.15687171,-9.827363700000001,0.00214,-0.00087,0.004653,-76.63942,97.008301,-208.924667,60.187685,24.830143,13.210769,7.174423,-1.0,-1.0,100.068619,0.647369,-0.008765,0.015989,0.315058
879987.826885,-0.09011466,-0.15687171,-9.827363700000001,0.00214,-0.00087,0.004653,-76.63942,97.008301,-208.924667,60.187685,24.830143,13.210769,7.174423,-1.0,-1.0,100.068619,0.647369,-0.008765,0.015989,0.315058
879987.866857,-0.10687995,-0.14983794,-9.83934171,0.002363,4.2e-05,0.003372,-76.619919,97.028,-208.823166,60.187685,24.830143,13.210769,7.174423,-1.0,-1.0,100.068619,0.647369,-0.008764,0.015971,0.315063
879987.886844,-0.08846658,-0.16091343000000002,-9.80670384,0.003759,0.000395,0.006637,-76.558914,97.106918,-208.66716,60.187685,24.830143,13.210769,7.174423,-1.0,-1.0,100.068619,0.647369,-0.008772,0.015946,0.315057
879987.90683,-0.08622009,-0.15418377,-9.83769363,0.003104,0.000458,0.005222,-76.647812,97.190735,-208.64769,60.187685,24.830143,13.210769,7.174423,-1.0,-1.0,100.068619,0.647369,-0.008761,0.01595,0.315079
879987.926816,-0.08622009,-0.15777423000000002,-9.80760636,0.002931,0.000373,0.004703,-76.814072,96.960281,-209.087982,60.187685,24.830143,13.210769,7.174423,-1.0,-1.0,100.068619,0.647369,-0.008765,0.015935,0.315078
879987.946802,-0.09145863,-0.14490351,-9.81209934,0.002833,-0.000328,0.004897,-76.605164,97.1064,-209.000031,60.187685,24.830143,13.210769,7.174423,-1.0,-1.0,100.068619,0.647369,-0.008763,0.015925,0.315069
879987.966788,-0.08502327,-0.1562733,-9.81718092,0.002621,-0.001497,0.004931,-76.647827,97.155014,-208.894104,60.187685,24.830143,13.210769,7.174423,-1.0,-1.0,100.068619,0.647369,-0.008759,0.015913,0.315074
879987.986774,-0.09026181000000001,-0.14505066000000003,-9.8014653,0.004475,-1.1e-05,0.005657,-76.686447,97.073196,-209.137527,60.187685,24.830143,13.210769,7.174423,-1.0,-1.0,100.068619,0.647369,-0.008778,0.015891,0.315085
879988.00676,-0.0865242,-0.15433092,-9.83918475,0.003397,0.001256,0.005118,-76.686447,97.073196,-209.137527,60.187685,24.830143,13.210769,7.174423,-1.0,-1.0,100.068619,0.647369,-0.008785,0.0159,0.315077
879988.026746,-0.09490194,-0.15701886,-9.7926363,0.004077,8.4e-05,0.004446,-76.694763,96.955841,-208.828506,60.187685,24.830143,13.210769,7.174423,-1.0,-1.0,100.068619,0.647369,-0.008786,0.015905,0.315074
879988.046732,-0.06975891000000001,-0.14969079000000002,-9.811795230000001,0.00216,-0.000628,0.003293,-76.546082,97.084702,-209.150101,60.187685,24.830143,13.210769,7.174423,-1.0,-1.0,100.068619,0.647369,-0.008788,0.015914,0.315075
879988.066718,-0.10059174,-0.15538058999999999,-9.81509139,0.001901,0.000359,0.004588,-76.692413,97.085892,-208.826706,60.187685,24.830143,13.210769,7.174423,-1.0,-1.0,100.068619,0.647369,-0.008793,0.015914,0.31507
879988.086704,-0.09236115,-0.15433092,-9.80071974,0.004154,0.000889,0.00365,-76.823257,96.913422,-208.76149,60.187685,24.830143,13.210769,7.174423,-1.0,-1.0,100.068619,0.647369,-0.008787,0.015896,0.315078
879988.10669,-0.09595161,-0.15582204,-9.82332198,0.002576,0.000394,0.003669,-76.773148,97.093842,-208.860275,60.187685,24.830143,13.210769,7.174423,-1.0,-1.0,100.068619,0.647369,-0.008778,0.015901,0.315087
879988.146662,-0.08891784,-0.15208443,-9.820928340000002,0.002982,-0.001436,0.005224,-76.674423,97.055801,-208.60556,60.187685,24.830143,13.210769,7.174423,-1.0,-1.0,100.068619,0.647369,-0.008768,0.015896,0.31511
879988.146662,-0.08891784,-0.15208443,-9.820928340000002,0.002982,-0.001436,0.005224,-76.674423,97.055801,-208.60556,60.187685,24.830143,13.210769,7.174423,-1.0,-1.0,100.068619,0.647369,-0.008768,0.015896,0.31511
879988.186634,-0.09490194,-0.14699304000000002,-9.827814960000001,0.003138,0.000628,0.005169,-76.687515,97.336075,-209.071259,60.187685,24.830143,13.210769,7.174423,-1.0,-1.0,100.068619,0.647369,-0.008781,0.01589,0.315126
879988.186634,-0.09490194,-0.14699304000000002,-9.827814960000001,0.003138,0.000628,0.005169,-76.687515,97.336075,-209.071259,60.187685,24.830143,13.210769,7.174423,-1.0,-1.0,100.068619,0.647369,-0.008781,0.01589,0.315126
879988.20662,-0.09190989000000001,-0.14773860000000003,-9.81823059,0.002158,-0.000202,0.003852,-76.643158,97.40976,-208.945709,60.187685,24.830143,13.210769,7.174423,-1.0,-1.0,100.068619,0.647369,-0.008771,0.015888,0.315124
879988.226606,-0.08772102000000001,-0.16825131000000002,-9.80895033,0.003487,-0.000788,0.003788,-76.543503,97.193573,-209.105759,60.187685,24.830143,13.210769,7.174423,-1.0,-1.0,100.068619,0.647369,-0.008772,0.015881,0.315121
879988.266578,-0.08726976,-0.14804271000000002,-9.81628821,0.005024,-0.000288,0.002787,-76.684647,97.209747,-208.956451,60.187685,24.830143,13.210769,7.174423,-1.0,-1.0,100.068619,0.647369,-0.008784,0.015878,0.315124
879988.266578,-0.08726976,-0.14804271000000002,-9.81628821,0.005024,-0.000288,0.002787,-76.684647,97.209747,-208.956451,60.187685,24.830143,13.210769,7.174423,-1.0,-1.0,100.068619,0.647369,-0.008784,0.015878,0.315124
879988.30655,-0.09026181000000001,-0.15552774,-9.83065986,0.002439,-0.000312,0.00457,-76.679901,97.253159,-208.93306,60.187685,24.830143,13.210769,7.174423,-1.0,-1.0,100.068619,0.647369,-0.008796,0.015879,0.315112
879988.30655,-0.09026181000000001,-0.15552774,-9.83065986,0.002439,-0.000312,0.00457,-76.679901,97.253159,-208.93306,60.187685,24.830143,13.210769,7.174423,-1.0,-1.0,100.068619,0.647369,-0.008796,0.015879,0.315112
879988.346522,-0.08622009,-0.15088761,-9.82377324,0.002514,0.000753,0.004302,-76.815903,97.109192,-208.869263,60.187685,24.830143,13.210769,7.174423,-1.0,-1.0,100.068619,0.647369,-0.008806,0.015867,0.315132
879988.346522,-0.08622009,-0.15088761,-9.82377324,0.002514,0.000753,0.004302,-76.815903,97.109192,-208.869263,60.187685,24.830143,13.210769,7.174423,-1.0,-1.0,100.068619,0.647369,-0.008806,0.015867,0.315132
879988.386494,-0.09849240000000001,-0.15268284000000001,-9.802966230000001,0.002038,-0.000549,0.003182,-76.874786,96.934875,-208.642746,60.187685,24.830143,13.210769,7.174423,-1.0,-1.0,100.068619,0.647369,-0.008798,0.015847,0.315132
879988.386494,-0.09849240000000001,-0.15268284000000001,-9.802966230000001,0.002038,-0.000549,0.003182,-76.874786,96.934875,-208.642746,60.187685,24.830143,13.210769,7.174423,-1.0,-1.0,100.068619,0.647369,-0.008798,0.015847,0.315132
879988.426466,-0.09355797,-0.14010642,-9.79892451,0.002473,0.000221,0.004853,-76.704926,97.077042,-208.857864,60.187685,24.830143,13.210769,7.174423,-1.0,-1.0,100.068619,0.647369,-0.008819,0.015839,0.31512
879988.426466,-0.09355797,-0.14010642,-9.79892451,0.002473,0.000221,0.004853,-76.704926,97.077042,-208.857864,60.187685,24.830143,13.210769,7.174423,-1.0,-1.0,100.068619,0.647369,-0.008819,0.015839,0.31512
879988.466438,-0.08726976,-0.16315992,-9.79742358,0.003811,0.000618,0.003612,-76.542007,97.087143,-208.924271,60.187685,24.830143,13.210769,7.174423,-1.0,-1.0,100.068939,0.618309,-0.008811,0.015834,0.31513
879988.466438,-0.08726976,-0.16315992,-9.79742358,0.003811,0.000618,0.003612,-76.542007,97.087143,-208.924271,60.187685,24.830143,13.210769,7.174423,-1.0,-1.0,100.068939,0.618309,-0.008811,0.015834,0.31513
879988.50641,-0.09160578000000001,-0.15014205,-9.81808344,0.002685,0.000353,0.004597,-76.387039,97.075119,-208.959427,60.187685,24.830143,13.210769,7.174423,-1.0,-1.0,100.068939,0.618309,-0.008815,0.015831,0.315118
879988.50641,-0.09160578000000001,-0.15014205,-9.81808344,0.002685,0.000353,0.004597,-76.387039,97.075119,-208.959427,60.187685,24.830143,13.210769,7.174423,-1.0,-1.0,100.068939,0.618309,-0.008815,0.015831,0.315118
879988.546382,-0.08816247,-0.14220576000000001,-9.828266220000001,0.004082,-0.000999,0.005102,-76.670883,96.972519,-208.751694,60.187685,24.830143,13.210769,7.174423,-1.0,-1.0,100.068939,0.618309,-0.008854,0.015836,0.31512
879988.546382,-0.08816247,-0.14220576000000001,-9.828266220000001,0.004082,-0.000999,0.005102,-76.670883,96.972519,-208.751694,60.187685,24.830143,13.210769,7.174423,-1.0,-1.0,100.068939,0.618309,-0.008854,0.015836,0.31512
879988.586354,-0.09325386000000001,-0.15074046,-9.81688662,0.002576,0.000153,0.00397,-76.34256,97.076401,-208.849182,60.187685,24.830143,13.210769,7.174423,-1.0,-1.0,100.068939,0.618309,-0.008835,0.015849,0.315116
879988.586354,-0.09325386000000001,-0.15074046,-9.81688662,0.002576,0.000153,0.00397,-76.34256,97.076401,-208.849182,60.187685,24.830143,13.210769,7.174423,-1.0,-1.0,100.068939,0.618309,-0.008835,0.015849,0.315116
879988.626326,-0.09310671,-0.15612615,-9.807459210000001,0.003555,0.000258,0.003218,-76.434326,97.199738,-209.103058,60.187685,24.830143,13.210769,7.174423,-1.0,-1.0,100.068939,0.618309,-0.008815,0.015874,0.315112
879988.626326,-0.09310671,-0.15612615,-9.807459210000001,0.003555,0.000258,0.003218,-76.434326,97.199738,-209.103058,60.187685,24.830143,13.210769,7.174423,-1.0,-1.0,100.068939,0.618309,-0.008815,0.015874,0.315112
879988.666298,-0.09236115,-0.14579622,-9.81329616,0.004103,0.000847,0.003905,-76.731583,97.074036,-208.672699,60.187685,24.830143,13.210769,7.174423,-1.0,-1.0,100.068939,0.618309,-0.008805,0.015874,0.315107
879988.686284,-0.08876088000000001,-0.14474655,-9.82377324,0.002792,-0.000583,0.003574,-76.720322,97.08847,-209.007767,60.187685,24.830143,13.210769,7.174423,-1.0,-1.0,100.068939,0.618309,-0.008793,0.015885,0.315122
879988.70627,-0.08067744,-0.14699304000000002,-9.80640954,0.003787,-0.00036,0.003995,-76.560638,97.166031,-208.669449,60.187685,24.830143,13.210769,7.174423,-1.0,-1.0,100.068939,0.618309,-0.008795,0.015877,0.315128
879988.726256,-0.09714843000000001,-0.14429529,-9.82257642,0.001855,-4.5e-05,0.003275,-76.560638,97.166031,-208.669449,60.187685,24.830143,13.210769,7.174423,-1.0,-1.0,100.068939,0.618309,-0.008797,0.015879,0.315122
879988.746242,-0.09160578000000001,-0.15822549000000002,-9.80655669,0.003355,-0.000855,0.004212,-76.694199,97.236618,-209.006149,60.187685,24.830143,13.210769,7.174423,-1.0,-1.0,100.068939,0.618309,-0.008795,0.015877,0.315116
879988.766228,-0.09056592000000001,-0.15118191,-9.796678020000002,0.003674,-0.00021,0.00534,-76.531143,97.155151,-208.994919,60.187685,24.830143,13.210769,7.174423,-1.0,-1.0,100.068939,0.618309,-0.008799,0.015875,0.315123
879988.786214,-0.0896634,-0.15552774,-9.81299205,0.003661,0.000424,0.003937,-76.673615,97.390854,-209.256561,60.187685,24.830143,13.210769,7.174423,-1.0,-1.0,100.068939,0.618309,-0.008799,0.01587,0.315122
879988.8062,-0.08756406,-0.15762708,-9.81733788,0.002597,0.000202,0.004144,-76.592926,97.184082,-208.958252,60.187685,24.830143,13.210769,7.174423,-1.0,-1.0,100.068939,0.618309,-0.008799,0.015864,0.315131
879988.826187,-0.08098155,-0.14519781,-9.81509139,0.003764,-0.000271,0.004771,-76.608444,97.274963,-208.953705,60.187685,24.830143,13.210769,7.174423,-1.0,-1.0,100.068939,0.618309,-0.008801,0.015859,0.315142
879988.846173,-0.09355797,-0.14385384,-9.813139200000002,0.002862,-0.001437,0.003982,-76.616623,97.000824,-208.778152,60.187685,24.830143,13.210769,7.174423,-1.0,-1.0,100.068939,0.618309,-0.008804,0.015863,0.315147
879988.866159,-0.08772102000000001,-0.14773860000000003,-9.82107549,0.001685,-0.000571,0.004153,-76.641495,97.05629,-209.209915,60.187685,24.830143,13.210769,7.174423,-1.0,-1.0,100.068939,0.618309,-0.008806,0.015863,0.315135
879988.886145,-0.0896634,-0.14714019,-9.81373761,0.003352,-0.000311,0.003257,-76.597916,97.176361,-208.901184,60.187685,24.830143,13.210769,7.174423,-1.0,-1.0,100.068939,0.618309,-0.008809,0.015848,0.315141
879988.906131,-0.09205704,-0.15268284000000001,-9.824371650000002,0.004,-0.000812,0.004873,-76.327377,97.156754,-208.930115,60.187685,24.830143,13.210769,7.174423,-1.0,-1.0,100.068939,0.618309,-0.008808,0.015848,0.315131
879988.946103,-0.09026181000000001,-0.1502892,-9.808499070000002,0.001238,-0.000157,0.003945,-76.575073,97.307739,-208.882202,60.187685,24.830143,13.210769,7.174423,-1.0,-1.0,100.068939,0.618309,-0.008817,0.015873,0.31513
879988.946103,-0.09026181000000001,-0.1502892,-9.808499070000002,0.001238,-0.000157,0.003945,-76.575073,97.307739,-208.882202,60.187685,24.830143,13.210769,7.174423,-1.0,-1.0,100.068939,0.618309,-0.008817,0.015873,0.31513
879988.986075,-0.09071307,-0.15478218000000002,-9.82841337,0.004326,-0.001223,0.004259,-76.498627,97.161636,-208.680634,60.187685,24.830143,13.210769,7.174423,-1.0,-1.0,100.068939,0.618309,-0.008821,0.015876,0.315129
879988.986075,-0.09071307,-0.15478218000000002,-9.82841337,0.004326,-0.001223,0.004259,-76.498627,97.161636,-208.680634,60.187685,24.830143,13.210769,7.174423,-1.0,-1.0,100.068939,0.618309,-0.008821,0.015876,0.315129
879989.026047,-0.07648857,-0.15792138000000003,-9.80985285,0.003082,-0.001122,0.004078,-76.721649,97.186493,-208.728561,60.187685,24.830143,13.210769,7.174423,-1.0,-1.0,100.068939,0.618309,-0.008828,0.015878,0.315128
879989.026047,-0.07648857,-0.15792138000000003,-9.80985285,0.003082,-0.001122,0.004078,-76.721649,97.186493,-208.728561,60.187685,24.830143,13.210769,7.174423,-1.0,-1.0,100.068939,0.618309,-0.008828,0.015878,0.315128
879989.066019,-0.0928026,-0.14833701000000002,-9.828707670000002,0.004287,0.000189,0.003889,-76.502686,97.270233,-208.586136,60.187685,24.830143,13.210769,7.174423,-1.0,-1.0,100.068939,0.618309,-0.008816,0.015889,0.315118
879989.066019,-0.0928026,-0.14833701000000002,-9.828707670000002,0.004287,0.000189,0.003889,-76.502686,97.270233,-208.586136,60.187685,24.830143,13.210769,7.174423,-1.0,-1.0,100.068939,0.618309,-0.008816,0.015889,0.315118
879989.105991,-0.09116433,-0.15387966,-9.826912440000001,0.0022,-0.001222,0.003481,-76.471405,97.082947,-208.994461,60.187685,24.830143,13.210769,7.174423,-1.0,-1.0,100.068939,0.618309,-0.00882,0.015905,0.315126
879989.105991,-0.09116433,-0.15387966,-9.826912440000001,0.0022,-0.001222,0.003481,-76.471405,97.082947,-208.994461,60.187685,24.830143,13.210769,7.174423,-1.0,-1.0,100.068939,0.618309,-0.00882,0.015905,0.315126
879989.145963,-0.08951625,-0.14265702,-9.82721655,0.003413,-0.000307,0.00434,-76.575912,97.072281,-208.901566,60.187685,24.830143,13.210769,7.174423,-1.0,-1.0,100.068939,0.618309,-0.008812,0.0159,0.315114
879989.145963,-0.08951625,-0.14265702,-9.82721655,0.003413,-0.000307,0.00434,-76.575912,97.072281,-208.901566,60.187685,24.830143,13.210769,7.174423,-1.0,-1.0,100.068939,0.618309,-0.008812,0.0159,0.315114
879989.185936,-0.09310671,-0.15447807000000002,-9.80281908,0.002765,-5.9e-05,0.005873,-76.793365,96.967758,-208.924911,60.187685,24.830143,13.210769,7.174423,-1.0,-1.0,100.068939,0.618309,-0.008801,0.015899,0.315118
879989.185936,-0.09310671,-0.15447807000000002,-9.80281908,0.002765,-5.9e-05,0.005873,-76.793365,96.967758,-208.924911,60.187685,24.830143,13.210769,7.174423,-1.0,-1.0,100.068939,0.618309,-0.008801,0.015899,0.315118
879989.225908,-0.08636724,-0.14400099,-9.808803180000002,0.00319,0.000497,0.00401,-76.582977,97.106873,-209.028885,60.187685,24.830143,13.210769,7.174423,-1.0,-1.0,100.068939,0.618309,-0.008803,0.015925,0.315131
879989.225908,-0.08636724,-0.14400099,-9.808803180000002,0.00319,0.000497,0.00401,-76.582977,97.106873,-209.028885,60.187685,24.830143,13.210769,7.174423,-1.0,-1.0,100.068939,0.618309,-0.008803,0.015925,0.315131
879989.26588,-0.09445068,-0.15492933000000003,-9.8128449,0.004054,-0.000956,0.004179,-76.475143,97.410477,-208.883286,60.187685,24.830143,13.210769,7.174423,-1.0,-1.0,100.068939,0.618309,-0.0088,0.0159,0.315154
879989.26588,-0.09445068,-0.15492933000000003,-9.8128449,0.004054,-0.000956,0.004179,-76.475143,97.410477,-208.883286,60.187685,24.830143,13.210769,7.174423,-1.0,-1.0,100.068939,0.618309,-0.0088,0.0159,0.315154
879989.305852,-0.09176274,-0.15612615,-9.8358984,0.002841,-0.00068,0.00473,-76.482513,97.074753,-208.885757,60.187685,24.830143,13.210769,7.174423,-1.0,-1.0,100.068939,0.618309,-0.008794,0.015904,0.315142
879989.305852,-0.09176274,-0.15612615,-9.8358984,0.002841,-0.00068,0.00473,-76.482513,97.074753,-208.885757,60.187685,24.830143,13.210769,7.174423,-1.0,-1.0,100.068939,0.618309,-0.008794,0.015904,0.315142
879989.345824,-0.08891784,-0.1591182,-9.836948070000002,0.00168,-0.000308,0.005853,-76.4142,97.233643,-208.745468,60.187685,24.830143,13.210769,7.174423,-1.0,-1.0,100.068939,0.618309,-0.00878,0.015895,0.315147
879989.345824,-0.08891784,-0.1591182,-9.836948070000002,0.00168,-0.000308,0.005853,-76.4142,97.233643,-208.745468,60.187685,24.830143,13.210769,7.174423,-1.0,-1.0,100.068939,0.618309,-0.00878,0.015895,0.315147
879989.385796,-0.08831943,-0.15103476000000002,-9.81074556,0.001846,0.00047,0.004609,-76.59314,97.346191,-208.822357,60.187685,24.830143,13.210769,7.174423,-1.0,-1.0,100.068939,0.618309,-0.00879,0.01588,0.315138
879989.385796,-0.08831943,-0.15103476000000002,-9.81074556,0.001846,0.00047,0.004609,-76.59314,97.346191,-208.822357,60.187685,24.830143,13.210769,7.174423,-1.0,-1.0,100.068939,0.618309,-0.00879,0.01588,0.315138
879989.425768,-0.08801532000000001,-0.14804271000000002,-9.81254079,0.004424,-0.000614,0.004901,-76.585831,97.236557,-208.905685,60.187685,24.830143,13.210769,7.174423,-1.0,-1.0,100.068939,0.618309,-0.008786,0.015885,0.315135
879989.425768,-0.08801532000000001,-0.14804271000000002,-9.81254079,0.004424,-0.000614,0.004901,-76.585831,97.236557,-208.905685,60.187685,24.830143,13.210769,7.174423,-1.0,-1.0,100.068939,0.618309,-0.008786,0.015885,0.315135
879989.465741,-0.09190989000000001,-0.15732297,-9.796678020000002,0.002562,0.000517,0.003138,-76.662659,97.456345,-208.98291,60.187685,24.830143,13.210769,7.174423,-1.0,-1.0,100.068939,0.618309,-0.008789,0.015874,0.315143
879989.485727,-0.10088604,-0.16002072,-9.81269775,0.001545,-0.001309,0.0042,-76.424149,97.521988,-209.038651,60.187685,24.830143,13.210769,7.174423,-1.0,-1.0,100.068939,0.618309,-0.008788,0.015857,0.315129
879989.505713,-0.08891784,-0.16061913,-9.831709530000001,0.00165,-0.000365,0.005364,-76.66832,97.265701,-209.057785,60.187685,24.830143,13.210769,7.174423,-1.0,-1.0,100.068939,0.618309,-0.008785,0.015844,0.315125
879989.525699,-0.08143281,-0.14205861,-9.81449298,0.003387,-0.001066,0.003155,-76.538849,97.091873,-208.997849,60.187685,24.830143,13.210769,7.174423,-1.0,-1.0,100.068939,0.618309,-0.008793,0.015831,0.315143
879989.545685,-0.10358379000000001,-0.15193728,-9.83379906,0.004038,-0.001784,0.007954,-76.605438,97.242126,-208.892273,60.187685,24.830143,13.210769,7.174423,-1.0,-1.0,100.069054,0.610382,-0.008807,0.015836,0.31515
879989.565671,-0.0836793,-0.15747012000000002,-9.80505576,0.004593,-0.001092,0.00469,-76.540009,97.11882,-209.166794,60.187685,24.830143,13.210769,7.174423,-1.0,-1.0,100.069054,0.610382,-0.008818,0.015837,0.315161
879989.585657,-0.08592579,-0.1505835,-9.82556847,0.002719,-0.00108,0.003452,-76.592117,97.280472,-208.963898,60.187685,24.830143,13.210769,7.174423,-1.0,-1.0,100.069054,0.610382,-0.008819,0.015847,0.315158
879989.585657,-0.08592579,-0.1505835,-9.82556847,0.002719,-0.00108,0.003452,-76.592117,97.280472,-208.963898,60.187685,24.830143,13.210769,7.174423,-1.0,-1.0,100.069054,0.610382,-0.008819,0.015847,0.315158
879989.625629,-0.08607294000000001,-0.15582204,-9.81464013,0.005145,0.000108,0.004817,-76.697647,97.105606,-209.130219,60.187685,24.830143,13.210769,7.174423,-1.0,-1.0,100.069054,0.610382,-0.008844,0.015847,0.315148
879989.645615,-0.0981981,-0.15118191,-9.827069400000001,0.002812,0.001108,0.003943,-76.534012,97.190689,-209.130203,60.187685,24.830143,13.210769,7.174423,-1.0,-1.0,100.069054,0.610382,-0.008847,0.015861,0.315136
879989.665601,-0.08861373,-0.14340258,-9.80640954,0.001898,-0.00041,0.005074,-76.553543,97.113663,-209.281372,60.187685,24.830143,13.210769,7.174423,-1.0,-1.0,100.069054,0.610382,-0.008854,0.015852,0.315135
879989.685587,-0.09609875999999999,-0.13816404,-9.82766781,0.002411,-0.001125,0.003641,-76.476547,97.260117,-208.834091,60.187685,24.830143,13.210769,7.174423,-1.0,-1.0,100.069054,0.610382,-0.008848,0.015838,0.315143
879989.705573,-0.0896634,-0.15418377,-9.810304109999999,0.002143,-0.000816,0.004123,-76.606201,97.121735,-208.928223,60.187685,24.830143,13.210769,7.174423,-1.0,-1.0,100.069054,0.610382,-0.008855,0.015831,0.315149
879989.745546,-0.09131148000000001,-0.16002072,-9.83350476,0.003036,0.000599,0.004474,-76.592163,97.189514,-209.25209,60.187685,24.830143,13.210769,7.174423,-1.0,-1.0,100.069054,0.610382,-0.008861,0.015835,0.315153
879989.745546,-0.09131148000000001,-0.16002072,-9.83350476,0.003036,0.000599,0.004474,-76.592163,97.189514,-209.25209,60.187685,24.830143,13.210769,7.174423,-1.0,-1.0,100.069054,0.610382,-0.008861,0.015835,0.315153
879989.765532,-0.0868185,-0.15478218000000002,-9.80461431,0.004434,0.000691,0.005589,-76.778427,97.069885,-209.238556,60.187685,24.830143,13.210769,7.174423,-1.0,-1.0,100.069054,0.610382,-0.008852,0.015834,0.315165
879989.785518,-0.08726976,-0.15447807000000002,-9.83095416,0.002888,0.001149,0.003335,-76.485947,97.126373,-209.007156,60.187685,24.830143,13.210769,7.174423,-1.0,-1.0,100.069054,0.610382,-0.008854,0.015841,0.315162
879989.785518,-0.08726976,-0.15447807000000002,-9.83095416,0.002888,0.001149,0.003335,-76.485947,97.126373,-209.007156,60.187685,24.830143,13.210769,7.174423,-1.0,-1.0,100.069054,0.610382,-0.008854,0.015841,0.315162
879989.845476,-0.10119015,-0.15313410000000002,-9.81808344,0.003986,-7.5e-05,0.003613,-76.61026,97.291183,-209.241302,60.187685,24.830143,13.210769,7.174423,-1.0,-1.0,100.069054,0.610382,-0.008865,0.015834,0.315162
879989.865462,-0.09714843000000001,-0.16390548000000002,-9.79847325,0.004571,0.000722,0.002719,-76.451843,97.138458,-208.981354,60.187685,24.830143,13.210769,7.174423,-1.0,-1.0,100.069054,0.610382,-0.008871,0.01583,0.315154
879989.865462,-0.09714843000000001,-0.16390548000000002,-9.79847325,0.004571,0.000722,0.002719,-76.451843,97.138458,-208.981354,60.187685,24.830143,13.210769,7.174423,-1.0,-1.0,100.069054,0.610382,-0.008871,0.01583,0.315154
879989.905434,-0.08861373,-0.15014205,-9.80626239,0.00409,-0.000572,0.003107,-76.464951,97.118912,-209.174515,60.187685,24.830143,13.210769,7.174423,-1.0,-1.0,100.069054,0.610382,-0.00886,0.015817,0.315153
879989.92542,-0.08442486000000002,-0.14414814,-9.82556847,0.002805,-0.00039,0.003885,-76.396698,97.378708,-208.791183,60.187685,24.830143,13.210769,7.174423,-1.0,-1.0,100.069054,0.610382,-0.008864,0.015809,0.315152
879989.945406,-0.08172711,-0.16136469,-9.81389457,0.003792,-0.000134,0.004176,-76.617172,97.108765,-208.904968,60.187685,24.830143,13.210769,7.174423,-1.0,-1.0,100.069054,0.610382,-0.008855,0.015807,0.315152
879989.945406,-0.08172711,-0.16136469,-9.81389457,0.003792,-0.000134,0.004176,-76.617172,97.108765,-208.904968,60.187685,24.830143,13.210769,7.174423,-1.0,-1.0,100.069054,0.610382,-0.008855,0.015807,0.315152
879989.985379,-0.08831943,-0.14923953,-9.8358984,0.003082,3.3e-05,0.005304,-76.436203,97.154556,-209.106995,60.187685,24.830143,13.210769,7.174423,-1.0,-1.0,100.069054,0.610382,-0.008835,0.015826,0.31517
879990.005365,-0.08786817,-0.14100894,-9.8014653,0.003543,0.000241,0.004038,-76.376328,97.182877,-208.85733,60.187685,24.830143,13.210769,7.174423,-1.0,-1.0,100.069054,0.610382,-0.008836,0.015823,0.315165
879990.025351,-0.08607294000000001,-0.16899687,-9.828707670000002,0.002888,-0.000279,0.004097,-76.411224,97.127274,-209.019608,60.187685,24.830143,13.210769,7.174423,-1.0,-1.0,100.069054,0.610382,-0.008833,0.015809,0.315171
879990.045337,-0.09265545000000001,-0.15358536,-9.81733788,0.002025,0.000281,0.0029,-76.544205,97.262222,-208.745453,60.187685,24.830143,13.210769,7.174423,-1.0,-1.0,100.069054,0.610382,-0.008836,0.015791,0.315168
879990.065323,-0.09669717,-0.15237873000000002,-9.811500930000001,0.003487,0.000409,0.004818,-76.583115,97.315155,-209.009323,60.187685,24.830143,13.210769,7.174423,-1.0,-1.0,100.069054,0.610382,-0.008837,0.01577,0.315156
879990.085309,-0.09116433,-0.15043635,-9.83065986,0.002235,-0.000205,0.004328,-76.467773,97.15892,-208.720551,60.187685,24.830143,13.210769,7.174423,-1.0,-1.0,100.069054,0.610382,-0.008845,0.015772,0.315156
879990.105295,-0.0953532,-0.14205861,-9.796079610000001,0.005002,5.6e-05,0.003858,-76.701309,96.919128,-208.699905,60.187685,24.830143,13.210769,7.174423,-1.0,-1.0,100.069054,0.610382,-0.008843,0.015759,0.315143
879990.125281,-0.10253412,-0.1505835,-9.84831786,0.001957,-0.001619,0.00383,-76.710083,97.154938,-208.693222,60.187685,24.830143,13.210769,7.174423,-1.0,-1.0,100.069054,0.610382,-0.008838,0.015781,0.315131
879990.145267,-0.08876088000000001,-0.16450389,-9.803260530000001,0.003349,-0.000737,0.003153,-76.517929,97.083939,-208.971436,60.187685,24.830143,13.210769,7.174423,-1.0,-1.0,100.069054,0.610382,-0.008843,0.015775,0.315129
879990.165253,-0.08741691000000001,-0.14505066000000003,-9.823469130000001,0.002308,0.000177,0.004904,-76.527557,97.056091,-208.837936,60.187685,24.830143,13.210769,7.174423,-1.0,-1.0,100.069054,0.610382,-0.008862,0.01577,0.315123
879990.185239,-0.08502327,-0.15701886,-9.8387433,0.002155,0.000181,0.004176,-76.527557,97.056091,-208.837936,60.187685,24.830143,13.210769,7.174423,-1.0,-1.0,100.069054,0.610382,-0.008862,0.015775,0.315129
879990.205226,-0.09684432000000001,-0.15148602000000003,-9.796373910000002,0.003372,0.001094,0.003646,-76.735443,96.930771,-209.010681,60.187685,24.830143,13.210769,7.174423,-1.0,-1.0,100.069054,0.610382,-0.008862,0.015755,0.315119
879990.225212,-0.08726976,-0.15074046,-9.82616688,0.002719,0.000287,0.003714,-76.616287,97.169586,-208.896317,60.187685,24.830143,13.210769,7.174423,-1.0,-1.0,100.069054,0.610382,-0.008857,0.015751,0.315101
879990.245198,-0.08712261,-0.14773860000000003,-9.78529842,0.002758,-0.001276,0.004814,-76.772385,97.182938,-208.778168,60.187685,24.830143,13.210769,7.174423,-1.0,-1.0,100.069054,0.610382,-0.008843,0.015756,0.315104
879990.265184,-0.08442486000000002,-0.16226721000000002,-9.813590460000002,0.002885,-0.001009,0.005738,-76.351074,96.984283,-208.939484,60.187685,24.830143,13.210769,7.174423,-1.0,-1.0,100.069054,0.610382,-0.008853,0.015755,0.315105
879990.28517,-0.09430353000000001,-0.15478218000000002,-9.816141060000001,0.003935,0.000552,0.005038,-76.471039,96.98085,-208.687302,60.187685,24.830143,13.210769,7.174423,-1.0,-1.0,100.069054,0.610382,-0.008862,0.015755,0.315114
879990.305156,-0.08547453,-0.1591182,-9.81583695,0.003443,-6.6e-05,0.003389,-76.594437,97.064392,-208.905014,60.187685,24.830143,13.210769,7.174423,-1.0,-1.0,100.069054,0.610382,-0.008855,0.015757,0.315128
879990.325142,-0.09190989000000001,-0.15193728,-9.82631403,0.002531,-0.001021,0.005121,-76.686234,96.878799,-208.874863,60.187685,24.830143,13.210769,7.174423,-1.0,-1.0,100.069054,0.610382,-0.008846,0.015765,0.31512
879990.345128,-0.0953532,-0.14864112000000002,-9.78335604,0.003611,0.00098,0.003517,-76.47438,96.992493,-209.026108,60.187685,24.830143,13.210769,7.174423,-1.0,-1.0,100.069054,0.610382,-0.008849,0.015757,0.315116
879990.365114,-0.09116433,-0.16091343000000002,-9.83185668,0.003233,-0.000187,0.004489,-76.465622,96.69873,-208.993164,60.187685,24.830143,13.210769,7.174423,-1.0,-1.0,100.069054,0.610382,-0.00884,0.01575,0.315113
879990.3851,-0.08517042000000001,-0.16675038,-9.80790066,0.003059,0.000296,0.004089,-76.475739,96.915466,-209.259674,60.187685,24.830143,13.210769,7.174423,-1.0,-1.0,100.069054,0.610382,-0.008846,0.015761,0.315118
879990.405086,-0.0836793,-0.15074046,-9.803113380000001,0.004062,-0.001159,0.004077,-76.793503,96.745895,-209.331192,60.187685,24.830143,13.210769,7.174423,-1.0,-1.0,100.069054,0.610382,-0.008835,0.015753,0.315129
879990.425073,-0.09968922,-0.15732297,-9.831552570000001,0.001979,-0.000246,0.00305,-76.660309,96.962784,-209.395554,60.187685,24.830143,13.210769,7.174423,-1.0,-1.0,100.069054,0.610382,-0.008844,0.015752,0.315139
879990.445059,-0.09744273000000002,-0.14624748,-9.7986204,0.003682,-0.000525,0.00303,-76.419022,96.923706,-209.509491,60.187685,24.830143,13.210769,7.174423,-1.0,-1.0,100.069054,0.610382,-0.008839,0.015736,0.315126
879990.465045,-0.09071307,-0.16165899,-9.841284090000002,0.002057,-0.000776,0.003481,-76.417435,97.169601,-209.310638,60.187685,24.830143,13.210769,7.174423,-1.0,-1.0,100.069054,0.610382,-0.008839,0.015741,0.315123
879990.505017,-0.09789399,-0.14025357000000002,-9.808499070000002,0.00365,-0.001065,0.004602,-76.410126,96.907303,-209.317169,60.187685,24.830143,13.210769,7.174423,-1.0,-1.0,100.069054,0.610382,-0.008836,0.01572,0.315114
879990.525003,-0.08831943,-0.16091343000000002,-9.82975734,0.003179,-0.00238,0.004092,-76.553558,96.726608,-209.185577,60.187685,24.830143,13.210769,7.174423,-1.0,-1.0,100.069054,0.610382,-0.00885,0.015724,0.315113
879990.544989,-0.09086022,-0.14610033,-9.78829047,0.00319,0.001017,0.002825,-76.603149,96.781982,-209.078796,60.187685,24.830143,13.210769,7.174423,-1.0,-1.0,100.069054,0.610382,-0.008866,0.015708,0.315111
879990.564975,-0.08277678,-0.14505066000000003,-9.833946209999999,0.002322,0.000223,0.003488,-76.667694,96.969208,-209.476395,60.187685,24.830143,13.210769,7.174423,-1.0,-1.0,100.069054,0.610382,-0.008862,0.015708,0.315096
879990.584961,-0.08786817,-0.14804271000000002,-9.80565417,0.003356,0.000696,0.004332,-76.589203,96.892883,-209.075745,60.187685,24.830143,13.210769,7.174423,-1.0,-1.0,100.069054,0.610382,-0.008868,0.01572,0.315094
879990.604947,-0.09160578000000001,-0.15806852999999998,-9.82721655,0.001607,0.000102,0.004111,-76.546356,97.037979,-208.923813,60.187685,24.830143,13.210769,7.174423,-1.0,-1.0,100.069054,0.610382,-0.008873,0.015713,0.315098
879990.624934,-0.09894366,-0.14354973000000001,-9.82406754,0.003153,-9.5e-05,0.003316,-76.477737,97.095535,-208.859756,60.187685,24.830143,13.210769,7.174423,-1.0,-1.0,100.06942,0.578674,-0.008875,0.015718,0.315095
879990.624934,-0.09894366,-0.14354973000000001,-9.82406754,0.003153,-9.5e-05,0.003316,-76.477737,97.095535,-208.859756,60.187685,24.830143,13.210769,7.174423,-1.0,-1.0,100.06942,0.578674,-0.008875,0.015718,0.315095
879990.664906,-0.07888221,-0.14998509000000002,-9.8242245,0.002134,-0.000842,0.002962,-76.283188,96.908554,-208.902359,60.187685,24.830143,13.210769,7.174423,-1.0,-1.0,100.06942,0.578674,-0.008861,0.015724,0.315069
879990.684892,-0.09580446000000001,-0.15178032,-9.799974180000001,0.004791,0.000804,0.004173,-76.494675,97.009293,-209.197769,60.187685,24.830143,13.210769,7.174423,-1.0,-1.0,100.06942,0.578674,-0.008865,0.01573,0.315058
879990.704878,-0.09460764,-0.1588239,-9.827814960000001,0.002706,-0.000663,0.004624,-76.764404,96.935074,-209.163864,60.187685,24.830143,13.210769,7.174423,-1.0,-1.0,100.06942,0.578674,-0.008857,0.015733,0.315057
879990.704878,-0.09460764,-0.1588239,-9.827814960000001,0.002706,-0.000663,0.004624,-76.764404,96.935074,-209.163864,60.187685,24.830143,13.210769,7.174423,-1.0,-1.0,100.06942,0.578674,-0.008857,0.015733,0.315057
879990.74485,-0.08157996,-0.15148602000000003,-9.80416305,0.003674,0.00088,0.006283,-76.503738,97.200531,-209.139404,60.187685,24.830143,13.210769,7.174423,-1.0,-1.0,100.06942,0.578674,-0.008846,0.015719,0.315084
879990.764836,-0.08277678,-0.15806852999999998,-9.832307940000002,0.002006,-0.000382,0.004195,-76.459381,97.200699,-209.061356,60.187685,24.830143,13.210769,7.174423,-1.0,-1.0,100.06942,0.578674,-0.008846,0.015729,0.315106
879990.784822,-0.0896634,-0.155979,-9.796530870000002,0.004069,0.000107,0.003509,-76.413101,96.993317,-209.076447,60.187685,24.830143,13.210769,7.174423,-1.0,-1.0,100.06942,0.578674,-0.008856,0.015715,0.315104
879990.804809,-0.09116433,-0.15268284000000001,-9.83035575,0.002537,-0.0024,0.004557,-76.54805,96.863113,-208.779846,60.187685,24.830143,13.210769,7.174423,-1.0,-1.0,100.06942,0.578674,-0.008848,0.015717,0.315101
879990.824795,-0.09789399,-0.14864112000000002,-9.81418887,0.00308,-0.001167,0.005205,-76.671066,97.042465,-208.614914,60.187685,24.830143,13.210769,7.174423,-1.0,-1.0,100.06942,0.578674,-0.008864,0.01572,0.315101
879990.844781,-0.08592579,-0.16061913,-9.819427410000001,0.003426,-0.000851,0.003332,-76.822266,97.102997,-208.839951,60.187685,24.830143,13.210769,7.174423,-1.0,-1.0,100.06942,0.578674,-0.008864,0.015726,0.315104
879990.844781,-0.08592579,-0.16061913,-9.819427410000001,0.003426,-0.000851,0.003332,-76.822266,97.102997,-208.839951,60.187685,24.830143,13.210769,7.174423,-1.0,-1.0,100.06942,0.578674,-0.008864,0.015726,0.315104
879990.884753,-0.09415638000000001,-0.15208443,-9.80655669,0.003527,-0.000357,0.00514,-76.643143,96.996872,-208.755157,60.187685,24.830143,13.210769,7.174423,-1.0,-1.0,100.06942,0.578674,-0.008857,0.015729,0.315101
879990.904739,-0.09340101,-0.14579622,-9.831101310000001,0.002483,0.000759,0.004226,-76.643143,96.996872,-208.755157,60.187685,24.830143,13.210769,7.174423,-1.0,-1.0,100.06942,0.578674,-0.008856,0.015742,0.315096
879990.924725,-0.10717425000000001,-0.15118191,-9.80581113,0.003302,-0.000991,0.004866,-76.519608,97.141235,-208.999161,60.187685,24.830143,13.210769,7.174423,-1.0,-1.0,100.06942,0.578674,-0.008868,0.015728,0.3151
879990.944711,-0.09086022,-0.14400099,-9.816739470000002,0.003116,-0.00074,0.003794,-76.479782,97.150787,-208.660233,60.187685,24.830143,13.210769,7.174423,-1.0,-1.0,100.06942,0.578674,-0.008864,0.015726,0.315099
879990.964697,-0.09624591,-0.16630893,-9.82856052,0.003815,-0.00025,0.004526,-76.348907,97.126572,-208.794617,60.187685,24.830143,13.210769,7.174423,-1.0,-1.0,100.06942,0.578674,-0.008875,0.015734,0.315096
879990.984684,-0.07349652000000001,-0.14505066000000003,-9.80461431,0.003551,0.001313,0.004355,-76.501648,97.085236,-208.521881,60.187685,24.830143,13.210769,7.174423,-1.0,-1.0,100.06942,0.578674,-0.00888,0.015731,0.315095
879991.00467,-0.0811287,-0.15492933000000003,-9.83829204,0.003393,0.000648,0.003814,-76.590714,96.949951,-208.823212,60.187685,24.830143,13.210769,7.174423,-1.0,-1.0,100.06942,0.578674,-0.008872,0.015747,0.315098
879991.024656,-0.09176274,-0.15672456,-9.80236782,0.003846,0.000499,0.005035,-76.61554,96.975113,-208.636536,60.187685,24.830143,13.210769,7.174423,-1.0,-1.0,100.06942,0.578674,-0.008872,0.015747,0.3151
879991.044642,-0.09490194,-0.15342840000000002,-9.81928026,0.002123,-0.000552,0.005669,-76.474564,97.093704,-208.635971,60.187685,24.830143,13.210769,7.174423,-1.0,-1.0,100.06942,0.578674,-0.00888,0.015751,0.315101
879991.044642,-0.09490194,-0.15342840000000002,-9.81928026,0.002123,-0.000552,0.005669,-76.474564,97.093704,-208.635971,60.187685,24.830143,13.210769,7.174423,-1.0,-1.0,100.06942,0.578674,-0.00888,0.015751,0.315101
879991.044642,-0.09490194,-0.15342840000000002,-9.81928026,0.002123,-0.000552,0.005669,-76.474564,97.093704,-208.635971,60.187685,24.830143,13.210769,7.174423,-1.0,-1.0,100.06942,0.578674,-0.00888,0.015751,0.315101
879991.044642,-0.09490194,-0.15342840000000002,-9.81928026,0.002123,-0.000552,0.005669,-76.474564,97.093704,-208.635971,60.187685,24.830143,13.210769,7.174423,-1.0,-1.0,100.06942,0.578674,-0.00888,0.015751,0.315101
879991.044642,-0.09490194,-0.15342840000000002,-9.81928026,0.002123,-0.000552,0.005669,-76.474564,97.093704,-208.635971,60.187685,24.830143,13.210769,7.174423,-1.0,-1.0,100.06942,0.578674,-0.00888,0.015751,0.315101
879991.044642,-0.09490194,-0.15342840000000002,-9.81928026,0.002123,-0.000552,0.005669,-76.474564,97.093704,-208.635971,60.187685,24.830143,13.210769,7.174423,-1.0,-1.0,100.06942,0.578674,-0.00888,0.015751,0.315101
879991.044642,-0.09490194,-0.15342840000000002,-9.81928026,0.002123,-0.000552,0.005669,-76.474564,97.093704,-208.635971,60.187685,24.830143,13.210769,7.174423,-1.0,-1.0,100.06942,0.578674,-0.00888,0.015751,0.315101
879991.064628,-0.10328949000000001,-0.16076628,-9.824822910000002,0.003794,0.001567,0.004801,-76.374237,97.255814,-208.937302,60.187685,24.830143,13.210769,7.174423,-1.0,-1.0,100.06942,0.578674,-0.008874,0.015746,0.315109
879991.124586,-0.09056592000000001,-0.14954364,-9.792783450000002,0.004735,0.000745,0.00501,-76.725708,97.152603,-208.972809,60.187685,24.830143,13.210769,7.174423,-1.0,-1.0,100.06942,0.578674,-0.008886,0.015753,0.315106
879991.204531,-0.10104300000000001,-0.14550192,-9.8302086,0.003243,0.000262,0.006006,-76.376373,96.84935,-209.068741,60.187685,24.830143,13.210769,7.174423,-1.0,-1.0,100.06942,0.578674,-0.008879,0.015797,0.315096
879991.264489,-0.08861373,-0.16525926000000002,-9.819427410000001,0.002167,-0.000241,0.003712,-76.391678,96.947098,-208.93985,60.187679,24.83013,12.31467,11.793548,-1.0,-1.0,100.06942,0.578674,-0.008879,0.015793,0.315109
879991.284475,-0.07320222,-0.1417545,-9.80969589,0.005337,3.4e-05,0.002976,-76.397156,97.032562,-208.936661,60.187679,24.83013,12.31467,11.793548,-1.0,-1.0,100.06942,0.578674,-0.008886,0.015796,0.315115
879991.304462,-0.08786817,-0.16106057999999998,-9.83365191,0.003876,-0.000251,0.003519,-76.412735,96.925705,-209.10437,60.187679,24.83013,12.31467,11.793548,-1.0,-1.0,100.06942,0.578674,-0.008878,0.015806,0.315107
879991.324448,-0.07679268,-0.15163317,-9.8043102,0.004876,0.000392,0.00464,-76.409088,96.938889,-208.934372,60.187679,24.83013,12.31467,11.793548,-1.0,-1.0,100.06942,0.578674,-0.008873,0.015814,0.315119
879991.344434,-0.08772102000000001,-0.15237873000000002,-9.82751085,0.002285,0.000321,0.004829,-76.413589,97.11351,-209.008698,60.187679,24.83013,12.31467,11.793548,-1.0,-1.0,100.06942,0.578674,-0.008863,0.01583,0.31511
879991.36442,-0.09864936,-0.15208443,-9.79338186,0.004359,-0.000573,0.004268,-76.290283,97.136322,-208.976181,60.187679,24.83013,12.31467,11.793548,-1.0,-1.0,100.06942,0.578674,-0.00886,0.015832,0.315115
879991.384406,-0.0782838,-0.14490351,-9.80760636,0.004353,-0.000494,0.003292,-76.587189,97.052429,-209.280457,60.187679,24.83013,12.31467,11.793548,-1.0,-1.0,100.06942,0.578674,-0.008856,0.01584,0.315114
879991.404392,-0.0925083,-0.14833701000000002,-9.823920390000001,0.00416,-0.001028,0.004776,-76.588745,97.212616,-209.093735,60.187679,24.83013,12.31467,11.793548,-1.0,-1.0,100.06942,0.578674,-0.008853,0.015847,0.315114
879991.424378,-0.09340101,-0.16540641000000003,-9.80101404,0.005252,-0.001494,0.005424,-76.598297,97.060242,-209.113922,60.187679,24.83013,12.31467,11.793548,-1.0,-1.0,100.06942,0.578674,-0.008871,0.015856,0.315121
879991.444364,-0.08696565,-0.15762708,-9.823626090000001,0.003123,-0.000542,0.003609,-76.555908,96.93277,-209.547455,60.187679,24.83013,12.31467,11.793548,-1.0,-1.0,100.06942,0.578674,-0.00887,0.015873,0.315127
879991.464351,-0.09086022,-0.15373251000000002,-9.80026848,0.002486,-0.000629,0.004275,-76.45488,96.94873,-209.161636,60.187679,24.83013,12.31467,11.793548,-1.0,-1.0,100.06942,0.578674,-0.008882,0.015869,0.315126
879991.484337,-0.08667135000000001,-0.14505066000000003,-9.814787280000001,0.00267,8.1e-05,0.003921,-76.669266,96.862564,-208.866287,60.187679,24.83013,12.31467,11.793548,-1.0,-1.0,100.06942,0.578674,-0.008891,0.015863,0.315126
879991.504323,-0.08636724,-0.15418377,-9.80909748,0.003333,-0.001066,0.004554,-76.61058,97.202728,-209.213806,60.187679,24.83013,12.31467,11.793548,-1.0,-1.0,100.06942,0.578674,-0.008893,0.01586,0.31512
879991.524309,-0.08831943,-0.15088761,-9.79847325,0.003564,-0.000534,0.005751,-76.532562,97.028229,-208.980316,60.187679,24.83013,12.31467,11.793548,-1.0,-1.0,100.06942,0.578674,-0.008902,0.015864,0.315127
879991.544295,-0.09879651,-0.15223158,-9.83350476,0.003023,-0.001506,0.002807,-76.562485,97.096161,-208.763718,60.187679,24.83013,12.31467,11.793548,-1.0,-1.0,100.06942,0.578674,-0.008902,0.015868,0.315129
879991.564281,-0.08157996,-0.15897105,-9.78934014,0.002456,-0.000716,0.005085,-76.516159,97.026093,-208.947479,60.187679,24.83013,12.31467,11.793548,-1.0,-1.0,100.06942,0.578674,-0.008913,0.015856,0.315122
879991.584267,-0.09624591,-0.16136469,-9.8333478,0.002789,0.001198,0.002292,-76.718277,96.94075,-208.976578,60.187679,24.83013,12.31467,11.793548,-1.0,-1.0,100.06942,0.578674,-0.008918,0.015862,0.315141
879991.62424,-0.07903917,-0.14610033,-9.80461431,0.003654,-0.000273,0.004063,-76.688568,96.789627,-208.926743,60.187679,24.83013,12.31467,11.793548,-1.0,-1.0,100.06942,0.578674,-0.008915,0.015858,0.315133
879991.644226,-0.09205704,-0.13905675,-9.82901178,0.002207,-0.000217,0.002632,-76.630539,96.879227,-209.189957,60.187679,24.83013,12.31467,11.793548,-1.0,-1.0,100.06942,0.578674,-0.008919,0.015864,0.315133
879991.664212,-0.08846658,-0.15118191,-9.79398027,0.00329,-0.001702,0.002964,-76.403259,96.945358,-209.146637,60.187679,24.83013,12.31467,11.793548,-1.0,-1.0,100.06942,0.578674,-0.008928,0.015856,0.315122
879991.684198,-0.07993188000000001,-0.15447807000000002,-9.840234420000002,0.003456,-0.000502,0.003728,-76.462234,97.020538,-208.918274,60.187679,24.83013,12.31467,11.793548,-1.0,-1.0,100.06942,0.578674,-0.008929,0.015854,0.315118
879991.684198,-0.07993188000000001,-0.15447807000000002,-9.840234420000002,0.003456,-0.000502,0.003728,-76.462234,97.020538,-208.918274,60.187679,24.83013,12.31467,11.793548,-1.0,-1.0,100.06942,0.578674,-0.008929,0.015854,0.315118
879991.72417,-0.08007903000000001,-0.1417545,-9.81014715,0.003385,-1.3e-05,0.00368,-76.751144,96.946854,-209.036102,60.187679,24.83013,12.31467,11.793548,-1.0,-1.0,100.069626,0.56282,-0.008937,0.015839,0.315149
879991.744157,-0.10612458,-0.14909238,-9.82526436,0.003095,0.000115,0.004188,-76.711517,97.080887,-208.97406,60.187679,24.83013,12.31467,11.793548,-1.0,-1.0,100.069626,0.56282,-0.008937,0.015831,0.315141
879991.764143,-0.08592579,-0.15582204,-9.795334050000001,0.004443,0.000581,0.003874,-76.50975,97.129028,-209.382751,60.187679,24.83013,12.31467,11.793548,-1.0,-1.0,100.069626,0.56282,-0.008935,0.01581,0.315143
879991.784129,-0.09564750000000001,-0.15447807000000002,-9.8415882,0.003833,0.000675,0.00435,-76.578384,96.940964,-209.244965,60.187679,24.83013,12.31467,11.793548,-1.0,-1.0,100.069626,0.56282,-0.008939,0.015812,0.315132
879991.804115,-0.08248248000000001,-0.16121754000000002,-9.79517709,0.003687,-0.000102,0.004682,-76.440292,96.81778,-209.629517,60.187679,24.83013,12.31467,11.793548,-1.0,-1.0,100.069626,0.56282,-0.008927,0.015817,0.315144
879991.824101,-0.08023599000000001,-0.14773860000000003,-9.82062423,0.003687,-0.000102,0.004682,-76.607346,96.947311,-209.236511,60.187679,24.83013,12.31467,11.793548,-1.0,-1.0,100.069626,0.56282,-0.00892,0.01582,0.315157
879991.844087,-0.08517042000000001,-0.1707921,-9.82332198,0.00344,0.001655,0.004562,-76.721573,96.856781,-209.081116,60.187679,24.83013,12.31467,11.793548,-1.0,-1.0,100.069626,0.56282,-0.008936,0.015836,0.315166
879991.864073,-0.09160578000000001,-0.14818986,-9.79473564,0.002813,0.001435,0.003999,-76.511887,97.018555,-209.385773,60.187679,24.83013,12.31467,11.793548,-1.0,-1.0,100.069626,0.56282,-0.008924,0.015828,0.315173
879991.88406,-0.09145863,-0.14923953,-9.82257642,0.002209,0.000498,0.003918,-76.520325,96.815735,-209.246857,60.187679,24.83013,12.31467,11.793548,-1.0,-1.0,100.069626,0.56282,-0.008921,0.015831,0.315183
879991.904046,-0.08457201,-0.16286562,-9.799218810000001,0.002559,-0.001113,0.003787,-76.590698,96.944183,-209.318466,60.187679,24.83013,12.31467,11.793548,-1.0,-1.0,100.069626,0.56282,-0.00892,0.015823,0.315176
879991.924032,-0.09609875999999999,-0.14878827,-9.82886463,0.003034,-0.000508,0.004564,-76.436401,96.983948,-209.331573,60.187679,24.83013,12.31467,11.793548,-1.0,-1.0,100.069626,0.56282,-0.008917,0.015813,0.31518
879991.944018,-0.09909081000000002,-0.15806852999999998,-9.8159841,0.002248,-0.001524,0.004087,-76.456131,96.898315,-209.322968,60.187679,24.83013,12.31467,11.793548,-1.0,-1.0,100.069626,0.56282,-0.00892,0.015828,0.315179
879991.964004,-0.09805095000000001,-0.15866694,-9.79353882,0.003665,-0.000274,0.003731,-76.487717,97.105774,-209.173355,60.187679,24.83013,12.31467,11.793548,-1.0,-1.0,100.069626,0.56282,-0.00893,0.015828,0.315175
879991.98399,-0.08308089000000002,-0.14205861,-9.81688662,0.003375,0.000222,0.004765,-76.578354,96.936981,-209.10289,60.187679,24.83013,12.31467,11.793548,-1.0,-1.0,100.069626,0.56282,-0.008929,0.015835,0.315179
879992.003977,-0.08921214,-0.16420959000000002,-9.80222067,0.00229,7e-06,0.003465,-76.389908,96.931778,-209.266525,60.187679,24.83013,12.31467,11.793548,-1.0,-1.0,100.069626,0.56282,-0.008922,0.015839,0.315184
879992.023963,-0.09011466,-0.15253569,-9.81777933,0.002918,0.000142,0.003744,-76.3983,97.134186,-209.058334,60.187679,24.83013,12.31467,11.793548,-1.0,-1.0,100.069626,0.56282,-0.008921,0.015821,0.315184
879992.043949,-0.09310671,-0.15717582000000002,-9.80790066,0.004471,0.000385,0.003917,-76.401077,97.19548,-208.901123,60.187679,24.83013,12.31467,11.793548,-1.0,-1.0,100.069626,0.56282,-0.008921,0.015826,0.315173
879992.063935,-0.09190989000000001,-0.15402681000000001,-9.802966230000001,0.003517,-5.8e-05,0.004576,-76.42482,97.033722,-208.919083,60.187679,24.83013,12.31467,11.793548,-1.0,-1.0,100.069626,0.56282,-0.008922,0.015823,0.315176
879992.083921,-0.09729558,-0.15148602000000003,-9.82646118,0.003096,-0.000511,0.003809,-76.594727,96.977097,-209.312286,60.187679,24.83013,12.31467,11.793548,-1.0,-1.0,100.069626,0.56282,-0.008909,0.015823,0.315183
879992.103907,-0.09669717,-0.15342840000000002,-9.81239364,0.002667,-2e-05,0.004407,-76.266159,96.926407,-209.006958,60.187679,24.83013,12.31467,11.793548,-1.0,-1.0,100.069626,0.56282,-0.008909,0.015829,0.315185
879992.123893,-0.08562168,-0.14684589,-9.831552570000001,0.002931,-0.001383,0.002936,-76.391327,96.949997,-208.939331,60.187679,24.83013,12.31467,11.793548,-1.0,-1.0,100.069626,0.56282,-0.00891,0.015824,0.315176
879992.14388,-0.10223982000000001,-0.16076628,-9.81928026,0.004199,-1.8e-05,0.003834,-76.423111,96.965851,-209.275757,60.187679,24.83013,12.31467,11.793548,-1.0,-1.0,100.069626,0.56282,-0.008916,0.01582,0.315155
879992.163866,-0.08098155,-0.15014205,-9.830502899999999,0.00246,0.001076,0.004125,-76.729721,96.988815,-209.375702,60.187679,24.83013,12.31467,11.793548,-1.0,-1.0,100.069626,0.56282,-0.008913,0.015811,0.315158
879992.183852,-0.09490194,-0.15612615,-9.81733788,0.002573,0.00023,0.004641,-76.475052,96.739456,-209.204025,60.187679,24.83013,12.31467,11.793548,-1.0,-1.0,100.069626,0.56282,-0.008899,0.015804,0.31515
879992.203838,-0.08128566000000001,-0.15701886,-9.807459210000001,0.005145,0.000171,0.002651,-76.536911,96.995514,-209.277908,60.187679,24.83013,12.31467,11.793548,-1.0,-1.0,100.069626,0.56282,-0.008905,0.015812,0.315154
879992.223824,-0.08337519,-0.15208443,-9.83350476,0.002913,0.000869,0.00422,-76.56633,96.860931,-209.112976,60.187679,24.83013,12.31467,11.793548,-1.0,-1.0,100.069626,0.56282,-0.008909,0.015828,0.315148
879992.24381,-0.10193571,-0.16375833,-9.81793629,0.003252,-0.001216,0.005188,-76.52002,96.924133,-209.023376,60.187679,24.83013,12.31467,11.793548,-1.0,-1.0,100.069626,0.56282,-0.008906,0.015817,0.315142
879992.263797,-0.08098155,-0.15717582000000002,-9.82556847,0.003847,6.5e-05,0.003717,-76.629974,96.839752,-208.963898,60.187679,24.83013,12.31467,11.793548,-1.0,-1.0,100.069626,0.56282,-0.008909,0.015814,0.315146
879992.303769,-0.08517042000000001,-0.15163317,-9.810304109999999,0.001905,-0.001861,0.003204,-76.789352,96.797287,-209.268875,60.187679,24.83013,12.31467,11.793548,-1.0,-1.0,100.069626,0.56282,-0.008911,0.015811,0.315156
879992.323755,-0.09445068,-0.14385384,-9.818534699999999,0.002854,-0.001858,0.00522,-76.642487,96.785858,-209.404617,60.187679,24.83013,12.31467,11.793548,-1.0,-1.0,100.069626,0.56282,-0.008913,0.015801,0.315147
879992.323755,-0.09445068,-0.14385384,-9.818534699999999,0.002854,-0.001858,0.00522,-76.642487,96.785858,-209.404617,60.187679,24.83013,12.31467,11.793548,-1.0,-1.0,100.069626,0.56282,-0.008913,0.015801,0.315147
879992.363727,-0.0868185,-0.14909238,-9.82586277,0.003668,-0.000383,0.005016,-76.73735,96.725266,-208.989243,60.187679,24.83013,12.31467,11.793548,-1.0,-1.0,100.069626,0.56282,-0.008926,0.015787,0.31515
879992.383713,-0.09729558,-0.15687171,-9.82197801,0.00149,0.001241,0.003335,-76.662582,96.868835,-209.287796,60.187679,24.83013,12.31467,11.793548,-1.0,-1.0,100.069626,0.56282,-0.008934,0.015803,0.315145
879992.4037,-0.0836793,-0.15418377,-9.81718092,0.003098,-0.000957,0.004106,-76.903458,96.809631,-209.396576,60.187679,24.83013,12.31467,11.793548,-1.0,-1.0,100.069626,0.56282,-0.008932,0.015798,0.315143
879992.423686,-0.09684432000000001,-0.15103476000000002,-9.82332198,0.002599,-0.000709,0.004704,-76.561081,96.891525,-209.399689,60.187679,24.83013,12.31467,11.793548,-1.0,-1.0,100.069626,0.56282,-0.008949,0.015803,0.315152
879992.443672,-0.08726976,-0.14909238,-9.79428438,0.003312,-0.002336,0.00396,-76.879974,96.843307,-209.433899,60.187679,24.83013,12.31467,11.793548,-1.0,-1.0,100.069626,0.56282,-0.008952,0.015793,0.315155
879992.463658,-0.09894366,-0.15118191,-9.822870720000001,0.001461,0.000136,0.004305,-76.567566,97.070633,-209.338608,60.187679,24.83013,12.31467,11.793548,-1.0,-1.0,100.069626,0.56282,-0.008961,0.015796,0.315152
879992.483644,-0.09236115,-0.15777423000000002,-9.816582510000002,0.003885,0.000368,0.00365,-76.827469,96.818573,-209.116516,60.187679,24.83013,12.31467,11.793548,-1.0,-1.0,100.069626,0.56282,-0.008969,0.015786,0.315144
879992.50363,-0.09205704,-0.14983794,-9.80565417,0.003105,-6.6e-05,0.002798,-76.579666,97.044617,-209.119125,60.187679,24.83013,12.31467,11.793548,-1.0,-1.0,100.069626,0.56282,-0.008978,0.015786,0.31514
879992.523617,-0.0925083,-0.1502892,-9.82406754,0.00214,-0.000452,0.004384,-76.655167,96.915497,-209.181091,60.187679,24.83013,12.31467,11.793548,-1.0,-1.0,100.069626,0.56282,-0.008996,0.015788,0.315147
879992.543603,-0.0953532,-0.14490351,-9.80610543,0.003493,-0.001111,0.005486,-76.569778,97.140167,-209.035751,60.187679,24.83013,12.31467,11.793548,-1.0,-1.0,100.069626,0.56282,-0.009004,0.015769,0.315137
879992.563589,-0.08427771,-0.16136469,-9.819427410000001,0.003246,-0.001366,0.004293,-76.686737,96.845886,-209.021164,60.187679,24.83013,12.31467,11.793548,-1.0,-1.0,100.069626,0.56282,-0.009013,0.015774,0.315147
879992.583575,-0.09040896000000001,-0.14983794,-9.80521272,0.004021,-0.000853,0.003991,-76.75621,96.902557,-209.146591,60.187679,24.83013,12.31467,11.793548,-1.0,-1.0,100.069626,0.56282,-0.009027,0.01578,0.31515
879992.603561,-0.09520605,-0.14818986,-9.79742358,0.002768,-0.000519,0.005023,-76.672989,96.832245,-208.88588,60.187679,24.83013,12.31467,11.793548,-1.0,-1.0,100.069626,0.56282,-0.009029,0.015772,0.315156
879992.623547,-0.10313253,-0.15433092,-9.81793629,0.003855,0.000142,0.003652,-76.583282,96.866196,-208.999374,60.187679,24.83013,12.31467,11.793548,-1.0,-1.0,100.069626,0.56282,-0.009037,0.01577,0.315156
879992.643534,-0.07888221,-0.1502892,-9.80954874,0.003103,-0.001531,0.005678,-76.714508,96.900162,-209.158539,60.187679,24.83013,12.31467,11.793548,-1.0,-1.0,100.069626,0.56282,-0.009037,0.01577,0.315157
879992.66352,-0.09325386000000001,-0.15492933000000003,-9.83484873,0.004225,0.000103,0.002819,-76.622681,96.826996,-209.115616,60.187679,24.83013,12.31467,11.793548,-1.0,-1.0,100.069626,0.56282,-0.009042,0.01578,0.315174
879992.683506,-0.08562168,-0.16151184,-9.804015900000001,0.004033,-0.001661,0.004302,-76.910507,96.836777,-209.080444,60.187679,24.83013,12.31467,11.793548,-1.0,-1.0,100.069626,0.56282,-0.009044,0.015799,0.315173
879992.703492,-0.09504909,-0.14969079000000002,-9.83035575,0.003299,-0.00015,0.005423,-76.616028,96.933167,-208.980438,60.187679,24.83013,12.31467,11.793548,-1.0,-1.0,100.069626,0.56282,-0.00906,0.015795,0.31517
879992.723478,-0.09026181000000001,-0.15282999000000003,-9.816141060000001,0.003196,-0.000338,0.00405,-76.693085,96.958344,-209.242233,60.187679,24.83013,12.31467,11.793548,-1.0,-1.0,100.069626,0.56282,-0.009074,0.015801,0.315182
879992.743464,-0.1013373,-0.14818986,-9.81718092,0.002136,-0.000778,0.00461,-76.566025,96.972305,-209.000504,60.187679,24.83013,12.31467,11.793548,-1.0,-1.0,100.069626,0.56282,-0.009078,0.015797,0.31517
879992.763451,-0.08696565,-0.14998509000000002,-9.818377739999999,0.002427,-0.000987,0.005213,-76.582779,96.921295,-209.20929,60.187679,24.83013,12.31467,11.793548,-1.0,-1.0,100.069626,0.56282,-0.009081,0.015788,0.315167
879992.783437,-0.09236115,-0.14849397,-9.80521272,0.003897,-0.001407,0.004253,-76.901413,96.846909,-209.342194,60.187679,24.83013,12.31467,11.793548,-1.0,-1.0,100.069786,0.546967,-0.00909,0.015785,0.31516
879992.803423,-0.09580446000000001,-0.15866694,-9.80581113,0.003995,-0.001733,0.005062,-76.632095,96.873505,-209.184631,60.187679,24.83013,12.31467,11.793548,-1.0,-1.0,100.069786,0.546967,-0.009093,0.015788,0.315153
879992.823409,-0.09894366,-0.1505835,-9.82526436,0.003377,0.00156,0.004284,-76.559952,96.856003,-209.273865,60.187679,24.83013,12.31467,11.793548,-1.0,-1.0,100.069786,0.546967,-0.009106,0.015795,0.315158
879992.843395,-0.07409493,-0.15701886,-9.817033770000002,0.003894,0.001506,0.003883,-76.680161,96.838654,-209.193512,60.187679,24.83013,12.31467,11.793548,-1.0,-1.0,100.069786,0.546967,-0.009105,0.015791,0.31516
879992.863381,-0.08532738,-0.16256151,-9.81434583,0.002232,0.000544,0.006219,-76.493256,97.011703,-209.192261,60.187679,24.83013,12.31467,11.793548,-1.0,-1.0,100.069786,0.546967,-0.009096,0.015795,0.315156
879992.883368,-0.09475478999999999,-0.15193728,-9.81554265,0.003775,0.000153,0.005923,-76.555481,97.070709,-209.176834,60.187679,24.83013,12.31467,11.793548,-1.0,-1.0,100.069786,0.546967,-0.009085,0.015791,0.315168
879992.903354,-0.08203122,-0.15297714,-9.81373761,0.00399,-0.000906,0.004613,-76.492691,96.926559,-209.046799,60.187679,24.83013,12.31467,11.793548,-1.0,-1.0,100.069786,0.546967,-0.009089,0.015799,0.315183
879992.92334,-0.09564750000000001,-0.15268284000000001,-9.820182780000001,0.002659,0.000339,0.00403,-76.480652,96.82782,-209.476288,60.187679,24.83013,12.31467,11.793548,-1.0,-1.0,100.069786,0.546967,-0.009093,0.015802,0.315174
879992.943326,-0.10044459,-0.14998509000000002,-9.81074556,0.004507,-0.001183,0.004379,-76.600555,96.799652,-209.096146,60.187679,24.83013,12.31467,11.793548,-1.0,-1.0,100.069786,0.546967,-0.009088,0.015787,0.315187
879992.963312,-0.08876088000000001,-0.14654178,-9.81823059,0.004202,-0.000626,0.004258,-76.62178,96.800156,-209.34108,60.187679,24.83013,12.31467,11.793548,-1.0,-1.0,100.069786,0.546967,-0.009083,0.015787,0.315183
