timestamp,accel_x,accel_y,accel_z,gyro_x,gyro_y,gyro_z,mag_x,mag_y,mag_z,gps_lat,gps_lon,gps_alt,gps_accuracy,gps_speed,gps_course,pressure,altitude,roll,pitch,yaw
275006.153977,-8.108337780000001,-2.55009969,4.953794940000001,-0.041296,-0.046259,0.004728,-78.067123,87.101959,-115.173981,60.187944,24.830465,29.323965,13.197329,0.142754,-1.0,102.064064,-0.871964,-2.12322,0.267642,1.817556
275006.213932,-8.34858468,-2.5210620900000005,5.02429941,0.038308,0.092923,-0.025244,-78.419586,86.803772,-115.087311,60.187944,24.830465,29.323965,13.197329,0.142754,-1.0,102.064064,-0.871964,-2.122403,0.268801,1.817006
275006.253903,-8.1499518,-2.55204207,4.95828792,0.051079,0.118491,-0.026817,-78.304886,86.929031,-115.361237,60.187929,24.830428,29.799816,15.255422,1.803233,48.813015,102.064064,-0.871964,-2.118842,0.268895,1.819058
275006.273888,-8.11896201,-2.58976152,4.900212720000001,0.052876,0.132058,-0.028677,-78.415207,86.736145,-115.303879,60.187929,24.830428,29.799816,15.255422,1.803233,48.813015,102.064064,-0.871964,-2.116709,0.268897,1.820262
275006.293874,-8.036636490000001,-2.64230388,4.90859046,0.048716,0.121801,-0.021286,-78.288254,86.891388,-115.770477,60.187929,24.830428,29.799816,15.255422,1.803233,48.813015,102.064064,-0.871964,-2.114415,0.268926,1.821471
275006.313859,-7.94921958,-2.66236533,4.9370296499999995,0.036864,0.096781,-0.008339,-78.603195,86.786285,-115.44841,60.187929,24.830428,29.799816,15.255422,1.803233,48.813015,102.064064,-0.871964,-2.112231,0.268886,1.822523
275006.333844,-7.93769283,-2.65742109,4.870272600000001,0.024607,0.068398,-0.000556,-78.437439,86.860062,-115.516342,60.187929,24.830428,29.799816,15.255422,1.803233,48.813015,102.064064,-0.871964,-2.110489,0.268763,1.823253
275006.35383,-7.900718940000001,-2.6849675700000004,4.86113949,0.014091,0.02427,-0.005738,-78.594055,86.906754,-115.359375,60.187929,24.830428,29.799816,15.255422,1.803233,48.813015,102.064064,-0.871964,-2.109295,0.268663,1.823683
275006.373814,-7.99607214,-2.72627748,4.88853882,0.000306,0.00132,0.003612,-78.576355,86.932953,-115.256287,60.187929,24.830428,29.799816,15.255422,1.803233,48.813015,102.064064,-0.871964,-2.10882,0.268708,1.823984
275006.3938,-8.09666388,-2.8118991600000003,4.941669780000001,-0.025183,0.001444,0.024431,-78.576355,86.932953,-115.256287,60.187929,24.830428,29.799816,15.255422,1.803233,48.813015,102.064064,-0.871964,-2.108728,0.268767,1.823913
275006.413785,-8.09980308,-2.80277586,4.91832198,-0.04712,0.02407,0.04414,-78.570023,86.938614,-115.449677,60.187929,24.830428,29.799816,15.255422,1.803233,48.813015,102.064064,-0.871964,-2.108394,0.268704,1.823203
275006.433771,-8.05834602,-2.65308507,4.838242950000001,-0.044507,0.043164,0.042322,-78.591339,86.68956,-115.711899,60.187929,24.830428,29.799816,15.255422,1.803233,48.813015,102.064064,-0.871964,-2.10755,0.268548,1.821936
275006.453756,-7.96732884,-2.50025508,4.75949808,-0.014117,0.046041,0.049045,-79.033066,86.700653,-115.202072,60.187929,24.830428,29.799816,15.255422,1.803233,48.813015,102.064064,-0.871964,-2.106352,0.268322,1.820685
275006.473741,-7.973764200000001,-2.3659758,4.7264187600000005,0.025348,0.037304,0.054639,-78.81517,86.969574,-115.668121,60.187929,24.830428,29.799816,15.255422,1.803233,48.813015,102.064064,-0.871964,-2.105237,0.267728,1.819914
275006.493726,-7.8920370900000005,-2.27541969,4.750816230000001,0.060497,0.026591,0.053841,-78.948044,86.969238,-115.744949,60.187929,24.830428,29.799816,15.255422,1.803233,48.813015,102.064064,-0.871964,-2.104412,0.266645,1.819786
275006.513712,-7.813606140000001,-2.2489228800000003,4.71624579,0.088617,0.001687,0.045007,-78.794357,87.323074,-115.792633,60.187929,24.830428,29.799816,15.255422,1.803233,48.813015,102.064064,-0.871964,-2.104,0.265239,1.820305
275006.533697,-7.68681189,-2.21883561,4.724623530000001,0.088617,0.001687,0.045007,-79.060257,86.947815,-115.349884,60.187929,24.830428,29.799816,15.255422,1.803233,48.813015,102.064064,-0.871964,-2.104251,0.263664,1.821382
275006.553682,-7.6495437,-2.2993659,4.72732128,0.088043,-0.062369,0.072564,-78.865936,86.973846,-115.667374,60.187929,24.830428,29.799816,15.255422,1.803233,48.813015,102.064064,-0.871964,-2.105225,0.261882,1.822601
275006.573667,-7.62498927,-2.40145857,4.693339440000001,0.053998,-0.081468,0.120766,-78.540161,87.242645,-115.264648,60.187929,24.830428,29.799816,15.255422,1.803233,48.813015,102.064064,-0.871964,-2.106665,0.259809,1.823344
275006.593653,-7.60688001,-2.56192074,4.7364543900000005,0.001164,-0.078391,0.183212,-78.5728,87.145432,-115.366623,60.187929,24.830428,29.799816,15.255422,1.803233,48.813015,102.064064,-0.871964,-2.108154,0.257292,1.822979
275006.613638,-7.568709300000001,-2.70292968,4.94975322,-0.051499,-0.064733,0.255086,-78.627045,87.315475,-114.898041,60.187929,24.830428,29.799816,15.255422,1.803233,48.813015,102.064064,-0.871964,-2.109224,0.254238,1.82106
275006.633623,-7.694296920000001,-2.6011411200000003,5.08058919,-0.083994,-0.050584,0.329425,-79.037888,87.222672,-114.970612,60.187929,24.830428,29.799816,15.255422,1.803233,48.813015,102.064064,-0.871964,-2.109698,0.250499,1.817429
275006.653608,-7.75582524,-2.36314071,5.1162093,-0.100609,-0.04971,0.374819,-78.803772,87.633926,-115.116272,60.187929,24.830428,29.799816,15.255422,1.803233,48.813015,102.064064,-0.871964,-2.10949,0.245833,1.812477
275006.673593,-7.819590240000001,-2.14323975,4.96517454,-0.114923,-0.058217,0.36759,-79.125183,87.60788,-115.505615,60.187929,24.830428,29.799816,15.255422,1.803233,48.813015,102.064064,-0.871964,-2.109068,0.240566,1.806781
275006.713564,-7.91119602,-2.06959608,4.860541080000001,-0.157159,-0.042345,0.317857,-79.521393,87.787918,-115.596786,60.187929,24.830428,29.799816,15.255422,1.803233,48.813015,102.064064,-0.871964,-2.108243,0.231266,1.795001
275006.713564,-7.91119602,-2.06959608,4.860541080000001,-0.157159,-0.042345,0.317857,-79.521393,87.787918,-115.596786,60.187929,24.830428,29.799816,15.255422,1.803233,48.813015,102.064064,-0.871964,-2.108243,0.231266,1.795001
275006.753534,-7.958048580000001,-1.97962857,4.78749582,-0.189845,-0.031299,0.294293,-79.248093,88.01506,-115.996231,60.187929,24.830428,29.799816,15.255422,1.803233,48.813015,102.063011,-0.787411,-2.106824,0.224166,1.782526
275006.753534,-7.958048580000001,-1.97962857,4.78749582,-0.189845,-0.031299,0.294293,-79.248093,88.01506,-115.996231,60.187929,24.830428,29.799816,15.255422,1.803233,48.813015,102.063011,-0.787411,-2.106824,0.224166,1.782526
275006.793505,-7.71794883,-1.7554014,4.7047190400000005,-0.177691,-0.148685,0.252023,-79.311493,88.044861,-115.871155,60.187929,24.830428,29.799816,15.255422,1.803233,48.813015,102.063011,-0.787411,-2.106314,0.218501,1.770058
275006.793505,-7.71794883,-1.7554014,4.7047190400000005,-0.177691,-0.148685,0.252023,-79.311493,88.044861,-115.871155,60.187929,24.830428,29.799816,15.255422,1.803233,48.813015,102.063011,-0.787411,-2.106314,0.218501,1.770058
275006.833475,-7.63053192,-2.00537982,4.7572614,-0.153119,-0.328925,0.205353,-79.129028,88.18222,-116.042297,60.187929,24.830428,29.799816,15.255422,1.803233,48.813015,102.063011,-0.787411,-2.111579,0.214117,1.759017
275006.833475,-7.63053192,-2.00537982,4.7572614,-0.153119,-0.328925,0.205353,-79.129028,88.18222,-116.042297,60.187929,24.830428,29.799816,15.255422,1.803233,48.813015,102.063011,-0.787411,-2.111579,0.214117,1.759017
275006.873446,-7.71181758,-1.84850811,4.87087101,-0.097359,-0.530706,0.172007,-79.095566,87.990936,-115.430557,60.187929,24.830428,29.799816,15.255422,1.803233,48.813015,102.063011,-0.787411,-2.124876,0.210503,1.749851
275006.893431,-7.7395014,-1.8544922099999999,4.913681850000001,-0.062144,-0.625476,0.139791,-79.088379,87.864563,-115.175079,60.187929,24.830428,29.799816,15.255422,1.803233,48.813015,102.063011,-0.787411,-2.134769,0.208758,1.746336
275006.913416,-7.75537398,-1.80330363,5.0269971600000005,-0.022102,-0.699726,0.122406,-78.702225,87.945038,-114.456085,60.187929,24.830428,29.799816,15.255422,1.803233,48.813015,102.063011,-0.787411,-2.146706,0.207167,1.743738
275006.933402,-7.886200140000001,-1.7444730600000002,5.05259145,0.027667,-0.741533,0.103702,-77.870087,88.230301,-114.519714,60.187929,24.830428,29.799816,15.255422,1.803233,48.813015,102.063011,-0.787411,-2.160289,0.205473,1.742007
275006.953387,-7.7682447,-1.6973163900000001,5.0647166100000005,0.078812,-0.766303,0.087928,-77.879852,88.242172,-114.246231,60.187929,24.830428,29.799816,15.255422,1.803233,48.813015,102.063011,-0.787411,-2.174937,0.203558,1.74128
275006.953387,-7.7682447,-1.6973163900000001,5.0647166100000005,0.078812,-0.766303,0.087928,-77.879852,88.242172,-114.246231,60.187929,24.830428,29.799816,15.255422,1.803233,48.813015,102.063011,-0.787411,-2.174937,0.203558,1.74128
275006.993357,-7.406893350000001,-1.54553607,5.00080446,0.18124,-0.832388,0.069866,-76.801987,88.203964,-113.074738,60.187929,24.830428,29.799816,15.255422,1.803233,48.813015,102.063011,-0.787411,-2.206669,0.198719,1.742854
275006.993357,-7.406893350000001,-1.54553607,5.00080446,0.18124,-0.832388,0.069866,-76.801987,88.203964,-113.074738,60.187929,24.830428,29.799816,15.255422,1.803233,48.813015,102.063011,-0.787411,-2.206669,0.198719,1.742854
275007.013342,-7.160211090000001,-1.54807686,5.18716503,0.237867,-0.860683,0.084132,-76.08284,88.675583,-112.579437,60.187929,24.830428,29.799816,15.255422,1.803233,48.813015,102.063011,-0.787411,-2.223709,0.195512,1.744935
275007.033328,-7.07593338,-1.5989711400000002,5.38026507,0.284493,-0.846648,0.114587,-75.679718,88.702347,-112.153137,60.187929,24.830428,29.799816,15.255422,1.803233,48.813015,102.063011,-0.787411,-2.241395,0.191368,1.747677
275007.073298,-6.90394446,-1.68774183,5.69326293,0.302915,-0.851451,0.236605,-74.973343,88.925735,-111.050262,60.187929,24.830428,29.799816,15.255422,1.803233,48.813015,102.063011,-0.787411,-2.276201,0.179755,1.753092
275007.093283,-6.84526104,-1.6227800100000003,5.92513209,0.296644,-0.868773,0.313538,-74.973343,88.925735,-111.050262,60.187929,24.830428,29.799816,15.255422,1.803233,48.813015,102.063011,-0.787411,-2.293408,0.172306,1.754567
275007.113269,-6.806050470000001,-1.4060280600000001,6.358773330000001,0.288535,-0.848367,0.381059,-74.098984,89.557816,-110.628372,60.187929,24.830428,29.799816,15.255422,1.803233,48.813015,102.063011,-0.787411,-2.31074,0.163811,1.754782
275007.133254,-7.30166148,-1.0931773500000002,6.477032879999999,0.304447,-0.760532,0.389559,-73.447556,89.959091,-110.272995,60.187929,24.830428,29.799816,15.255422,1.803233,48.813015,102.063011,-0.787411,-2.327452,0.154476,1.753853
275007.153239,-7.38325125,-0.86804766,6.73853805,0.336483,-0.65807,0.372777,-73.09552,90.123917,-109.809113,60.187929,24.830428,29.799816,15.255422,1.803233,48.813015,102.063011,-0.787411,-2.342453,0.14476,1.752878
275007.173224,-7.1263764,-1.22265954,7.00438905,0.32893,-0.543281,0.370214,-73.188019,90.109879,-109.124527,60.187929,24.830428,29.799816,15.255422,1.803233,48.813015,102.063011,-0.787411,-2.355426,0.134873,1.752377
275007.19321,-6.52343418,-1.6338555000000001,7.09644609,0.287319,-0.469224,0.374586,-72.836807,90.632004,-108.880539,60.187929,24.830428,29.799816,15.255422,1.803233,48.813015,102.063011,-0.787411,-2.366246,0.125133,1.751696
275007.213195,-6.296058,-1.6543584000000002,7.1021358900000005,0.230614,-0.452122,0.372035,-72.108765,91.037735,-108.678513,60.187929,24.830428,29.799816,15.255422,1.803233,48.813015,102.063011,-0.787411,-2.375551,0.115947,1.75034
275007.23318,-6.265372320000001,-1.68819309,7.32083022,0.147709,-0.440361,0.404747,-71.393311,91.527176,-108.715027,60.187929,24.830428,29.799816,15.255422,1.803233,48.813015,102.063011,-0.787411,-2.384333,0.107564,1.748109
275007.253165,-6.2424659700000005,-1.75390047,7.41138633,0.049214,-0.402223,0.450105,-71.633316,91.198105,-107.921768,60.187931,24.830425,29.691172,11.096733,0.297068,-1.0,102.063011,-0.787411,-2.392738,0.099972,1.744223
275007.273151,-6.16851819,-1.46290644,7.13027097,-0.010464,-0.377366,0.45428,-71.175446,91.60112,-108.237488,60.187931,24.830425,29.691172,11.096733,0.297068,-1.0,102.063011,-0.787411,-2.400249,0.093229,1.738344
275007.293136,-5.995636560000001,-1.3232512800000003,7.07099895,-0.043879,-0.415238,0.428019,-71.020874,91.830917,-107.951752,60.187931,24.830425,29.691172,11.096733,0.297068,-1.0,102.063011,-0.787411,-2.407247,0.087379,1.731531
275007.313121,-5.8444448399999995,-1.43551692,7.146585000000001,-0.096325,-0.483027,0.436334,-70.742172,91.849762,-108.008377,60.187931,24.830425,29.691172,11.096733,0.297068,-1.0,102.063011,-0.787411,-2.41498,0.082422,1.724534
275007.333106,-5.86630152,-1.6039153800000001,7.2507672,-0.167596,-0.547063,0.478625,-70.629517,91.89827,-107.449829,60.187931,24.830425,29.691172,11.096733,0.297068,-1.0,102.063011,-0.787411,-2.423969,0.078203,1.716668
275007.353091,-5.79744513,-1.43267202,7.343275500000001,-0.216568,-0.671157,0.513443,-70.689194,91.708817,-106.787735,60.187931,24.830425,29.691172,11.096733,0.297068,-1.0,102.063011,-0.787411,-2.434286,0.074577,1.707226
275007.373077,-6.001914960000001,-0.8960355900000001,7.36768278,-0.216568,-0.671157,0.513443,-69.790558,91.981445,-107.690598,60.187931,24.830425,29.691172,11.096733,0.297068,-1.0,102.063011,-0.787411,-2.446912,0.071336,1.696671
275007.393062,-6.14741688,-0.8674492500000001,7.40270448,-0.168467,-0.905166,0.454891,-69.465988,92.127243,-107.207687,60.187931,24.830425,29.691172,11.096733,0.297068,-1.0,102.063011,-0.787411,-2.462286,0.068226,1.686428
275007.413047,-6.03245349,-1.2780468,7.73366445,-0.154615,-0.989925,0.417128,-69.039322,92.200851,-106.845261,60.187931,24.830425,29.691172,11.096733,0.297068,-1.0,102.063011,-0.787411,-2.479759,0.065308,1.677189
275007.453018,-5.74805178,-0.71072469,7.5109284,-0.100695,-1.057453,0.313749,-68.123917,91.873138,-106.4935,60.187931,24.830425,29.691172,11.096733,0.297068,-1.0,102.063011,-0.787411,-2.519157,0.060653,1.660892
275007.453018,-5.74805178,-0.71072469,7.5109284,-0.100695,-1.057453,0.313749,-68.123917,91.873138,-106.4935,60.187931,24.830425,29.691172,11.096733,0.297068,-1.0,102.063011,-0.787411,-2.519157,0.060653,1.660892
275007.473003,-5.523363540000001,-0.77733459,7.856858430000001,-0.059687,-1.09017,0.247907,-66.974747,91.881714,-106.050125,60.187931,24.830425,29.691172,11.096733,0.297068,-1.0,102.063011,-0.787411,-2.539903,0.058799,1.654601
275007.492988,-5.29493769,-1.02432096,8.12211102,-0.035323,-1.13288,0.204291,-66.271683,91.975479,-105.638947,60.187931,24.830425,29.691172,11.096733,0.297068,-1.0,102.063011,-0.787411,-2.56138,0.057143,1.649785
275007.532959,-5.174441460000001,-0.91190817,8.34514137,0.03975,-1.150874,0.042314,-64.825119,91.700027,-104.734543,60.187931,24.830425,29.691172,11.096733,0.297068,-1.0,102.063011,-0.787411,-2.606713,0.054348,1.643722
275007.532959,-5.174441460000001,-0.91190817,8.34514137,0.03975,-1.150874,0.042314,-64.825119,91.700027,-104.734543,60.187931,24.830425,29.691172,11.096733,0.297068,-1.0,102.063011,-0.787411,-2.606713,0.054348,1.643722
275007.572929,-4.93733376,-0.8352626400000001,9.05287401,0.087066,-1.133541,-0.152474,-62.475601,92.184998,-104.766327,60.187931,24.830425,29.691172,11.096733,0.297068,-1.0,102.063011,-0.787411,-2.652265,0.052877,1.645279
275007.592914,-4.60188081,-0.67329954,8.92549116,0.107949,-1.08678,-0.236998,-61.240234,92.238251,-104.359116,60.187931,24.830425,29.691172,11.096733,0.297068,-1.0,102.063011,-0.787411,-2.675066,0.052836,1.648835
275007.592914,-4.60188081,-0.67329954,8.92549116,0.107949,-1.08678,-0.236998,-61.240234,92.238251,-104.359116,60.187931,24.830425,29.691172,11.096733,0.297068,-1.0,102.063011,-0.787411,-2.675066,0.052836,1.648835
275007.632885,-4.41117441,-1.5124567500000001,8.9136603,0.087149,-0.81339,-0.306098,-60.060089,92.101959,-103.236679,60.187931,24.830425,29.691172,11.096733,0.297068,-1.0,102.063011,-0.787411,-2.715817,0.053723,1.660537
275007.65287,-3.80344491,-1.4904529200000003,9.0494307,0.06725,-0.826093,-0.281167,-58.520264,92.364792,-103.924088,60.187931,24.830425,29.691172,11.096733,0.297068,-1.0,102.063011,-0.787411,-2.732542,0.054674,1.666901
275007.672855,-3.74296626,-1.09796463,9.0206874,0.073746,-0.816619,-0.25826,-57.91748,92.177658,-103.569244,60.187931,24.830425,29.691172,11.096733,0.297068,-1.0,102.063011,-0.787411,-2.749351,0.055676,1.672657
275007.69284,-3.84864939,-0.87013719,9.111106170000001,0.093215,-0.777845,-0.249036,-57.196426,92.14743,-103.462723,60.187931,24.830425,29.691172,11.096733,0.297068,-1.0,102.063011,-0.787411,-2.765999,0.05633,1.678071
275007.712826,-3.58893945,-0.6798820500000001,9.23908743,0.126587,-0.781462,-0.211791,-56.790665,92.041504,-103.498444,60.187931,24.830425,29.691172,11.096733,0.297068,-1.0,102.063011,-0.787411,-2.781892,0.056414,1.683454
275007.732811,-3.2702517900000005,-0.64201545,9.38294127,0.15209,-0.834659,-0.138608,-55.678253,92.703354,-103.356918,60.187931,24.830425,29.691172,11.096733,0.297068,-1.0,102.063011,-0.787411,-2.797779,0.05556,1.688324
275007.752796,-3.15782919,-0.81939987,9.53427033,0.152634,-0.89791,-0.064765,-54.856949,92.800949,-103.35817,60.187931,24.830425,29.691172,11.096733,0.297068,-1.0,102.063011,-0.787411,-2.814584,0.053684,1.692018
275007.772781,-3.09032658,-1.10485125,9.7582032,0.118202,-0.973461,0.007328,-54.012985,92.65358,-103.453796,60.187931,24.830425,29.691172,11.096733,0.297068,-1.0,102.063011,-0.787411,-2.832641,0.051307,1.694248
275007.792767,-3.1145769000000003,-1.14631812,10.29574215,0.064242,-1.056461,0.067578,-53.439835,92.303986,-103.019333,60.187931,24.830425,29.691172,11.096733,0.297068,-1.0,102.063011,-0.787411,-2.852142,0.049112,1.694857
275007.812752,-3.2307273000000003,-0.90426618,10.50934509,-0.007279,-1.072585,0.095629,-53.439835,92.303986,-103.019333,60.187931,24.830425,29.691172,11.096733,0.297068,-1.0,102.063011,-0.787411,-2.873146,0.047618,1.693996
275007.832737,-3.25812663,-0.78527088,10.2873546,-0.088547,-1.034955,0.079248,-52.073105,92.635727,-103.426117,60.187931,24.830425,29.691172,11.096733,0.297068,-1.0,102.061897,-0.692287,-2.894438,0.047408,1.692222
275007.852722,-3.0199692600000003,-0.75982374,10.6633719,-0.160514,-1.027583,0.058465,-51.296188,92.662048,-103.246841,60.187931,24.830425,29.691172,11.096733,0.297068,-1.0,102.061897,-0.692287,-2.915058,0.048838,1.69033
275007.872708,-2.8788131700000004,-0.62689824,10.739870280000002,-0.212896,-0.969035,0.045769,-50.582047,92.3759,-103.095581,60.187931,24.830425,29.691172,11.096733,0.297068,-1.0,102.061897,-0.692287,-2.935412,0.051757,1.688547
275007.892693,-2.7801638100000003,-0.58648104,10.54093329,-0.252879,-0.8418,0.009321,-49.786667,92.161514,-103.364532,60.187931,24.830425,29.691172,11.096733,0.297068,-1.0,102.061897,-0.692287,-2.954599,0.055836,1.686916
275007.912678,-2.74619178,-0.37377081000000006,10.42761798,-0.27612,-0.678158,-0.034017,-49.086639,92.004242,-103.09613,60.187931,24.830425,29.691172,11.096733,0.297068,-1.0,102.061897,-0.692287,-2.971298,0.060852,1.685909
275007.932663,-2.40849234,-0.26240768999999997,10.20861954,-0.279202,-0.550663,-0.073802,-48.449783,91.888168,-103.376328,60.187931,24.830425,29.691172,11.096733,0.297068,-1.0,102.061897,-0.692287,-2.984832,0.066457,1.685775
275007.952649,-1.9083785400000002,-0.14100894,9.665253450000002,-0.25687,-0.484776,-0.123028,-47.789261,91.753082,-103.743042,60.187931,24.830425,29.691172,11.096733,0.297068,-1.0,102.061897,-0.692287,-2.995932,0.072253,1.686471
275007.972634,-1.62876411,0.11810259,9.32905494,-0.198854,-0.456611,-0.205325,-47.711594,91.336731,-103.730331,60.187931,24.830425,29.691172,11.096733,0.297068,-1.0,102.061897,-0.692287,-3.005802,0.077727,1.688299
275007.992619,-1.6661892600000001,0.34952049,9.34087599,-0.112701,-0.426802,-0.288982,-47.39743,91.041321,-103.305313,60.187931,24.830425,29.691172,11.096733,0.297068,-1.0,102.061897,-0.692287,-3.015203,0.082239,1.691947
275008.012604,-1.5881997600000002,0.33275520000000003,9.659857950000001,-0.01557,-0.412955,-0.345564,-46.961151,91.245728,-103.404617,60.187931,24.830425,29.691172,11.096733,0.297068,-1.0,102.061897,-0.692287,-3.024248,0.085235,1.697466
275008.03259,-1.8269555400000002,0.33066567,9.995467860000002,0.081452,-0.367975,-0.365211,-46.807892,91.449677,-103.340683,60.187931,24.830425,29.691172,11.096733,0.297068,-1.0,102.061897,-0.692287,-3.033067,0.086367,1.704332
275008.052575,-1.79746668,0.38589597,10.44587439,0.163243,-0.348802,-0.399601,-46.149734,91.636414,-103.802124,60.187931,24.830425,29.691172,11.096733,0.297068,-1.0,102.061897,-0.692287,-3.041122,0.08559,1.711882
275008.07256,-1.6464221100000003,0.26659656,10.317441870000001,0.223896,-0.376407,-0.433038,-45.925934,91.72966,-103.819427,60.187931,24.830425,29.691172,11.096733,0.297068,-1.0,102.061897,-0.692287,-3.048895,0.083202,1.720246
275008.092545,-1.40437998,0.05299362,10.143510570000002,0.244063,-0.417374,-0.437273,-44.995575,92.147644,-104.023651,60.187931,24.830425,29.691172,11.096733,0.297068,-1.0,102.061897,-0.692287,-3.057258,0.079599,1.729308
275008.132516,-1.5470370000000002,-0.5436702,10.31939406,0.149345,-0.256183,-0.39811,-43.611237,92.721237,-104.121887,60.187931,24.830425,29.691172,11.096733,0.297068,-1.0,102.061897,-0.692287,-3.074195,0.071982,1.747421
275008.132516,-1.5470370000000002,-0.5436702,10.31939406,0.149345,-0.256183,-0.39811,-43.611237,92.721237,-104.121887,60.187931,24.830425,29.691172,11.096733,0.297068,-1.0,102.061897,-0.692287,-3.074195,0.071982,1.747421
275008.172486,-1.03120758,-0.5897772,10.24394535,-8.7e-05,-0.106324,-0.325563,-43.306244,92.436646,-103.911285,60.187931,24.830425,29.691172,11.096733,0.297068,-1.0,102.061897,-0.692287,-3.084085,0.068683,1.762877
275008.192472,-1.03584771,-0.44637462000000006,10.025996580000001,-0.047132,-0.025689,-0.308472,-42.737076,92.655273,-104.4785,60.187931,24.830425,29.691172,11.096733,0.297068,-1.0,102.061897,-0.692287,-3.086606,0.069087,1.769479
275008.192472,-1.03584771,-0.44637462000000006,10.025996580000001,-0.047132,-0.025689,-0.308472,-42.737076,92.655273,-104.4785,60.187931,24.830425,29.691172,11.096733,0.297068,-1.0,102.061897,-0.692287,-3.086606,0.069087,1.769479
275008.232442,-0.66596166,-0.35790804000000004,10.31115366,-0.081404,-0.009948,-0.264709,-42.94693,92.955765,-104.417328,60.187931,24.830425,29.691172,11.096733,0.297068,-1.0,102.061897,-0.692287,-3.087746,0.07227,1.781486
275008.252427,-0.49203036,-0.43274853,10.20352815,-0.083048,-0.076509,-0.243768,-43.672729,92.567627,-103.486908,60.187918,24.830399,29.477791,15.45568,0.139522,-1.0,102.061897,-0.692287,-3.088365,0.07426,1.786787
275008.272412,-0.6162642,-0.43798707000000003,10.01342997,-0.077108,-0.146082,-0.230885,-42.732346,92.992218,-104.399109,60.187918,24.830399,29.477791,15.45568,0.139522,-1.0,102.061897,-0.692287,-3.090246,0.076233,1.791652
275008.292398,-0.49307022000000006,-0.42032907,9.715392360000001,-0.074549,-0.197815,-0.220487,-42.574341,92.790619,-104.206223,60.187918,24.830399,29.477791,15.45568,0.139522,-1.0,102.061897,-0.692287,-3.093461,0.078077,1.796282
275008.292398,-0.49307022000000006,-0.42032907,9.715392360000001,-0.074549,-0.197815,-0.220487,-42.574341,92.790619,-104.206223,60.187918,24.830399,29.477791,15.45568,0.139522,-1.0,102.061897,-0.692287,-3.093461,0.078077,1.796282
275008.332368,0.27377748,-0.37736127,9.25675524,-0.071033,-0.251007,-0.212091,-42.263229,92.628769,-104.31424,60.187918,24.830399,29.477791,15.45568,0.139522,-1.0,102.061897,-0.692287,-3.102873,0.08163,1.804961
275008.352353,0.5348412,-0.39637305000000006,9.286234290000001,-0.058893,-0.224358,-0.242434,-42.04509,92.629486,-104.144638,60.187918,24.830399,29.477791,15.45568,0.139522,-1.0,102.061897,-0.692287,-3.108155,0.083262,1.809271
275008.372339,0.64141704,-0.48094506000000004,9.46691487,-0.046926,-0.195047,-0.278457,-41.712677,92.828766,-104.322876,60.187918,24.830399,29.477791,15.45568,0.139522,-1.0,102.061897,-0.692287,-3.113068,0.084647,1.814165
275008.392323,0.49337432999999997,-0.53244756,9.56705535,-0.028437,-0.14327,-0.308498,-41.645355,92.776001,-104.281097,60.187918,24.830399,29.477791,15.45568,0.139522,-1.0,102.061897,-0.692287,-3.117431,0.085777,1.819819
275008.412308,0.46986957000000007,-0.68018616,9.65492352,-0.012118,-0.101848,-0.310749,-41.078171,92.76123,-104.527634,60.187918,24.830399,29.477791,15.45568,0.139522,-1.0,102.061897,-0.692287,-3.12084,0.086557,1.826047
275008.432293,0.4504163400000001,-0.76281579,9.813590460000002,0.010499,-0.091754,-0.277374,-41.581116,92.539093,-104.542023,60.187918,24.830399,29.477791,15.45568,0.139522,-1.0,102.061897,-0.692287,-3.123426,0.086963,1.832298
275008.452279,0.4939727400000001,-0.66880656,10.04306598,0.045947,-0.140201,-0.243519,-41.054565,92.952896,-104.771896,60.187918,24.830399,29.477791,15.45568,0.139522,-1.0,102.061897,-0.692287,-3.125811,0.086882,1.837937
275008.472264,0.39936510000000003,-0.61327215,10.09231218,0.080122,-0.1849,-0.216159,-40.959747,93.149628,-104.737381,60.187918,24.830399,29.477791,15.45568,0.139522,-1.0,102.061897,-0.692287,-3.129032,0.086088,1.842918
275008.492249,0.21780162,-0.659232,9.95579622,0.101268,-0.192274,-0.195906,-40.345062,93.323181,-104.497299,60.187918,24.830399,29.477791,15.45568,0.139522,-1.0,102.061897,-0.692287,-3.133066,0.08462,1.847362
275008.512234,-0.00404172,-0.72793143,9.88364367,0.106789,-0.16606,-0.1777,-40.345062,93.323181,-104.497299,60.187918,24.830399,29.477791,15.45568,0.139522,-1.0,102.061897,-0.692287,-3.13721,0.082711,1.851383
275008.53222,-0.031136940000000002,-0.7337781900000001,9.807007950000001,0.092671,-0.131071,-0.14311,-40.676819,93.14122,-104.618576,60.187918,24.830399,29.477791,15.45568,0.139522,-1.0,102.061897,-0.692287,-3.14084,0.080686,1.855003
275008.552205,0.09160578000000001,-0.78182757,9.64893942,0.06857,-0.111788,-0.115892,-40.226517,93.32663,-104.650284,60.187918,24.830399,29.477791,15.45568,0.139522,-1.0,102.061897,-0.692287,3.139452,0.078908,1.857969
275008.57219,0.15538058999999999,-0.8704413000000001,9.42934257,0.047149,-0.086227,-0.095175,-39.819153,93.47023,-104.964981,60.187918,24.830399,29.477791,15.45568,0.139522,-1.0,102.061897,-0.692287,3.137055,0.077586,1.860346
275008.592175,0.50999247,-0.8288272799999999,9.516612330000001,0.033984,-0.072586,-0.077148,-39.885376,93.4384,-104.949295,60.187918,24.830399,29.477791,15.45568,0.139522,-1.0,102.061897,-0.692287,3.135153,0.076706,1.862331
275008.612161,0.70473078,-0.8243343,9.8333478,0.030404,-0.063857,-0.064074,-40.014069,93.464523,-104.706924,60.187918,24.830399,29.477791,15.45568,0.139522,-1.0,102.061897,-0.692287,3.133583,0.076069,1.863936
275008.632146,0.7770304800000001,-0.6137234100000001,10.32672213,0.106825,-0.067655,-0.111333,-39.648773,93.511673,-104.78772,60.187918,24.830399,29.477791,15.45568,0.139522,-1.0,102.061897,-0.692287,3.132275,0.075521,1.865331
275008.652131,0.2894931,-0.9737209800000001,9.65133306,0.124532,-0.036858,-0.092986,-39.815414,93.613556,-104.958298,60.187918,24.830399,29.477791,15.45568,0.139522,-1.0,102.061897,-0.692287,3.130947,0.073456,1.867527
275008.672116,0.35416062000000004,-1.07191908,9.95400099,0.146156,-0.031855,-0.07668,-39.805283,93.771179,-105.202194,60.187918,24.830399,29.477791,15.45568,0.139522,-1.0,102.061897,-0.692287,3.130524,0.07076,1.869508
275008.692102,0.52884729,-0.80203617,10.32343578,0.187966,-0.046134,-0.085166,-39.939407,93.744614,-105.041351,60.187918,24.830399,29.477791,15.45568,0.139522,-1.0,102.061897,-0.692287,3.130295,0.067685,1.871156
275008.712087,0.8234415900000001,-0.8828607600000001,10.09965006,0.193339,-0.144366,-0.08623,-40.201141,93.421432,-104.490585,60.187918,24.830399,29.477791,15.45568,0.139522,-1.0,102.061897,-0.692287,3.128893,0.064163,1.872896
275008.732072,0.58633389,-0.7714976400000001,9.95923953,0.18826,-0.17254,-0.083978,-39.543289,93.708252,-104.734207,60.187918,24.830399,29.477791,15.45568,0.139522,-1.0,102.061897,-0.692287,3.125752,0.060419,1.874626
275008.752057,0.4090966200000001,-0.39966921,10.3741731,0.250621,-0.150509,-0.072006,-39.35228,93.898224,-104.55275,60.187918,24.830399,29.477791,15.45568,0.139522,-1.0,102.061897,-0.692287,3.121996,0.05653,1.876292
275008.792028,0.6825798000000001,-1.2889653300000001,10.922787540000002,0.080761,-0.227947,-0.057383,-38.495804,93.332535,-104.977005,60.187918,24.830399,29.477791,15.45568,0.139522,-1.0,102.061897,-0.692287,3.115813,0.048004,1.878373
275008.812013,0.31854051,-0.47795301,9.36048618,0.126656,-0.115947,-0.026579,-37.882614,92.743713,-106.459305,60.187918,24.830399,29.477791,15.45568,0.139522,-1.0,102.061897,-0.692287,3.111136,0.046163,1.879392
275008.812013,0.31854051,-0.47795301,9.36048618,0.126656,-0.115947,-0.026579,-37.882614,92.743713,-106.459305,60.187918,24.830399,29.477791,15.45568,0.139522,-1.0,102.061897,-0.692287,3.111136,0.046163,1.879392
275008.851984,0.50983551,-0.40804695,9.73515951,0.092468,-0.091755,-0.00064,-40.123505,92.219681,-107.491898,60.187918,24.830399,29.477791,15.45568,0.139522,-1.0,102.061897,-0.692287,3.105455,0.041782,1.880361
275008.851984,0.50983551,-0.40804695,9.73515951,0.092468,-0.091755,-0.00064,-40.123505,92.219681,-107.491898,60.187918,24.830399,29.477791,15.45568,0.139522,-1.0,102.061897,-0.692287,3.105455,0.041782,1.880361
275008.891954,0.4773546,-0.47376414,9.731412090000001,0.057321,-0.078647,0.012218,-42.509583,93.17421,-105.887146,60.187918,24.830399,29.477791,15.45568,0.139522,-1.0,102.061897,-0.692287,3.101259,0.038822,1.880687
275008.911939,0.40251411,-0.54860463,9.63441081,0.050672,-0.081927,0.042076,-42.248322,94.531738,-105.865997,60.187918,24.830399,29.477791,15.45568,0.139522,-1.0,102.061157,-0.634155,3.099788,0.037765,1.88047
275008.931925,0.49232466,-0.45894123000000003,9.845178660000002,0.041946,-0.045522,0.076564,-41.66153,95.225143,-104.883911,60.187918,24.830399,29.477791,15.45568,0.139522,-1.0,102.061157,-0.634155,3.098408,0.036875,1.879673
275008.95191,0.27617112,-0.5029587000000001,10.3366008,-0.004116,-0.000713,0.096159,-40.013046,95.572556,-104.534653,60.187918,24.830399,29.477791,15.45568,0.139522,-1.0,102.061157,-0.634155,3.097208,0.036392,1.878303
275008.971895,0.9310671,-0.10492776000000001,9.529188750000001,0.010427,-0.014801,0.112344,-39.415558,95.635239,-103.659668,60.187918,24.830399,29.477791,15.45568,0.139522,-1.0,102.061157,-0.634155,3.097665,0.03662,1.876442
275008.99188,0.5126804100000001,-0.33844500000000005,9.564357600000001,-0.005669,0.015844,0.131185,-38.635468,95.949097,-104.50058,60.187918,24.830399,29.477791,15.45568,0.139522,-1.0,102.061157,-0.634155,3.097693,0.036624,1.874231
275009.011866,0.64321227,-0.12049623000000001,9.66420378,0.019417,0.007369,0.131747,-38.989731,95.49472,-104.536667,60.187918,24.830399,29.477791,15.45568,0.139522,-1.0,102.061157,-0.634155,3.097929,0.036795,1.871663
275009.031851,0.36389214000000003,-0.16002072,9.943072650000001,0.014822,0.038893,0.184629,-38.615387,95.149628,-105.201157,60.187918,24.830399,29.477791,15.45568,0.139522,-1.0,102.061157,-0.634155,3.09823,0.036636,1.868977
275009.051836,0.2601612,-0.26824464000000003,9.829610190000002,0.003317,0.004291,0.115902,-38.370651,94.626266,-104.944626,60.187918,24.830399,29.477791,15.45568,0.139522,-1.0,102.061157,-0.634155,3.098934,0.036587,1.86567
275009.071821,-0.15282999000000003,-0.23905008000000003,9.68711013,-0.021471,0.007468,0.107464,-37.716782,94.031036,-105.00032,60.187918,24.830399,29.477791,15.45568,0.139522,-1.0,102.061157,-0.634155,3.099017,0.036751,1.863367
275009.091807,0.30147111000000004,0.1357704,9.8361927,0.016824,-0.035053,0.104187,-37.054352,93.627243,-105.696671,60.187918,24.830399,29.477791,15.45568,0.139522,-1.0,102.061157,-0.634155,3.0992,0.037222,1.861241
275009.111792,0.45340839000000005,-0.18097488,9.93005478,0.010565,-0.042185,0.049287,-37.459732,93.154938,-105.4095,60.187918,24.830399,29.477791,15.45568,0.139522,-1.0,102.061157,-0.634155,3.098931,0.037143,1.859295
275009.131777,0.35566155000000005,-0.14414814,9.855057330000001,0.010565,-0.042185,0.049287,-37.305557,92.788803,-105.814148,60.187918,24.830399,29.477791,15.45568,0.139522,-1.0,102.061157,-0.634155,3.098424,0.037058,1.8583
275009.131777,0.35566155000000005,-0.14414814,9.855057330000001,0.010565,-0.042185,0.049287,-37.305557,92.788803,-105.814148,60.187918,24.830399,29.477791,15.45568,0.139522,-1.0,102.061157,-0.634155,3.098424,0.037058,1.8583
275009.171748,0.47646189000000005,-0.10178856,9.711350640000001,0.001467,-0.011048,0.076552,-37.07811,93.186844,-105.849838,60.187918,24.830399,29.477791,15.45568,0.139522,-1.0,102.061157,-0.634155,3.098441,0.037158,1.856058
275009.191733,0.58453866,0.05658408,9.72287739,0.013586,0.00928,0.066715,-37.370438,93.48497,-105.203201,60.187918,24.830399,29.477791,15.45568,0.139522,-1.0,102.061157,-0.634155,3.09832,0.037193,1.854638
275009.211718,0.37137717000000003,-0.01466595,9.827069400000001,0.004238,-0.008168,0.056264,-37.370438,93.48497,-105.203201,60.187918,24.830399,29.477791,15.45568,0.139522,-1.0,102.061157,-0.634155,3.098249,0.037232,1.853364
275009.231703,0.06960195,-0.12080034,9.35254989,-0.006698,-0.012017,0.026261,-37.951523,93.941177,-104.916138,60.187918,24.830399,29.477791,15.45568,0.139522,-1.0,102.061157,-0.634155,3.098328,0.037222,1.852318
275009.251689,0.5007122100000001,-0.1240965,9.358533990000002,0.009031,0.012589,-0.013308,-39.004807,94.290619,-104.221878,60.187902,24.830398,30.029989,15.311184,0.146524,-1.0,102.061157,-0.634155,3.098391,0.037234,1.85188
275009.271674,0.5724135,-0.31943322,9.69893118,-0.000469,0.014734,-0.026317,-40.101868,94.7267,-104.583359,60.187902,24.830398,30.029989,15.311184,0.146524,-1.0,102.061157,-0.634155,3.098369,0.037179,1.852205
275009.291659,0.36539307000000004,-0.30206952000000004,9.89667135,-0.000772,0.010888,-0.004061,-40.897964,94.958969,-104.660385,60.187902,24.830398,30.029989,15.311184,0.146524,-1.0,102.061157,-0.634155,3.098406,0.037276,1.852775
275009.311644,0.47646189000000005,-0.34922619,10.02809592,-0.000925,-0.004465,0.010356,-42.564148,94.92395,-104.495346,60.187902,24.830398,30.029989,15.311184,0.146524,-1.0,102.061157,-0.634155,3.09848,0.037338,1.852976
275009.33163,0.36688419000000005,-0.43200297000000004,9.967774230000002,-0.003466,-0.001438,-0.000749,-43.145477,94.895538,-104.94429,60.187902,24.830398,30.029989,15.311184,0.146524,-1.0,102.061157,-0.634155,3.098451,0.037411,1.852888
275009.351615,0.36344088,-0.41104881000000004,9.85955031,0.000186,-0.006143,-0.018655,-43.711182,94.231247,-104.977936,60.187902,24.830398,30.029989,15.311184,0.146524,-1.0,102.061157,-0.634155,3.098414,0.037524,1.853001
275009.3716,0.23905008000000003,-0.41987781,9.760008240000001,-0.003921,-0.00173,-0.03979,-43.161316,93.913635,-105.611481,60.187902,24.830398,30.029989,15.311184,0.146524,-1.0,102.061157,-0.634155,3.098329,0.037601,1.853471
275009.391587,0.15328125,-0.3094074,9.683666820000001,0.007059,0.001075,-0.077571,-42.501923,93.536118,-105.92717,60.187902,24.830398,30.029989,15.311184,0.146524,-1.0,102.061157,-0.634155,3.098265,0.037673,1.854371
275009.411572,0.10568313,-0.30491442,9.75865446,0.003571,0.004079,-0.11579,-42.083557,93.15889,-106.087433,60.187902,24.830398,30.029989,15.311184,0.146524,-1.0,102.061157,-0.634155,3.09825,0.037544,1.855995
275009.431557,0.36867942,-0.23605803000000003,9.652078620000001,0.014296,-0.004318,-0.118938,-42.401215,92.453979,-105.737854,60.187902,24.830398,30.029989,15.311184,0.146524,-1.0,102.061157,-0.634155,3.098164,0.037374,1.858342
275009.451542,0.3873969,-0.30462012,9.49729644,0.006127,0.002369,-0.110103,-42.076935,92.497131,-106.598785,60.187902,24.830398,30.029989,15.311184,0.146524,-1.0,102.061157,-0.634155,3.098018,0.037252,1.860794
275009.491513,0.6053456700000001,-0.25416729000000005,9.68530509,-0.002029,-0.00138,-0.075772,-42.56218,93.004715,-106.4487,60.187902,24.830398,30.029989,15.311184,0.146524,-1.0,102.061157,-0.634155,3.098055,0.037138,1.86519
275009.511498,0.7637085,-0.30850488,9.63277254,-0.006168,0.004556,-0.019833,-41.583771,92.910721,-106.400131,60.187902,24.830398,30.029989,15.311184,0.146524,-1.0,102.061157,-0.634155,3.098069,0.037172,1.866741
275009.531483,0.83660661,-0.24803604,9.744439770000001,-0.004213,-0.005687,0.026069,-40.252884,92.149887,-106.275803,60.187902,24.830398,30.029989,15.311184,0.146524,-1.0,102.061157,-0.634155,3.098077,0.037302,1.86725
275009.531483,0.83660661,-0.24803604,9.744439770000001,-0.004213,-0.005687,0.026069,-40.252884,92.149887,-106.275803,60.187902,24.830398,30.029989,15.311184,0.146524,-1.0,102.061157,-0.634155,3.098077,0.037302,1.86725
275009.551469,0.38125584000000007,-0.28994436,9.78859458,0.002509,-0.000589,0.036216,-38.682281,92.226257,-105.936432,60.187902,24.830398,30.029989,15.311184,0.146524,-1.0,102.061157,-0.634155,3.097985,0.037407,1.866831
275009.571454,0.25072398,-0.30416886,9.78455286,0.002398,-0.003581,0.027684,-36.977905,93.315994,-105.580627,60.187902,24.830398,30.029989,15.311184,0.146524,-1.0,102.061157,-0.634155,3.097962,0.037438,1.866217
275009.611424,0.47974824000000005,-0.22543380000000002,9.78934014,0.005662,0.001127,0.006382,-39.412628,94.552933,-104.720551,60.187902,24.830398,30.029989,15.311184,0.146524,-1.0,102.061157,-0.634155,3.097907,0.037465,1.86536
275009.63141,0.5773479300000001,-0.28515708,9.79593246,0.004373,0.001296,0.001899,-41.142517,94.862442,-105.036514,60.187902,24.830398,30.029989,15.311184,0.146524,-1.0,102.061157,-0.634155,3.09797,0.037424,1.865289
275009.651395,0.40356378000000004,-0.33739533,9.78021684,0.004637,0.005336,0.011361,-42.789337,94.125763,-105.2034,60.187902,24.830398,30.029989,15.311184,0.146524,-1.0,102.061157,-0.634155,3.098017,0.037405,1.865308
275009.67138,0.35880075000000006,-0.3179421,9.70671051,0.002667,0.001814,-0.003501,-42.341217,93.11618,-105.869446,60.187902,24.830398,30.029989,15.311184,0.146524,-1.0,102.061157,-0.634155,3.098117,0.037404,1.865196
275009.691366,0.35057015999999996,-0.28171377000000003,9.74428281,9e-05,0.002647,-0.001506,-40.87616,92.376617,-105.983963,60.187902,24.830398,30.029989,15.311184,0.146524,-1.0,102.061157,-0.634155,3.098181,0.03741,1.865323
275009.711351,0.31285071000000003,-0.30476727000000003,9.751473540000001,0.001075,0.006791,0.004697,-38.048401,92.435165,-105.90097,60.187902,24.830398,30.029989,15.311184,0.146524,-1.0,102.061157,-0.634155,3.098242,0.03746,1.86545
275009.731336,0.36164565000000004,-0.23576373,9.752670360000002,0.005497,0.001895,0.001321,-36.206146,93.421188,-105.436844,60.187902,24.830398,30.029989,15.311184,0.146524,-1.0,102.061157,-0.634155,3.098316,0.037523,1.865457
275009.751321,0.5364892800000001,-0.33425613,9.76733631,0.013071,-0.014037,0.032198,-36.155273,94.637253,-105.303528,60.187902,24.830398,30.029989,15.311184,0.146524,-1.0,102.061157,-0.634155,3.098333,0.037497,1.865457
275009.771307,0.5343899400000001,-0.28081125,9.78934014,0.010369,0.014185,0.046696,-38.974609,95.254288,-105.023727,60.187902,24.830398,30.029989,15.311184,0.146524,-1.0,102.061157,-0.634155,3.098479,0.037409,1.864867
275009.791292,0.35880075000000006,-0.3153915,9.851614020000001,0.005087,0.004787,0.041068,-42.097687,94.922287,-104.988937,60.187902,24.830398,30.029989,15.311184,0.146524,-1.0,102.061157,-0.634155,3.098617,0.037323,1.864036
275009.811277,0.2832147,-0.28365615,9.869880240000002,-0.006274,-0.012672,0.047313,-42.844147,93.513351,-105.690796,60.187902,24.830398,30.029989,15.311184,0.146524,-1.0,102.061157,-0.634155,3.098717,0.03732,1.863311
275009.831262,0.11197134000000002,-0.24743763,9.66719583,-0.001634,0.001168,0.041514,-41.109329,92.575928,-106.14061,60.187902,24.830398,30.029989,15.311184,0.146524,-1.0,102.061157,-0.634155,3.098661,0.037493,1.862484
275009.851248,0.1212516,-0.26554689,9.67498497,0.007404,0.001344,-0.002721,-38.356613,92.407516,-105.913055,60.187902,24.830398,30.029989,15.311184,0.146524,-1.0,102.061157,-0.634155,3.098728,0.037602,1.861781
275009.871233,0.25117524,-0.26465418,9.71644203,0.007404,0.001344,-0.002721,-37.606934,92.379166,-105.083511,60.187902,24.830398,30.029989,15.311184,0.146524,-1.0,102.061157,-0.634155,3.098725,0.037514,1.861946
275009.891218,0.6081807600000001,-0.17184177000000003,9.867633750000001,0.01598,-0.041853,-0.071397,-37.347824,94.070648,-105.366745,60.187902,24.830398,30.029989,15.311184,0.146524,-1.0,102.061157,-0.634155,3.098398,0.037292,1.863202
275009.911203,0.67135716,-0.2168991,9.672287220000001,0.014436,-0.007458,-0.003568,-37.347824,94.070648,-105.366745,60.187902,24.830398,30.029989,15.311184,0.146524,-1.0,102.061157,-0.634155,3.097866,0.036937,1.86458
275009.931189,0.33066567,-0.25896438000000005,9.73860282,0.000704,0.012478,0.030903,-38.483444,95.606552,-104.027374,60.187902,24.830398,30.029989,15.311184,0.146524,-1.0,102.061157,-0.634155,3.097725,0.036675,1.864796
275009.951174,0.56357469,-0.2083644,9.82497006,0.009786,-0.005694,0.052029,-40.237015,95.518661,-103.520844,60.187902,24.830398,30.029989,15.311184,0.146524,-1.0,102.061157,-0.634155,3.097949,0.036631,1.86428
275009.971159,0.43813422,-0.42017211000000004,9.799974180000001,0.003118,-0.018958,0.049109,-41.488876,93.733795,-104.879227,60.187902,24.830398,30.029989,15.311184,0.146524,-1.0,102.061157,-0.634155,3.097849,0.036578,1.863331
275009.991144,0.45460521000000004,-0.40581027000000003,9.771976440000001,0.005615,-0.010991,0.025334,-40.077103,92.498672,-106.117798,60.187902,24.830398,30.029989,15.311184,0.146524,-1.0,102.061157,-0.634155,3.097551,0.036622,1.862442
275010.01113,0.57301191,-0.41882814000000007,9.891128700000001,0.001122,-0.005438,0.021158,-37.802933,93.407593,-106.09285,60.187902,24.830398,30.029989,15.311184,0.146524,-1.0,102.061157,-0.634155,3.097369,0.036569,1.862014
275010.031115,0.66102723,-0.32497587,9.70087356,0.00469,0.003562,0.040597,-37.319229,95.180145,-104.787094,60.187902,24.830398,30.029989,15.311184,0.146524,-1.0,102.061157,-0.634155,3.097393,0.036593,1.861648
275010.0511,0.61222248,-0.21075804,9.72048375,0.010635,0.013884,0.053688,-39.43576,96.088013,-103.701157,60.187902,24.830398,30.029989,15.311184,0.146524,-1.0,102.061157,-0.634155,3.09749,0.036634,1.86096
275010.091071,0.72673461,-0.42466509,9.75836016,0.008511,-0.027829,0.064728,-41.036636,92.31749,-106.171967,60.187902,24.830398,30.029989,15.311184,0.146524,-1.0,102.061157,-0.634155,3.097913,0.036365,1.859161
275010.111056,0.46642626,-0.55085112,9.863739180000001,-0.006696,0.011825,0.069913,-37.701813,92.850952,-106.209778,60.187902,24.830398,30.029989,15.311184,0.146524,-1.0,102.061157,-0.634155,3.097884,0.03634,1.857971
275010.131041,0.46762308,-0.40400523,9.78230637,-0.001181,0.01572,0.069146,-38.745941,95.322922,-104.739273,60.187902,24.830398,30.029989,15.311184,0.146524,-1.0,102.061157,-0.634155,3.098134,0.036492,1.856626
275010.131041,0.46762308,-0.40400523,9.78230637,-0.001181,0.01572,0.069146,-38.745941,95.322922,-104.739273,60.187902,24.830398,30.029989,15.311184,0.146524,-1.0,102.061157,-0.634155,3.098134,0.036492,1.856626
275010.171012,0.26210358,-0.19414971,9.81733788,-0.003268,0.005038,0.088169,-42.173004,93.532043,-106.317444,60.187902,24.830398,30.029989,15.311184,0.146524,-1.0,102.061157,-0.634155,3.09866,0.036749,1.853816
275010.190997,0.12214431,-0.12080034,9.77317326,-0.000394,-0.001129,0.069578,-38.162308,93.025177,-106.508163,60.187902,24.830398,30.029989,15.311184,0.146524,-1.0,102.061157,-0.634155,3.098915,0.036879,1.852146
275010.210982,0.33755229000000003,-0.57899601,9.74473407,0.001449,-0.017728,0.008614,-38.426575,94.493988,-104.83049,60.187902,24.830398,30.029989,15.311184,0.146524,-1.0,102.061157,-0.634155,3.099029,0.037024,1.850907
275010.230968,0.51373008,-0.76490532,9.77960862,0.00806,-0.000771,0.024124,-42.242325,94.943115,-104.289948,60.187902,24.830398,30.029989,15.311184,0.146524,-1.0,102.061157,-0.634155,3.098888,0.036874,1.850777
275010.250953,0.23875578,-0.44561925,9.92735703,0.00077,-0.001745,0.026557,-43.252396,93.241302,-105.321411,60.187907,24.830396,30.465309,15.472231,0.120205,-1.0,102.061157,-0.634155,3.098813,0.036791,1.850395
275010.270938,0.53364438,-0.43020774,9.78290478,0.005445,-0.002364,-0.00816,-38.808044,92.738892,-106.1633,60.187907,24.830396,30.465309,15.472231,0.120205,-1.0,102.061157,-0.634155,3.098852,0.03672,1.850006
275010.290923,0.46058931000000003,-0.31000581,9.71344998,-0.009158,0.000215,-0.026237,-35.87587,93.357758,-106.012314,60.187907,24.830396,30.465309,15.472231,0.120205,-1.0,102.061157,-0.634155,3.098743,0.036634,1.850234
275010.310909,0.49681764000000006,-0.20761884,9.743684400000001,-0.009795,0.005492,-0.019947,-38.203293,94.919357,-104.7202,60.187907,24.830396,30.465309,15.472231,0.120205,-1.0,102.061157,-0.634155,3.09874,0.036772,1.850857
275010.330894,0.42930522000000004,-0.22812174000000002,9.677525760000002,-0.004401,0.000214,0.006561,-41.804459,95.220993,-104.20253,60.187907,24.830396,30.465309,15.472231,0.120205,-1.0,102.061157,-0.634155,3.098765,0.037013,1.85134
275010.350879,0.31569561,-0.18950957999999998,9.712400310000001,-0.004401,0.000214,0.006561,-41.58754,93.039078,-105.443481,60.187907,24.830396,30.465309,15.472231,0.120205,-1.0,102.061157,-0.634155,3.09877,0.037124,1.851333
275010.370864,0.5641731,-0.29952873,9.91597743,0.020394,-0.00579,0.012522,-38.130722,92.131226,-105.899017,60.187907,24.830396,30.465309,15.472231,0.120205,-1.0,102.061157,-0.634155,3.098739,0.037008,1.851306
275010.390849,0.25057683000000003,-0.4397823,9.85415481,0.005037,0.013228,0.012234,-38.022583,94.389938,-104.531784,60.187907,24.830396,30.465309,15.472231,0.120205,-1.0,102.061157,-0.634155,3.098689,0.036708,1.851107
275010.410834,0.38364948,-0.3239262,9.98109621,0.007679,0.014325,0.016452,-41.259827,95.792099,-103.152878,60.187907,24.830396,30.465309,15.472231,0.120205,-1.0,102.061157,-0.634155,3.098971,0.036541,1.850918
275010.430819,0.3930867,-0.30761217,9.82526436,0.011611,-0.019782,0.027412,-42.431442,93.961426,-104.508667,60.187907,24.830396,30.465309,15.472231,0.120205,-1.0,102.061157,-0.634155,3.099172,0.036433,1.850693
275010.450804,0.27722079,-0.21764466000000002,9.691299,0.014245,-0.021171,0.042824,-39.290451,92.626511,-106.084244,60.187907,24.830396,30.465309,15.472231,0.120205,-1.0,102.061157,-0.634155,3.098956,0.036304,1.85024
275010.47079,0.54097245,-0.28141947,9.765246780000002,0.023242,0.000554,0.05784,-37.459213,95.048431,-105.552155,60.187907,24.830396,30.465309,15.472231,0.120205,-1.0,102.061157,-0.634155,3.098691,0.036163,1.849488
275010.490775,0.32198382,-0.30042144,9.73275606,0.010136,0.015847,0.076204,-41.105865,96.060608,-104.099686,60.187907,24.830396,30.465309,15.472231,0.120205,-1.0,102.061157,-0.634155,3.098471,0.036016,1.848362
275010.51076,0.5043026700000001,-0.22213764000000003,9.73755315,0.000232,0.002626,0.072444,-43.530212,93.252243,-104.657074,60.187907,24.830396,30.465309,15.472231,0.120205,-1.0,102.061157,-0.634155,3.098542,0.036053,1.846909
275010.51076,0.5043026700000001,-0.22213764000000003,9.73755315,0.000232,0.002626,0.072444,-43.530212,93.252243,-104.657074,60.187907,24.830396,30.465309,15.472231,0.120205,-1.0,102.061157,-0.634155,3.098542,0.036053,1.846909
275010.550731,0.34877493000000004,-0.38364948,9.63875664,-0.000829,0.019816,0.060487,-38.081009,94.996368,-105.432297,60.187907,24.830396,30.465309,15.472231,0.120205,-1.0,102.061157,-0.634155,3.099016,0.036116,1.845192
275010.570716,0.68707278,-0.2459367,9.719738190000001,0.009571,-0.005302,0.062431,-41.709213,95.647827,-104.207047,60.187907,24.830396,30.465309,15.472231,0.120205,-1.0,102.061157,-0.634155,3.099371,0.036175,1.844141
275010.590701,0.32691825,-0.24084531,9.724378320000001,0.014583,-0.001271,0.012792,-42.401489,92.84581,-105.690018,60.187907,24.830396,30.465309,15.472231,0.120205,-1.0,102.061157,-0.634155,3.099473,0.035912,1.843031
275010.610686,0.34578288,-0.25701219000000003,9.872715330000002,-0.007794,0.020514,0.00408,-42.401489,92.84581,-105.690018,60.187907,24.830396,30.465309,15.472231,0.120205,-1.0,102.061157,-0.634155,3.099349,0.035743,1.842664
275010.630672,0.38859372000000003,-0.29757654,9.64848816,-0.009701,0.001502,0.011383,-38.881287,93.069,-106.549194,60.187907,24.830396,30.465309,15.472231,0.120205,-1.0,102.061157,-0.634155,3.099168,0.035869,1.84258
275010.650657,0.49112784,-0.38484630000000003,9.67886973,-0.024203,0.00347,-0.026297,-40.222397,95.343552,-105.161865,60.187907,24.830396,30.465309,15.472231,0.120205,-1.0,102.061157,-0.634155,3.099481,0.036156,1.842491
275010.670642,0.5987533500000001,-0.46418958,9.96612615,0.061697,0.016764,0.041604,-43.167038,94.151413,-105.154495,60.187907,24.830396,30.465309,15.472231,0.120205,-1.0,102.061157,-0.634155,3.099377,0.036541,1.843026
275010.690627,0.85202793,-0.62749665,9.87406911,0.069395,0.002324,0.135548,-40.271759,92.093918,-106.333023,60.187907,24.830396,30.465309,15.472231,0.120205,-1.0,102.061157,-0.634155,3.099476,0.035577,1.842213
275010.710613,0.15328125,-0.7318260000000001,9.867182490000001,0.049315,0.023058,0.12266,-37.715469,94.397003,-105.25618,60.187907,24.830396,30.465309,15.472231,0.120205,-1.0,102.061157,-0.634155,3.099654,0.034468,1.839633
275010.710613,0.15328125,-0.7318260000000001,9.867182490000001,0.049315,0.023058,0.12266,-37.715469,94.397003,-105.25618,60.187907,24.830396,30.465309,15.472231,0.120205,-1.0,102.061157,-0.634155,3.099654,0.034468,1.839633
275010.730598,0.26420292,-0.9657945,9.78455286,0.13055,0.012138,0.040954,-42.371414,95.453552,-105.186157,60.187907,24.830396,30.465309,15.472231,0.120205,-1.0,102.061157,-0.634155,3.100181,0.033607,1.837254
275010.730598,0.26420292,-0.9657945,9.78455286,0.13055,0.012138,0.040954,-42.371414,95.453552,-105.186157,60.187907,24.830396,30.465309,15.472231,0.120205,-1.0,102.061157,-0.634155,3.100181,0.033607,1.837254
275010.770568,0.56567403,-0.66775689,9.84382488,0.047093,0.024077,-0.044948,-39.643036,92.236557,-105.917999,60.187907,24.830396,30.465309,15.472231,0.120205,-1.0,102.061157,-0.634155,3.100281,0.030321,1.837298
275010.810539,0.53154504,-0.6134291100000001,9.83035575,0.032121,0.001936,0.014833,-37.718765,94.354996,-104.912247,60.187907,24.830396,30.465309,15.472231,0.120205,-1.0,102.061157,-0.634155,3.100647,0.028465,1.837806
275010.850509,0.40581027000000003,-0.6134291100000001,9.75895857,0.017791,-0.002673,-0.000848,-40.539948,95.704086,-104.027786,60.187907,24.830396,30.465309,15.472231,0.120205,-1.0,102.061157,-0.634155,3.100773,0.027404,1.837439
275010.850509,0.40581027000000003,-0.6134291100000001,9.75895857,0.017791,-0.002673,-0.000848,-40.539948,95.704086,-104.027786,60.187907,24.830396,30.465309,15.472231,0.120205,-1.0,102.061157,-0.634155,3.100773,0.027404,1.837439
275010.89048,0.30926025,-0.44472654,9.74728467,0.014091,-0.001294,-0.008859,-42.716721,95.208862,-103.672318,60.187907,24.830396,30.465309,15.472231,0.120205,-1.0,102.061157,-0.634155,3.100786,0.026768,1.837708
275010.910465,0.17004654,-0.38634723000000004,9.744439770000001,0.012036,0.000464,-0.012947,-42.471283,94.851013,-104.248276,60.187907,24.830396,30.465309,15.472231,0.120205,-1.0,102.061157,-0.634155,3.100748,0.026561,1.837964
275010.93045,0.18965673,-0.30730806,9.7784118,0.010557,-0.006195,-0.009148,-42.570175,94.484375,-104.725159,60.187907,24.830396,30.465309,15.472231,0.120205,-1.0,102.061157,-0.634155,3.10074,0.026377,1.838266
275010.93045,0.18965673,-0.30730806,9.7784118,0.010557,-0.006195,-0.009148,-42.570175,94.484375,-104.725159,60.187907,24.830396,30.465309,15.472231,0.120205,-1.0,102.061157,-0.634155,3.10074,0.026377,1.838266
275010.970421,0.77673618,-0.28860039000000004,9.743988510000001,0.00867,-0.009208,-0.019748,-42.426376,93.649689,-104.397095,60.187907,24.830396,30.465309,15.472231,0.120205,-1.0,102.061157,-0.634155,3.10045,0.026069,1.839025
275010.990406,0.85741362,-0.30266793,9.751169430000001,0.012398,0.002096,0.004778,-41.441116,93.479004,-105.351852,60.187907,24.830396,30.465309,15.472231,0.120205,-1.0,102.061157,-0.634155,3.100382,0.025891,1.839544
275011.010391,0.44412813,-0.41509053000000007,9.74503818,0.012694,0.004126,0.030098,-40.718552,92.98822,-105.836716,60.187907,24.830396,30.465309,15.472231,0.120205,-1.0,102.061157,-0.634155,3.100395,0.025706,1.839541
275011.030377,0.34368354000000007,-0.45580203,9.759252870000001,0.012451,0.001495,0.043454,-40.059647,92.997269,-106.037827,60.187907,24.830396,30.465309,15.472231,0.120205,-1.0,102.061157,-0.634155,3.100502,0.025519,1.839021
275011.050362,0.37302525000000003,-0.45699885,9.75102228,0.010844,0.004186,0.033844,-39.391617,92.915436,-105.75679,60.187907,24.830396,30.465309,15.472231,0.120205,-1.0,102.061157,-0.634155,3.100593,0.025357,1.838268
275011.070347,0.38844657000000005,-0.44966097000000005,9.7607538,0.007698,0.004247,0.019222,-38.690994,93.184479,-105.59404,60.187907,24.830396,30.465309,15.472231,0.120205,-1.0,102.0616,-0.67115,3.100691,0.02522,1.837684
275011.090332,0.37391796,-0.44217594000000005,9.76599234,0.006169,0.0004,0.006635,-37.917496,93.561661,-106.199066,60.187907,24.830396,30.465309,15.472231,0.120205,-1.0,102.0616,-0.67115,3.100769,0.025125,1.837392
275011.110318,0.3617928,-0.43604469000000007,9.76554108,0.00433,0.001317,0.002998,-37.760376,93.644669,-105.896973,60.187907,24.830396,30.465309,15.472231,0.120205,-1.0,102.0616,-0.67115,3.100813,0.02506,1.837332
275011.130303,0.41628735,-0.42945237,9.771829290000001,0.002913,0.001908,0.004243,-38.058182,93.452148,-105.896591,60.187907,24.830396,30.465309,15.472231,0.120205,-1.0,102.0616,-0.67115,3.100849,0.025033,1.837364
275011.150288,0.41014629,-0.40744854,9.780511140000002,0.002466,-0.000487,0.004765,-38.216248,93.560989,-105.701035,60.187907,24.830396,30.465309,15.472231,0.120205,-1.0,102.0616,-0.67115,3.100865,0.025024,1.837369
275011.170273,0.39084021,-0.37900935,9.7781175,0.003351,-0.002463,0.004095,-38.247879,93.436417,-105.888855,60.187907,24.830396,30.465309,15.472231,0.120205,-1.0,102.0616,-0.67115,3.100851,0.025038,1.837349
275011.190259,0.38919213,-0.3671883,9.784248750000001,0.001215,-0.000943,0.003395,-38.131912,93.667343,-106.144745,60.187907,24.830396,30.465309,15.472231,0.120205,-1.0,102.0616,-0.67115,3.100823,0.025071,1.837368
275011.210244,0.42241860000000003,-0.33081282000000006,9.77092677,0.000866,-0.000948,0.002082,-38.554871,93.303284,-106.06514,60.187907,24.830396,30.465309,15.472231,0.120205,-1.0,102.0616,-0.67115,3.100791,0.025125,1.8374
275011.230229,0.39816828,-0.29084688000000003,9.77960862,0.001459,-0.001368,0.000363,-39.689026,92.913315,-105.719986,60.187907,24.830396,30.465309,15.472231,0.120205,-1.0,102.0616,-0.67115,3.100757,0.025175,1.837443
275011.250215,0.39532338,-0.27946728,9.775272600000001,0.000437,-0.002594,-0.0003,-39.827499,92.968948,-106.028244,60.187903,24.830414,30.635406,15.182756,0.252497,-1.0,102.0616,-0.67115,3.100732,0.025237,1.837496
275011.2702,0.40221,-0.24952716000000003,9.77677353,0.001693,-0.002931,-0.000229,-40.222061,93.126709,-105.967957,60.187903,24.830414,30.635406,15.182756,0.252497,-1.0,102.0616,-0.67115,3.100692,0.025309,1.837587
275011.290185,0.40804695,-0.21001248,9.7869465,0.001948,-0.000618,-0.001801,-40.626205,93.218155,-105.982086,60.187903,24.830414,30.635406,15.182756,0.252497,-1.0,102.0616,-0.67115,3.100649,0.025355,1.837682
275011.31017,0.40057173,-0.18486945000000002,9.76254903,-0.000446,-0.00227,-0.000518,-40.626205,93.218155,-105.982086,60.187903,24.830414,30.635406,15.182756,0.252497,-1.0,102.0616,-0.67115,3.100627,0.025405,1.837784
275011.330156,0.38948643000000005,-0.14594337000000002,9.78500412,0.001512,-0.002681,-0.000223,-41.30629,93.011902,-105.333923,60.187903,24.830414,30.635406,15.182756,0.252497,-1.0,102.0616,-0.67115,3.1006,0.025469,1.837879
275011.350141,0.40191570000000004,-0.1562733,9.77003406,0.002618,-0.001128,0.001847,-41.372528,92.987442,-105.55426,60.187903,24.830414,30.635406,15.182756,0.252497,-1.0,102.0616,-0.67115,3.100578,0.025488,1.837965
275011.370126,0.40340682,-0.15717582000000002,9.76030254,0.000891,-0.000624,0.002472,-41.249207,93.209991,-105.70282,60.187903,24.830414,30.635406,15.182756,0.252497,-1.0,102.0616,-0.67115,3.100567,0.025499,1.838014
275011.390111,0.40236696,-0.1414602,9.77407578,0.003227,9.8e-05,0.004238,-41.262527,93.458954,-105.494385,60.187903,24.830414,30.635406,15.182756,0.252497,-1.0,102.0616,-0.67115,3.100558,0.025516,1.838037
275011.410097,0.39787398,-0.15642045000000002,9.7812567,0.00301,-0.000784,0.00579,-41.663666,93.230942,-104.840714,60.187903,24.830414,30.635406,15.182756,0.252497,-1.0,102.0616,-0.67115,3.100565,0.025516,1.838055
275011.430082,0.4047606,-0.19803447000000002,9.78829047,0.004373,0.000561,0.006107,-41.687332,93.052963,-104.928574,60.187903,24.830414,30.635406,15.182756,0.252497,-1.0,102.0616,-0.67115,3.100573,0.025505,1.83803
275011.470052,0.40880232000000005,-0.25162650000000003,9.78156081,0.003648,3.8e-05,0.006653,-41.221069,93.127396,-105.416824,60.187903,24.830414,30.635406,15.182756,0.252497,-1.0,102.0616,-0.67115,3.10059,0.02544,1.837953
275011.490038,0.40221,-0.2576106,9.77706783,0.004469,-0.000245,0.006501,-40.70108,93.313477,-105.485229,60.187903,24.830414,30.635406,15.182756,0.252497,-1.0,102.0616,-0.67115,3.1006,0.025414,1.837914
275011.490038,0.40221,-0.2576106,9.77706783,0.004469,-0.000245,0.006501,-40.70108,93.313477,-105.485229,60.187903,24.830414,30.635406,15.182756,0.252497,-1.0,102.0616,-0.67115,3.1006,0.025414,1.837914
275011.510023,0.40685013000000003,-0.30282489,9.77751909,0.003655,0.000201,0.007833,-40.930893,93.083832,-105.159012,60.187903,24.830414,30.635406,15.182756,0.252497,-1.0,102.0616,-0.67115,3.100599,0.025372,1.837888
275011.549993,0.40490775,-0.30746502000000003,9.77706783,0.004699,0.00084,0.003352,-40.159317,93.320175,-105.702759,60.187903,24.830414,30.635406,15.182756,0.252497,-1.0,102.0616,-0.67115,3.100616,0.02533,1.837815
275011.569978,0.40385808000000006,-0.31120263000000004,9.7667379,0.00479,0.00139,0.001074,-40.38179,93.132126,-105.647995,60.187903,24.830414,30.635406,15.182756,0.252497,-1.0,102.0616,-0.67115,3.10062,0.025317,1.83781
275011.589964,0.41149026,-0.31598991,9.77048532,0.001996,-0.000551,0.003043,-40.405609,93.067261,-105.643799,60.187903,24.830414,30.635406,15.182756,0.252497,-1.0,102.0616,-0.67115,3.100622,0.025315,1.837834
275011.609949,0.40146444000000003,-0.29697813,9.76764042,0.004042,0.001639,0.002442,-40.828278,92.819061,-105.403976,60.187903,24.830414,30.635406,15.182756,0.252497,-1.0,102.0616,-0.67115,3.100633,0.025329,1.837833
275011.629934,0.39397941000000003,-0.28740357,9.790988220000001,0.002151,-9.1e-05,0.002828,-40.085678,93.203354,-105.912308,60.187903,24.830414,30.635406,15.182756,0.252497,-1.0,102.0616,-0.67115,3.100641,0.025344,1.83785
275011.649919,0.39756987000000005,-0.26150517,9.76434426,0.00188,-0.000178,0.003711,-40.627533,92.923523,-105.694046,60.187903,24.830414,30.635406,15.182756,0.252497,-1.0,102.0616,-0.67115,3.100643,0.025375,1.837875
275011.669905,0.40715424,-0.24264054000000002,9.78679935,0.00188,-0.000178,0.003711,-40.575455,93.277161,-105.84935,60.187903,24.830414,30.635406,15.182756,0.252497,-1.0,102.0616,-0.67115,3.100638,0.025409,1.837897
275011.68989,0.41538483,-0.22857300000000003,9.78215922,0.00221,-0.001361,0.003955,-41.220764,92.839355,-105.295883,60.187903,24.830414,30.635406,15.182756,0.252497,-1.0,102.0616,-0.67115,3.100628,0.025433,1.837914
275011.709875,0.40625172,-0.21599658,9.78515127,0.002864,-0.00076,0.002739,-40.887878,93.103271,-105.474915,60.187903,24.830414,30.635406,15.182756,0.252497,-1.0,102.0616,-0.67115,3.10063,0.025475,1.837922
275011.72986,0.40266126,-0.21525102000000002,9.76688505,0.002898,0.000475,0.00467,-40.610535,93.161987,-105.703888,60.187903,24.830414,30.635406,15.182756,0.252497,-1.0,102.0616,-0.67115,3.100638,0.025495,1.837944
275011.749846,0.40940073,-0.22512969000000002,9.7664436,0.001585,-0.00157,0.004573,-40.586319,93.070053,-105.618683,60.187903,24.830414,30.635406,15.182756,0.252497,-1.0,102.0616,-0.67115,3.100643,0.025498,1.837936
275011.769831,0.40012047,-0.24129657000000002,9.779167170000001,0.002341,0.000311,0.004556,-40.891449,92.950729,-105.65892,60.187903,24.830414,30.635406,15.182756,0.252497,-1.0,102.0616,-0.67115,3.100646,0.025493,1.837924
275011.769831,0.40012047,-0.24129657000000002,9.779167170000001,0.002341,0.000311,0.004556,-40.891449,92.950729,-105.65892,60.187903,24.830414,30.635406,15.182756,0.252497,-1.0,102.0616,-0.67115,3.100646,0.025493,1.837924
