timestamp,accel_x,accel_y,accel_z,gyro_x,gyro_y,gyro_z,mag_x,mag_y,mag_z,gps_lat,gps_lon,gps_alt,gps_accuracy,gps_speed,gps_course,pressure,altitude,roll,pitch,yaw
831169.355441,-9.44715753,-0.16930098,-2.76924528,-0.004538,0.001869,0.002634,-122.117096,94.434753,-192.978745,60.187689,24.830135,12.099435,15.077761,-1.0,-1.0,100.570145,0.338219,-1.281396,0.013304,-1.311767
831169.415395,-9.436974750000001,-0.16525926000000002,-2.7520287299999997,-0.001473,0.003288,0.002229,-121.934998,94.45784,-192.928513,60.187689,24.830135,12.099435,15.077761,-1.0,-1.0,100.570145,0.338219,-1.281423,0.013293,-1.311773
831169.43538,-9.38578617,-0.12169305,-2.85351318,0.007921,-0.006021,0.0056,-122.044769,94.564041,-192.913132,60.187689,24.830135,12.099435,15.077761,-1.0,-1.0,100.570145,0.338219,-1.281426,0.013311,-1.311832
831169.455365,-9.43458111,-0.11975067000000002,-2.7849608999999997,0.000197,0.005352,0.00347,-122.103561,94.41362,-192.995605,60.187689,24.830135,12.099435,15.077761,-1.0,-1.0,100.570145,0.338219,-1.281444,0.013286,-1.311789
831169.475349,-9.45089514,-0.14265702,-2.79228897,0.004341,-0.005573,0.00401,-122.246567,94.346497,-192.699432,60.187689,24.830135,12.099435,15.077761,-1.0,-1.0,100.570145,0.338219,-1.281442,0.01329,-1.311812
831169.495334,-9.38832696,-0.12020193000000001,-2.83181346,0.005331,0.001739,0.005246,-122.126038,94.295395,-192.888428,60.187689,24.830135,12.099435,15.077761,-1.0,-1.0,100.570145,0.338219,-1.281443,0.013287,-1.311816
831169.535304,-9.449247060000001,-0.11480643,-2.7937899,0.007948,-0.00132,0.004951,-122.085052,94.375534,-192.693329,60.187689,24.830135,12.099435,15.077761,-1.0,-1.0,100.570145,0.338219,-1.281457,0.013269,-1.311802
831169.555288,-9.39820563,-0.15492933000000003,-2.8171377,-0.000941,0.001639,0.005543,-122.062744,94.305161,-192.666504,60.187689,24.830135,12.099435,15.077761,-1.0,-1.0,100.570145,0.338219,-1.281435,0.013272,-1.311782
831169.575273,-9.42410403,-0.13082616000000002,-2.80217745,0.005563,-0.002731,0.004083,-122.1651,94.278046,-192.779846,60.187689,24.830135,12.099435,15.077761,-1.0,-1.0,100.570145,0.338219,-1.28145,0.013275,-1.311795
831169.595258,-9.4425174,-0.12469491,-2.8003724100000005,0.004266,0.002085,0.003645,-122.065628,94.309357,-192.425812,60.187689,24.830135,12.099435,15.077761,-1.0,-1.0,100.570145,0.338219,-1.281456,0.013285,-1.311786
831169.615242,-9.40074642,-0.15387966,-2.82387717,0.000652,0.001477,0.003966,-122.263138,94.340561,-192.615341,60.187689,24.830135,12.099435,15.077761,-1.0,-1.0,100.570145,0.338219,-1.281426,0.013292,-1.311755
831169.635227,-9.41527503,-0.13053186,-2.82686922,0.007166,-0.004393,0.004788,-122.08139,94.419144,-192.756149,60.187689,24.830135,12.099435,15.077761,-1.0,-1.0,100.570145,0.338219,-1.281443,0.013304,-1.311778
831169.655212,-9.457183350000001,-0.13247424000000002,-2.78914977,-0.001578,0.005257,0.003929,-122.197159,94.289322,-192.726501,60.187689,24.830135,12.099435,15.077761,-1.0,-1.0,100.570145,0.338219,-1.281449,0.013309,-1.311759
831169.675197,-9.42425118,-0.14490351,-2.8129488300000003,0.005548,-0.005091,0.002521,-122.187164,94.422745,-192.690979,60.187689,24.830135,12.099435,15.077761,-1.0,-1.0,100.570145,0.338219,-1.28142,0.013307,-1.311777
831169.695181,-9.418414230000002,-0.13262139,-2.8089071100000003,0.003657,0.002843,0.005096,-122.178986,94.490005,-192.838089,60.187689,24.830135,12.099435,15.077761,-1.0,-1.0,100.570145,0.338219,-1.281435,0.013318,-1.31178
831169.695181,-9.418414230000002,-0.13262139,-2.8089071100000003,0.003657,0.002843,0.005096,-122.178986,94.490005,-192.838089,60.187689,24.830135,12.099435,15.077761,-1.0,-1.0,100.570145,0.338219,-1.281435,0.013318,-1.31178
831169.735151,-9.40703463,-0.12783411,-2.8130959800000004,0.007536,-0.001822,0.00381,-121.941635,94.305038,-192.532135,60.187689,24.830135,12.099435,15.077761,-1.0,-1.0,100.570145,0.338219,-1.281418,0.013298,-1.311781
831169.755136,-9.42680178,-0.14309847,-2.81235042,3.8e-05,0.003306,0.005077,-121.989578,94.415146,-192.613281,60.187689,24.830135,12.099435,15.077761,-1.0,-1.0,100.570145,0.338219,-1.281414,0.013303,-1.311753
831169.77512,-9.43922124,-0.14519781,-2.79124911,0.004955,-0.002672,0.003417,-121.938675,94.487289,-192.690247,60.187689,24.830135,12.099435,15.077761,-1.0,-1.0,100.570145,0.338219,-1.281414,0.013305,-1.31175
831169.795105,-9.417511710000001,-0.11810259,-2.8178930699999998,0.00347,0.001459,0.005916,-122.044357,94.4478,-192.706375,60.187689,24.830135,12.099435,15.077761,-1.0,-1.0,100.570145,0.338219,-1.281422,0.013317,-1.311758
831169.81509,-9.41602059,-0.14669874000000002,-2.81354724,0.001614,0.001142,0.005808,-122.256638,94.496628,-192.50769,60.187689,24.830135,12.099435,15.077761,-1.0,-1.0,100.570145,0.338219,-1.281413,0.013334,-1.311741
831169.835075,-9.441320580000001,-0.13785993,-2.7970860600000003,0.007923,-0.003773,0.004924,-122.012344,94.557602,-192.756088,60.187689,24.830135,12.099435,15.077761,-1.0,-1.0,100.570145,0.338219,-1.281401,0.013339,-1.311748
831169.855059,-9.41571648,-0.12888378,-2.8053166500000004,-0.001916,0.004473,0.003408,-121.940308,94.30101,-192.409103,60.187689,24.830135,12.099435,15.077761,-1.0,-1.0,100.570145,0.338219,-1.281396,0.013333,-1.311734
831169.875044,-9.41257728,-0.13965516,-2.8219347900000002,0.007136,-0.004133,0.005268,-122.122879,94.369339,-192.586334,60.187689,24.830135,12.099435,15.077761,-1.0,-1.0,100.570145,0.338219,-1.281398,0.013341,-1.311751
831169.895029,-9.449698320000001,-0.1417545,-2.80471824,0.002525,0.001298,0.004132,-122.056656,94.502548,-192.828201,60.187689,24.830135,12.099435,15.077761,-1.0,-1.0,100.570145,0.338219,-1.281395,0.013327,-1.311733
831169.915014,-9.42455529,-0.12513636,-2.8080144000000002,0.001865,0.000575,0.003184,-122.056656,94.502548,-192.828201,60.187689,24.830135,12.099435,15.077761,-1.0,-1.0,100.570145,0.338219,-1.281368,0.013339,-1.311731
831169.934998,-9.4137741,-0.11960352,-2.82717333,0.008396,-0.004957,0.002846,-121.916229,94.439911,-192.876877,60.187689,24.830135,12.099435,15.077761,-1.0,-1.0,100.570145,0.338219,-1.28138,0.013328,-1.311752
831169.954983,-9.42410403,-0.13397517,-2.80217745,-0.002995,0.003573,0.002353,-121.914474,94.403168,-192.455139,60.187689,24.830135,12.099435,15.077761,-1.0,-1.0,100.570145,0.338219,-1.281367,0.013335,-1.311732
831169.974968,-9.42589926,-0.12618603,-2.80307016,0.006215,-0.002497,0.004117,-121.916443,94.357468,-192.77121,60.187689,24.830135,12.099435,15.077761,-1.0,-1.0,100.570145,0.338219,-1.281348,0.013332,-1.311759
831169.994953,-9.42320151,-0.13172868000000001,-2.81624499,0.002914,-0.000206,0.00265,-121.945114,94.394791,-192.916916,60.187689,24.830135,12.099435,15.077761,-1.0,-1.0,100.570145,0.338219,-1.281355,0.013338,-1.311746
831170.014936,-9.43772031,-0.13801689,-2.79678195,0.002914,-0.000206,0.00265,-121.799942,94.352417,-192.842957,60.187689,24.830135,12.099435,15.077761,-1.0,-1.0,100.570145,0.338219,-1.281361,0.01336,-1.311752
831170.034922,-9.425448000000001,-0.14295132,-2.8231316100000003,0.001875,0.000675,0.004357,-121.823502,94.223846,-192.705307,60.187689,24.830135,12.099435,15.077761,-1.0,-1.0,100.570145,0.338219,-1.281345,0.013365,-1.311767
831170.054907,-9.42276006,-0.13412232000000002,-2.8116048600000005,0.000289,0.003318,0.003773,-121.973145,94.175644,-193.047836,60.187689,24.830135,12.099435,15.077761,-1.0,-1.0,100.570145,0.338219,-1.28136,0.013376,-1.311752
831170.074891,-9.43188336,-0.13501503,-2.80785744,0.006202,-0.003368,0.004207,-121.96257,94.22171,-192.778244,60.187689,24.830135,12.099435,15.077761,-1.0,-1.0,100.570145,0.338219,-1.281356,0.013357,-1.311738
831170.094876,-9.41931675,-0.13097331,-2.80965267,0.002508,0.001192,0.003853,-121.859802,94.11792,-192.656296,60.187689,24.830135,12.099435,15.077761,-1.0,-1.0,100.570145,0.338219,-1.281373,0.013369,-1.311735
831170.134846,-9.43204032,-0.12813822000000002,-2.8083087000000004,0.006926,-0.002735,0.00371,-122.251373,94.398254,-192.568481,60.187689,24.830135,12.099435,15.077761,-1.0,-1.0,100.570145,0.338219,-1.281384,0.013358,-1.31174
831170.15483,-9.417364560000001,-0.14923953,-2.79124911,-0.001062,0.003515,0.00329,-122.138824,94.145172,-192.732162,60.187689,24.830135,12.099435,15.077761,-1.0,-1.0,100.570145,0.338219,-1.281378,0.013365,-1.311741
831170.174815,-9.405543510000001,-0.14235291,-2.80980963,0.006139,-0.003944,0.004491,-122.112106,94.194183,-192.650681,60.187689,24.830135,12.099435,15.077761,-1.0,-1.0,100.570862,0.280087,-1.281366,0.013367,-1.311753
831170.1948,-9.43532667,-0.13337676,-2.80441413,0.003007,0.000524,0.004861,-122.136902,94.269791,-192.858047,60.187689,24.830135,12.099435,15.077761,-1.0,-1.0,100.570862,0.280087,-1.281378,0.013357,-1.311731
831170.1948,-9.43532667,-0.13337676,-2.80441413,0.003007,0.000524,0.004861,-122.136902,94.269791,-192.858047,60.187689,24.830135,12.099435,15.077761,-1.0,-1.0,100.570862,0.280087,-1.281378,0.013357,-1.311731
831170.214785,-9.42410403,-0.14235291,-2.8089071100000003,-0.000155,0.000522,0.003377,-122.202805,94.326935,-192.72644,60.187689,24.830135,12.099435,15.077761,-1.0,-1.0,100.570862,0.280087,-1.281373,0.013357,-1.311738
831170.234769,-9.41183172,-0.13546629000000002,-2.8196883,0.007641,-0.00275,0.003258,-122.230911,94.284698,-192.737381,60.187689,24.830135,12.099435,15.077761,-1.0,-1.0,100.570862,0.280087,-1.281375,0.013358,-1.311735
831170.274739,-9.43068654,-0.1332198,-2.80486539,0.00642,-0.004038,0.003568,-122.067093,94.301468,-192.896713,60.187689,24.830135,12.099435,15.077761,-1.0,-1.0,100.570862,0.280087,-1.281364,0.01335,-1.311731
831170.274739,-9.43068654,-0.1332198,-2.80486539,0.00642,-0.004038,0.003568,-122.067093,94.301468,-192.896713,60.187689,24.830135,12.099435,15.077761,-1.0,-1.0,100.570862,0.280087,-1.281364,0.01335,-1.311731
831170.294724,-9.421553430000001,-0.14160735,-2.82672207,0.0035,-0.0003,0.00407,-122.045624,94.197174,-192.799133,60.187689,24.830135,12.099435,15.077761,-1.0,-1.0,100.570862,0.280087,-1.281385,0.013356,-1.311718
831170.334693,-9.43907409,-0.13202298,-2.8116048600000005,0.007319,-0.003869,0.002402,-121.972183,94.335052,-193.059006,60.187689,24.830135,12.099435,15.077761,-1.0,-1.0,100.570862,0.280087,-1.281388,0.013372,-1.311715
831170.354678,-9.418414230000002,-0.14369688,-2.8080144000000002,-0.000325,0.00342,0.005373,-122.030365,94.401917,-192.964081,60.187689,24.830135,12.099435,15.077761,-1.0,-1.0,100.570862,0.280087,-1.281396,0.013376,-1.311715
831170.374663,-9.42724323,-0.13337676,-2.80816155,0.007504,-0.002166,0.006026,-122.196365,94.390854,-192.621597,60.187689,24.830135,12.099435,15.077761,-1.0,-1.0,100.570862,0.280087,-1.281387,0.013368,-1.311727
831170.394647,-9.421111980000001,-0.13636881,-2.799774,0.001878,0.000187,0.004318,-122.319046,94.391983,-192.822861,60.187689,24.830135,12.099435,15.077761,-1.0,-1.0,100.570862,0.280087,-1.281397,0.013379,-1.31171
831170.414632,-9.417668670000001,-0.13831119,-2.81878578,0.002519,0.00033,0.004856,-122.183868,94.461319,-192.415512,60.187689,24.830135,12.099435,15.077761,-1.0,-1.0,100.570862,0.280087,-1.281389,0.013385,-1.311715
831170.434617,-9.42484959,-0.13666311,-2.81280168,0.008358,-0.003052,0.004482,-122.084457,94.297195,-192.803818,60.187689,24.830135,12.099435,15.077761,-1.0,-1.0,100.570862,0.280087,-1.281396,0.013371,-1.311705
831170.454602,-9.43128495,-0.14280417,-2.8157937299999998,-0.001389,0.003728,0.003106,-122.045883,94.467148,-192.833679,60.187689,24.830135,12.099435,15.077761,-1.0,-1.0,100.570862,0.280087,-1.281397,0.013379,-1.311701
831170.474586,-9.418267080000001,-0.14070483,-2.81354724,0.007923,-0.00393,0.003077,-122.009689,94.574265,-192.854126,60.187689,24.830135,12.099435,15.077761,-1.0,-1.0,100.570862,0.280087,-1.28139,0.013386,-1.311722
831170.494571,-9.42365277,-0.12065319,-2.81653929,0.00253,-0.000369,0.005863,-122.203552,94.365707,-192.720856,60.187689,24.830135,12.099435,15.077761,-1.0,-1.0,100.570862,0.280087,-1.281405,0.013392,-1.3117
831170.514556,-9.43532667,-0.13501503,-2.80875996,-6.8e-05,0.001748,0.004155,-122.045959,94.215393,-192.718674,60.187689,24.830135,12.099435,15.077761,-1.0,-1.0,100.570862,0.280087,-1.281401,0.013406,-1.311696
831170.534541,-9.41243013,-0.1502892,-2.82073797,0.007588,-0.005139,0.004164,-122.100082,94.347214,-192.63678,60.187689,24.830135,12.099435,15.077761,-1.0,-1.0,100.570862,0.280087,-1.281403,0.013418,-1.311711
831170.554525,-9.433678590000001,-0.12484206,-2.79483957,-0.000632,0.002983,0.005822,-122.14566,94.326874,-192.856323,60.187689,24.830135,12.099435,15.077761,-1.0,-1.0,100.570862,0.280087,-1.281427,0.013416,-1.311697
831170.57451,-9.4226031,-0.13741848,-2.79857718,0.00451,-0.001965,0.004138,-122.079346,94.304062,-192.669403,60.187689,24.830135,12.099435,15.077761,-1.0,-1.0,100.570862,0.280087,-1.281414,0.013404,-1.311706
831170.594495,-9.42305436,-0.13756563000000002,-2.8279188900000003,0.003178,-0.000199,0.004371,-121.950562,94.386002,-192.413727,60.187689,24.830135,12.099435,15.077761,-1.0,-1.0,100.570862,0.280087,-1.281426,0.013413,-1.311698
831170.61448,-9.42709608,-0.13726152,-2.80606221,0.001427,0.000676,0.005704,-122.095474,94.371231,-192.447723,60.187689,24.830135,12.099435,15.077761,-1.0,-1.0,100.570862,0.280087,-1.281426,0.01342,-1.311692
831170.634464,-9.43068654,-0.12334113000000002,-2.8071118800000003,0.006661,-0.003776,0.004949,-122.095474,94.371231,-192.447723,60.187689,24.830135,12.099435,15.077761,-1.0,-1.0,100.570862,0.280087,-1.281422,0.013427,-1.311692
831170.654449,-9.416619,-0.13666311,-2.8180402200000003,-0.001198,0.004145,0.005013,-122.2453,94.492661,-192.441193,60.187689,24.830135,12.099435,15.077761,-1.0,-1.0,100.570862,0.280087,-1.281432,0.013434,-1.311683
831170.674434,-9.42379992,-0.12080034,-2.8205810100000006,0.006516,-0.003205,0.003953,-122.200058,94.499878,-192.29129,60.187689,24.830135,12.099435,15.077761,-1.0,-1.0,100.570862,0.280087,-1.281421,0.013439,-1.311703
831170.694419,-9.42874416,-0.13936086,-2.81849148,0.002029,-0.00104,0.003505,-122.061752,94.627182,-192.790939,60.187689,24.830135,12.099435,15.077761,-1.0,-1.0,100.570862,0.280087,-1.281417,0.013459,-1.311701
831170.714403,-9.4106349,-0.13801689,-2.8175889600000006,-0.001522,0.001054,0.003897,-122.049057,94.39325,-192.459671,60.187689,24.830135,12.099435,15.077761,-1.0,-1.0,100.570862,0.280087,-1.281405,0.01347,-1.311704
831170.734388,-9.43323714,-0.11616021000000001,-2.81369439,0.006666,-0.004258,0.00327,-122.019897,94.445389,-192.514847,60.187689,24.830135,12.099435,15.077761,-1.0,-1.0,100.570862,0.280087,-1.281403,0.013477,-1.311716
831170.754373,-9.43577793,-0.13097331,-2.7993325500000004,-0.001288,0.003353,0.002404,-122.041641,94.171112,-192.629822,60.187689,24.830135,12.099435,15.077761,-1.0,-1.0,100.570862,0.280087,-1.281397,0.013479,-1.311721
831170.774358,-9.4223088,-0.13142457,-2.8142928000000005,0.005851,-0.002145,0.002553,-121.989426,94.367935,-192.419739,60.187689,24.830135,12.099435,15.077761,-1.0,-1.0,100.570862,0.280087,-1.281383,0.013495,-1.311745
831170.794342,-9.417511710000001,-0.13067901,-2.8134000900000005,0.002052,0.000564,0.004444,-122.069656,94.417404,-192.745132,60.187689,24.830135,12.099435,15.077761,-1.0,-1.0,100.570862,0.280087,-1.281389,0.013518,-1.311747
831170.814327,-9.4279986,-0.13845834,-2.81280168,0.001244,0.001408,0.004686,-122.038116,94.318863,-192.668488,60.187689,24.830135,12.099435,15.077761,-1.0,-1.0,100.570862,0.280087,-1.281377,0.013527,-1.31175
831170.854297,-9.417668670000001,-0.13426947,-2.8168434,-0.001103,0.002441,0.004422,-122.0495,94.311386,-192.224152,60.187689,24.830135,12.099435,15.077761,-1.0,-1.0,100.570862,0.280087,-1.281379,0.01352,-1.311718
831170.874281,-9.43608204,-0.14010642,-2.81414565,0.005955,-0.003386,0.004026,-122.106491,93.99025,-192.666687,60.187689,24.830135,12.099435,15.077761,-1.0,-1.0,100.570862,0.280087,-1.281364,0.013529,-1.311739
831170.874281,-9.43608204,-0.14010642,-2.81414565,0.005955,-0.003386,0.004026,-122.106491,93.99025,-192.666687,60.187689,24.830135,12.099435,15.077761,-1.0,-1.0,100.570862,0.280087,-1.281364,0.013529,-1.311739
831170.894266,-9.42379992,-0.13517199,-2.81624499,0.003289,0.000527,0.005004,-121.973511,94.372223,-192.734451,60.187689,24.830135,12.099435,15.077761,-1.0,-1.0,100.570862,0.280087,-1.28137,0.013529,-1.311734
831170.934236,-9.42814575,-0.12139875000000001,-2.80845585,0.006887,-0.004157,0.003885,-121.906204,94.145126,-192.47438,60.187689,24.830135,12.099435,15.077761,-1.0,-1.0,100.570862,0.280087,-1.281372,0.01352,-1.311738
831170.95422,-9.42724323,-0.13831119,-2.78735454,0.000115,0.004551,0.003335,-121.873932,94.236877,-192.550049,60.187689,24.830135,12.099435,15.077761,-1.0,-1.0,100.570862,0.280087,-1.28137,0.013519,-1.311716
831170.974205,-9.425300850000001,-0.13936086,-2.81249757,0.005283,-0.003565,0.004313,-121.896698,94.220108,-192.690323,60.187689,24.830135,12.099435,15.077761,-1.0,-1.0,100.570862,0.280087,-1.281368,0.013535,-1.311719
831170.99419,-9.42784164,-0.12484206,-2.8142928000000005,0.00303,-0.000493,0.005653,-121.939331,94.222336,-192.30719,60.187689,24.830135,12.099435,15.077761,-1.0,-1.0,100.570862,0.280087,-1.281385,0.013542,-1.31172
831171.014175,-9.4311378,-0.14519781,-2.8118991600000003,0.000864,0.001506,0.003494,-121.796021,94.349564,-192.499054,60.187689,24.830135,12.099435,15.077761,-1.0,-1.0,100.570862,0.280087,-1.281386,0.013548,-1.311725
831171.014175,-9.4311378,-0.14519781,-2.8118991600000003,0.000864,0.001506,0.003494,-121.796021,94.349564,-192.499054,60.187689,24.830135,12.099435,15.077761,-1.0,-1.0,100.570862,0.280087,-1.281386,0.013548,-1.311725
831171.054144,-9.42649767,-0.13696722,-2.80725903,-0.000976,0.004103,0.005328,-122.037888,94.461411,-192.393356,60.187689,24.830135,12.099435,15.077761,-1.0,-1.0,100.570862,0.280087,-1.281395,0.013534,-1.311714
831171.074129,-9.414823770000002,-0.13621185,-2.81414565,0.00492,-0.004924,0.005258,-121.870346,94.396545,-192.540329,60.187689,24.830135,12.099435,15.077761,-1.0,-1.0,100.570862,0.280087,-1.281378,0.01353,-1.311719
831171.094114,-9.421857540000001,-0.22797459,-2.8104080400000004,0.003351,0.001401,0.001495,-121.821899,94.360077,-192.911957,60.187689,24.830135,12.099435,15.077761,-1.0,-1.0,100.570862,0.280087,-1.281422,0.013494,-1.311706
831171.114098,-9.330546060000001,0.08547453,-2.8758211200000003,0.000315,0.00053,0.011443,-121.851318,94.045059,-192.614365,60.187689,24.830135,12.099435,15.077761,-1.0,-1.0,100.570862,0.280087,-1.28141,0.013532,-1.31171
831171.134083,-9.47260467,-0.19250163000000003,-2.8253781,0.015387,-0.003179,0.008525,-122.010651,93.842499,-192.519974,60.187689,24.830135,12.099435,15.077761,-1.0,-1.0,100.570862,0.280087,-1.281411,0.013456,-1.311627
831171.154068,-9.45404415,-0.28186092,-2.71445643,-0.003395,0.00217,0.004246,-122.03862,94.28447,-192.829498,60.187689,24.830135,12.099435,15.077761,-1.0,-1.0,100.570862,0.280087,-1.281416,0.013416,-1.311495
831171.174053,-9.44745183,-0.11975067000000002,-2.8026189,0.00266,-0.003232,0.002247,-122.048004,94.165573,-192.603058,60.187689,24.830135,12.099435,15.077761,-1.0,-1.0,100.570862,0.280087,-1.281434,0.013429,-1.311563
831171.194037,-9.41078205,-0.04955031,-2.8488730500000004,0.004799,0.002021,0.004122,-122.232315,94.166397,-192.820114,60.187689,24.830135,12.099435,15.077761,-1.0,-1.0,100.570862,0.280087,-1.281447,0.013455,-1.311607
831171.214022,-9.41212602,-0.17992521,-2.81325294,0.004324,-0.00324,0.006104,-122.0047,94.146057,-192.982361,60.187689,24.830135,12.099435,15.077761,-1.0,-1.0,100.570862,0.280087,-1.281445,0.013468,-1.311595
831171.234007,-9.47589102,-0.10148445,-2.72912238,0.002932,0.013471,-0.001133,-122.112244,94.285645,-192.690521,60.187689,24.830135,12.099435,15.077761,-1.0,-1.0,100.570862,0.280087,-1.281418,0.013461,-1.311572
831171.253992,-9.4889187,0.01332198,-2.8615966200000003,-0.0034,-0.01073,0.005667,-121.902359,94.337296,-192.611694,60.187689,24.830135,12.099435,15.077761,-1.0,-1.0,100.571159,0.256306,-1.281392,0.013559,-1.311716
831171.273976,-9.3762018,-0.20297871000000003,-2.87926443,0.014979,0.00744,0.008999,-121.96608,94.231628,-192.57225,60.187689,24.830135,12.099435,15.077761,-1.0,-1.0,100.571159,0.256306,-1.281271,0.013539,-1.311677
831171.293961,-9.39236868,-0.18845991,-2.76116184,0.001885,0.005292,0.002967,-121.850357,94.390015,-192.762405,60.187689,24.830135,12.099435,15.077761,-1.0,-1.0,100.571159,0.256306,-1.281308,0.013492,-1.31155
831171.313946,-9.56615283,-0.13831119,-2.84348736,0.003206,-0.014161,0.008817,-122.030899,94.12204,-192.579559,60.187689,24.830135,12.099435,15.077761,-1.0,-1.0,100.571159,0.256306,-1.281374,0.013518,-1.311586
831171.333931,-9.30540303,-0.1764819,-2.94587433,0.008063,-0.005553,0.000353,-122.030899,94.12204,-192.579559,60.187689,24.830135,12.099435,15.077761,-1.0,-1.0,100.571159,0.256306,-1.281349,0.013505,-1.311542
831171.353916,-9.41647185,-0.29099403,-3.0009574800000003,0.053232,-0.010694,0.018179,-122.162857,94.123306,-192.693604,60.187689,24.830135,12.099435,15.077761,-1.0,-1.0,100.571159,0.256306,-1.281561,0.013587,-1.311428
831171.3739,-9.21753486,-0.60982884,-2.97041895,0.05748,-0.055701,0.01806,-122.495789,94.360291,-192.749298,60.187689,24.830135,12.099435,15.077761,-1.0,-1.0,100.571159,0.256306,-1.282079,0.013456,-1.310524
831171.393885,-9.617645520000002,-0.26853894,-2.73796119,0.031617,-0.014412,-0.005788,-123.866562,94.176102,-193.23555,60.187689,24.830135,12.099435,15.077761,-1.0,-1.0,100.571159,0.256306,-1.283145,0.013679,-1.309483
831171.41387,-9.76254903,-0.16585766999999998,-2.8488730500000004,0.075873,0.004441,0.041303,-125.722336,93.848389,-193.499054,60.187689,24.830135,12.099435,15.077761,-1.0,-1.0,100.571159,0.256306,-1.283004,0.013864,-1.30853
831171.433855,-8.83717173,-0.59949891,-3.1904670600000005,0.123048,-0.002556,0.013636,-126.909348,93.086792,-194.167709,60.187689,24.830135,12.099435,15.077761,-1.0,-1.0,100.571159,0.256306,-1.28256,0.013903,-1.307049
831171.453839,-9.27935748,-0.49906413000000005,-3.7857771,0.108115,-0.204867,0.003937,-127.46962,92.131897,-194.214737,60.187689,24.830135,12.099435,15.077761,-1.0,-1.0,100.571159,0.256306,-1.284799,0.014326,-1.304974
831171.473824,-9.24028425,0.06436341000000001,-3.2787864900000003,0.124699,-0.117534,0.027388,-126.342529,91.007248,-194.641647,60.187689,24.830135,12.099435,15.077761,-1.0,-1.0,100.571159,0.256306,-1.287722,0.014871,-1.302943
831171.493809,-9.79562835,0.36613863,-3.00994344,0.141113,-0.113165,0.064526,-123.793564,90.156326,-194.844009,60.187689,24.830135,12.099435,15.077761,-1.0,-1.0,100.571159,0.256306,-1.290213,0.014876,-1.300385
831171.513794,-9.44745183,0.02274939,-3.0874816800000002,0.107762,-0.098173,0.015036,-121.991379,89.955246,-194.556824,60.187689,24.830135,12.099435,15.077761,-1.0,-1.0,100.571159,0.256306,-1.292069,0.014736,-1.297395
831171.533778,-9.37006074,-0.19429686000000002,-2.58736788,0.107762,-0.098173,0.015036,-120.592972,90.227875,-193.809555,60.187689,24.830135,12.099435,15.077761,-1.0,-1.0,100.571159,0.256306,-1.294062,0.015012,-1.295392
831171.533778,-9.37006074,-0.19429686000000002,-2.58736788,0.107762,-0.098173,0.015036,-120.592972,90.227875,-193.809555,60.187689,24.830135,12.099435,15.077761,-1.0,-1.0,100.571159,0.256306,-1.294062,0.015012,-1.295392
831171.573748,-9.40733874,-0.04819653,-2.50518951,0.068886,-0.110731,0.032266,-119.610428,91.183777,-193.017899,60.187689,24.830135,12.099435,15.077761,-1.0,-1.0,100.571159,0.256306,-1.296773,0.015107,-1.292397
831171.613717,-9.44341011,-0.32602554,-2.64081276,0.013364,-0.201625,0.013647,-120.56926,92.631226,-192.536545,60.187689,24.830135,12.099435,15.077761,-1.0,-1.0,100.571159,0.256306,-1.302699,0.014822,-1.290061
831171.613717,-9.44341011,-0.32602554,-2.64081276,0.013364,-0.201625,0.013647,-120.56926,92.631226,-192.536545,60.187689,24.830135,12.099435,15.077761,-1.0,-1.0,100.571159,0.256306,-1.302699,0.014822,-1.290061
831171.653687,-9.327102750000002,-0.32901759,-2.5828749,-0.055205,-0.327756,-0.001818,-123.515503,93.782639,-192.587692,60.187689,24.830135,12.099435,15.077761,-1.0,-1.0,100.571159,0.256306,-1.312815,0.014403,-1.290369
831171.653687,-9.327102750000002,-0.32901759,-2.5828749,-0.055205,-0.327756,-0.001818,-123.515503,93.782639,-192.587692,60.187689,24.830135,12.099435,15.077761,-1.0,-1.0,100.571159,0.256306,-1.312815,0.014403,-1.290369
831171.693657,-9.437121900000001,-0.29668383,-2.56177359,-0.073102,-0.456334,0.003954,-126.918945,93.367645,-192.729126,60.187689,24.830135,12.099435,15.077761,-1.0,-1.0,100.571159,0.256306,-1.328486,0.013821,-1.293227
831171.693657,-9.437121900000001,-0.29668383,-2.56177359,-0.073102,-0.456334,0.003954,-126.918945,93.367645,-192.729126,60.187689,24.830135,12.099435,15.077761,-1.0,-1.0,100.571159,0.256306,-1.328486,0.013821,-1.293227
831171.733626,-9.298359450000001,-0.37841094,-2.70233127,-0.063073,-0.605901,0.006324,-127.060104,90.817993,-193.664963,60.187689,24.830135,12.099435,15.077761,-1.0,-1.0,100.571159,0.256306,-1.348635,0.013164,-1.296245
831171.733626,-9.298359450000001,-0.37841094,-2.70233127,-0.063073,-0.605901,0.006324,-127.060104,90.817993,-193.664963,60.187689,24.830135,12.099435,15.077761,-1.0,-1.0,100.571159,0.256306,-1.348635,0.013164,-1.296245
831171.773596,-9.31692978,-0.21824307,-2.4234624,-0.025432,-0.729692,0.020854,-123.706848,90.672455,-191.391083,60.187689,24.830135,12.099435,15.077761,-1.0,-1.0,100.571159,0.256306,-1.374426,0.012445,-1.2981
831171.773596,-9.31692978,-0.21824307,-2.4234624,-0.025432,-0.729692,0.020854,-123.706848,90.672455,-191.391083,60.187689,24.830135,12.099435,15.077761,-1.0,-1.0,100.571159,0.256306,-1.374426,0.012445,-1.2981
831171.813565,-9.34821387,-0.08277678,-2.13411645,0.004141,-0.87162,0.03285,-126.285553,93.955246,-188.03804,60.187689,24.830135,12.099435,15.077761,-1.0,-1.0,100.571159,0.256306,-1.405789,0.011435,-1.298773
831171.813565,-9.34821387,-0.08277678,-2.13411645,0.004141,-0.87162,0.03285,-126.285553,93.955246,-188.03804,60.187689,24.830135,12.099435,15.077761,-1.0,-1.0,100.571159,0.256306,-1.405789,0.011435,-1.298773
831171.853535,-9.25076133,0.30117681,-1.8646749900000001,0.057213,-1.049488,0.054518,-131.894241,92.609131,-187.397751,60.187689,24.830135,12.099435,15.077761,-1.0,-1.0,100.571159,0.256306,-1.442881,0.010026,-1.297618
831171.853535,-9.25076133,0.30117681,-1.8646749900000001,0.057213,-1.049488,0.054518,-131.894241,92.609131,-187.397751,60.187689,24.830135,12.099435,15.077761,-1.0,-1.0,100.571159,0.256306,-1.442881,0.010026,-1.297618
831171.893504,-9.30136131,0.02649681,-1.1906200800000002,0.040302,-1.249359,0.058554,-132.094604,91.170395,-185.687241,60.187689,24.830135,12.099435,15.077761,-1.0,-1.0,100.571159,0.256306,-1.487738,0.008014,-1.295111
831171.913489,-9.37650591,0.09504909,-0.8961827400000001,0.031734,-1.34781,0.059526,-131.281784,90.852585,-184.304657,60.187689,24.830135,12.099435,15.077761,-1.0,-1.0,100.571159,0.256306,-1.513061,0.006966,-1.294327
831171.933474,-9.3357846,0.16750575,-0.7625116800000001,0.028801,-1.441565,0.065251,-130.482468,90.875458,-182.52948,60.187689,24.830135,12.099435,15.077761,-1.0,-1.0,100.571159,0.256306,-1.540387,0.005878,-1.293729
831171.953459,-9.79009551,0.6709059,-0.2633004,0.048824,-1.469072,0.048365,-130.213547,90.812759,-181.16008,60.187689,24.830135,12.099435,15.077761,-1.0,-1.0,100.571159,0.256306,-1.569298,0.004731,-1.293052
831171.973443,-15.98092164,1.13912739,-0.22976981999999999,0.162125,-0.536678,0.012999,-129.87944,91.317276,-180.147552,60.187689,24.830135,12.099435,15.077761,-1.0,-1.0,100.571159,0.256306,-1.597101,0.004262,-1.292589
831171.993428,-10.936256670000002,-0.09176274,-0.1360647,0.157194,-0.35946,0.013949,-128.565323,91.174759,-179.184937,60.187689,24.830135,12.099435,15.077761,-1.0,-1.0,100.571159,0.256306,-1.614882,0.003242,-1.290747
831172.013413,-10.17883638,0.26480133,0.5688132300000001,0.119199,-0.408517,0.041511,-126.281937,92.428741,-178.036209,60.187689,24.830135,12.099435,15.077761,-1.0,-1.0,100.571159,0.256306,-1.625413,0.002001,-1.288212
831172.033398,-9.85011309,0.5140341900000001,0.75667473,0.080904,-0.263838,0.061202,-128.359558,94.898865,-176.559509,60.187689,24.830135,12.099435,15.077761,-1.0,-1.0,100.571159,0.256306,-1.632243,0.000773,-1.285923
831172.053382,-10.477315440000002,0.25970994000000003,0.8948387700000001,0.032644,-0.142942,0.015607,-128.359558,94.898865,-176.559509,60.187689,24.830135,12.099435,15.077761,-1.0,-1.0,100.571159,0.256306,-1.635974,-0.000136,-1.284381
831172.073367,-10.11910329,0.33470739,0.9232779600000001,0.00079,-0.094324,-0.002992,-133.967133,94.9142,-178.475616,60.187689,24.830135,12.099435,15.077761,-1.0,-1.0,100.571159,0.256306,-1.637527,-0.000204,-1.2839
831172.093351,-9.677074500000002,0.210915,0.77838426,-0.010855,-0.168486,0.016372,-131.535446,91.753036,-179.329346,60.187689,24.830135,12.099435,15.077761,-1.0,-1.0,100.571159,0.256306,-1.63933,-0.000153,-1.284042
831172.113337,-9.75865446,-0.09924777,0.7536826799999999,-0.026117,-0.23484,0.021543,-127.588303,92.020035,-177.775055,60.187689,24.830135,12.099435,15.077761,-1.0,-1.0,100.571159,0.256306,-1.642725,-0.000374,-1.284427
831172.133321,-9.72003249,-0.27812331,0.8069706000000001,-0.065132,-0.348732,0.02536,-130.723587,95.273483,-176.051132,60.187689,24.830135,12.099435,15.077761,-1.0,-1.0,100.571159,0.256306,-1.647753,-0.000574,-1.285184
831172.153306,-9.74997261,-0.14490351,0.69590178,-0.054139,-0.526121,0.033998,-134.188019,93.532715,-178.060669,60.187689,24.830135,12.099435,15.077761,-1.0,-1.0,100.571159,0.256306,-1.65537,-0.000784,-1.286596
831172.173291,-9.70776018,0.03907323000000001,0.51911577,0.002524,-0.636395,0.026813,-131.911209,91.582474,-178.72084,60.187689,24.830135,12.099435,15.077761,-1.0,-1.0,100.571159,0.256306,-1.666176,-0.001333,-1.287634
831172.21326,-9.599085,-0.30386475,1.07296875,0.030182,-0.681809,0.025392,-129.260208,95.128067,-174.667816,60.187689,24.830135,12.099435,15.077761,-1.0,-1.0,100.571159,0.256306,-1.691877,-0.002225,-1.287047
831172.21326,-9.599085,-0.30386475,1.07296875,0.030182,-0.681809,0.025392,-129.260208,95.128067,-174.667816,60.187689,24.830135,12.099435,15.077761,-1.0,-1.0,100.571159,0.256306,-1.691877,-0.002225,-1.287047
831172.25323,-9.62932923,0.01796211,0.96878655,0.038788,-0.85231,0.020723,-135.698685,95.522614,-174.446106,60.187689,24.830135,12.099435,15.077761,-1.0,-1.0,100.571159,0.256306,-1.721739,-0.003106,-1.286051
831172.25323,-9.62932923,0.01796211,0.96878655,0.038788,-0.85231,0.020723,-135.698685,95.522614,-174.446106,60.187689,24.830135,12.099435,15.077761,-1.0,-1.0,100.571159,0.256306,-1.721739,-0.003106,-1.286051
831172.2932,-9.55747098,-0.15088761,1.49898762,0.01465,-1.022789,0.031294,-134.694122,92.393265,-173.609207,60.187689,24.830135,12.099435,15.077761,-1.0,-1.0,100.571159,0.256306,-1.758724,-0.004101,-1.285134
831172.313185,-9.521252460000001,-0.19190322,1.7092944,-0.001702,-1.052909,0.02496,-131.437805,91.952881,-171.739334,60.187689,24.830135,12.099435,15.077761,-1.0,-1.0,100.571159,0.256306,-1.779439,-0.004679,-1.285115
831172.333169,-9.50508558,-0.30311919,1.92365271,-0.017875,-1.077951,0.019904,-129.256393,92.337524,-170.163406,60.187689,24.830135,12.099435,15.077761,-1.0,-1.0,100.571159,0.256306,-1.800709,-0.005009,-1.285403
831172.333169,-9.50508558,-0.30311919,1.92365271,-0.017875,-1.077951,0.019904,-129.256393,92.337524,-170.163406,60.187689,24.830135,12.099435,15.077761,-1.0,-1.0,100.571159,0.256306,-1.800709,-0.005009,-1.285403
831172.373139,-9.34701705,-0.11750418000000001,2.19369258,0.007367,-1.253687,0.028108,-128.881271,94.037964,-166.456543,60.187689,24.830135,12.099435,15.077761,-1.0,-1.0,100.571159,0.256306,-1.846528,-0.005689,-1.286115
831172.373139,-9.34701705,-0.11750418000000001,2.19369258,0.007367,-1.253687,0.028108,-128.881271,94.037964,-166.456543,60.187689,24.830135,12.099435,15.077761,-1.0,-1.0,100.571159,0.256306,-1.846528,-0.005689,-1.286115
831172.373139,-9.34701705,-0.11750418000000001,2.19369258,0.007367,-1.253687,0.028108,-128.881271,94.037964,-166.456543,60.187689,24.830135,12.099435,15.077761,-1.0,-1.0,100.571159,0.256306,-1.846528,-0.005689,-1.286115
831172.413108,-11.781103680000001,0.79305021,3.07999665,0.075941,-0.920346,0.015436,-130.115204,95.229263,-163.507248,60.187689,24.830135,12.099435,15.077761,-1.0,-1.0,100.571159,0.256306,-1.896015,-0.006642,-1.285823
831172.453078,-8.96904756,0.5843817,3.78053856,0.050739,-0.954587,-0.011371,-133.244965,96.748611,-162.267914,60.187689,24.830135,12.099435,15.077761,-1.0,-1.0,100.571159,0.256306,-1.936557,-0.007437,-1.283647
831172.453078,-8.96904756,0.5843817,3.78053856,0.050739,-0.954587,-0.011371,-133.244965,96.748611,-162.267914,60.187689,24.830135,12.099435,15.077761,-1.0,-1.0,100.571159,0.256306,-1.936557,-0.007437,-1.283647
831172.493048,-7.844438970000001,-0.5667237,4.27974984,0.151613,-0.853749,0.013204,-134.739548,95.396652,-161.732224,60.187689,24.830135,12.099435,15.077761,-1.0,-1.0,100.571159,0.256306,-1.975725,-0.00825,-1.281049
831172.513032,-8.905135410000002,-0.96654006,4.28229063,0.123161,-0.992258,-0.007366,-134.606522,94.731094,-160.523651,60.187689,24.830135,12.099435,15.077761,-1.0,-1.0,100.571159,0.256306,-1.995197,-0.009027,-1.279544
831172.533017,-8.82624339,-0.20911977,4.47823557,0.105967,-1.150431,0.017893,-134.914413,94.404465,-159.436142,60.187689,24.830135,12.099435,15.077761,-1.0,-1.0,100.571159,0.256306,-2.015664,-0.009606,-1.277945
831172.553002,-8.39679102,-0.08067744,4.48722153,0.095713,-1.076806,0.010176,-134.836716,94.182281,-158.170746,60.187689,24.830135,12.099435,15.077761,-1.0,-1.0,100.571159,0.256306,-2.036786,-0.010665,-1.276164
831172.572987,-8.62790481,-0.07739109000000001,4.8121974,0.053689,-1.216566,0.034418,-134.68335,94.262512,-157.112946,60.187689,24.830135,12.099435,15.077761,-1.0,-1.0,100.571159,0.256306,-2.059525,-0.011765,-1.274794
831172.592971,-8.164176300000001,-0.11810259,5.08327713,-0.019132,-1.262809,0.080131,-134.579361,94.130402,-155.707886,60.187689,24.830135,12.099435,15.077761,-1.0,-1.0,100.571159,0.256306,-2.083798,-0.012911,-1.274465
831172.612956,-8.32494258,0.021552570000000004,5.10977394,-0.037989,-1.287919,0.064801,-134.204346,94.313843,-153.908615,60.187689,24.830135,12.099435,15.077761,-1.0,-1.0,100.571159,0.256306,-2.109211,-0.013868,-1.275444
831172.632941,-8.45636715,0.25372584000000004,4.86532836,-0.009121,-1.270926,0.060204,-133.881638,94.400131,-152.814148,60.187689,24.830135,12.099435,15.077761,-1.0,-1.0,100.571159,0.256306,-2.135118,-0.014552,-1.276678
831172.652926,-8.04217914,0.38110869,5.02520193,0.011577,-1.29236,0.042871,-133.570328,94.517151,-151.31842,60.187689,24.830135,12.099435,15.077761,-1.0,-1.0,100.571159,0.256306,-2.160785,-0.015349,-1.277431
831172.672911,-8.232581430000002,0.52510968,5.10917553,0.067834,-1.304341,0.011714,-133.290573,94.317276,-150.019287,60.187689,24.830135,12.099435,15.077761,-1.0,-1.0,100.571159,0.256306,-2.1867,-0.016047,-1.27746
831172.692895,-7.81165395,0.62629983,5.18386887,0.138055,-1.266125,0.00572,-132.820557,94.016006,-149.020554,60.187689,24.830135,12.099435,15.077761,-1.0,-1.0,100.571159,0.256306,-2.212472,-0.017043,-1.276338
831172.71288,-7.763310270000001,0.32272938,5.64177024,0.212879,-1.224872,-0.025535,-132.031494,93.74559,-147.877701,60.187689,24.830135,12.099435,15.077761,-1.0,-1.0,100.571159,0.256306,-2.237544,-0.018783,-1.273942
831172.732865,-7.297472610000001,-0.02006145,6.10954047,0.239465,-1.216526,-0.029805,-131.343582,93.475861,-146.630035,60.187689,24.830135,12.099435,15.077761,-1.0,-1.0,100.571159,0.256306,-2.261828,-0.020977,-1.270201
831172.75285,-7.367084370000001,0.10882233000000001,6.18812838,0.235043,-1.208615,-0.008992,-130.310333,93.463226,-145.653427,60.187689,24.830135,12.099435,15.077761,-1.0,-1.0,100.571159,0.256306,-2.285853,-0.023579,-1.266242
831172.772835,-7.16530248,0.38544471,6.384073320000001,0.218403,-1.238521,-0.005825,-130.310333,93.463226,-145.653427,60.187689,24.830135,12.099435,15.077761,-1.0,-1.0,100.571159,0.256306,-2.309951,-0.026455,-1.262618
831172.792819,-6.89151519,0.32063004,6.51640041,0.210048,-1.279391,-0.004206,-129.416077,93.150726,-144.56604,60.187689,24.830135,12.099435,15.077761,-1.0,-1.0,100.571159,0.256306,-2.334666,-0.029293,-1.259283
831172.812804,-6.689439,0.13517199,6.68853648,0.20612,-1.275187,0.029326,-128.618362,93.252197,-143.322449,60.187689,24.830135,12.099435,15.077761,-1.0,-1.0,100.571159,0.256306,-2.359985,-0.032296,-1.256255
831172.812804,-6.689439,0.13517199,6.68853648,0.20612,-1.275187,0.029326,-128.618362,93.252197,-143.322449,60.187689,24.830135,12.099435,15.077761,-1.0,-1.0,100.571159,0.256306,-2.359985,-0.032296,-1.256255
831172.812804,-6.689439,0.13517199,6.68853648,0.20612,-1.275187,0.029326,-128.618362,93.252197,-143.322449,60.187689,24.830135,12.099435,15.077761,-1.0,-1.0,100.571159,0.256306,-2.359985,-0.032296,-1.256255
831172.872759,-6.42239118,0.47046798,7.12668051,0.202844,-1.269162,0.03081,-126.145416,93.378418,-139.169464,60.187689,24.830135,12.099435,15.077761,-1.0,-1.0,100.571159,0.256306,-2.436043,-0.04199,-1.248994
831172.912728,-5.72439987,0.66072312,7.4778490799999995,0.211089,-1.319082,0.041071,-124.285461,93.658951,-136.026382,60.187689,24.830135,12.099435,15.077761,-1.0,-1.0,100.571159,0.256306,-2.487765,-0.048908,-1.244545
831172.932713,-5.620207860000001,0.55864026,7.68756726,0.212527,-1.320338,0.054774,-122.860687,94.075302,-134.476791,60.187689,24.830135,12.099435,15.077761,-1.0,-1.0,100.571159,0.256306,-2.514054,-0.052694,-1.242729
831172.932713,-5.620207860000001,0.55864026,7.68756726,0.212527,-1.320338,0.054774,-122.860687,94.075302,-134.476791,60.187689,24.830135,12.099435,15.077761,-1.0,-1.0,100.571159,0.256306,-2.514054,-0.052694,-1.242729
831172.972682,-5.06606058,0.80187921,7.84084851,0.237034,-1.348479,0.070394,-120.492798,94.879639,-131.391541,60.187689,24.830135,12.099435,15.077761,-1.0,-1.0,100.571159,0.256306,-2.567021,-0.061064,-1.239818
831172.972682,-5.06606058,0.80187921,7.84084851,0.237034,-1.348479,0.070394,-120.492798,94.879639,-131.391541,60.187689,24.830135,12.099435,15.077761,-1.0,-1.0,100.571159,0.256306,-2.567021,-0.061064,-1.239818
831173.012652,-4.42674288,0.9398961000000001,7.951014810000001,0.283149,-1.47062,0.058711,-118.363342,96.579315,-127.685837,60.187689,24.830135,12.099435,15.077761,-1.0,-1.0,100.571159,0.256306,-2.622823,-0.070653,-1.236574
831173.012652,-4.42674288,0.9398961000000001,7.951014810000001,0.283149,-1.47062,0.058711,-118.363342,96.579315,-127.685837,60.187689,24.830135,12.099435,15.077761,-1.0,-1.0,100.571159,0.256306,-2.622823,-0.070653,-1.236574
831173.052622,-3.9222930600000003,1.00380825,8.37672957,0.323032,-1.517974,0.155086,-117.50946,98.845459,-124.108673,60.187689,24.830135,12.099435,15.077761,-1.0,-1.0,100.571159,0.256306,-2.682977,-0.082379,-1.233855
831173.052622,-3.9222930600000003,1.00380825,8.37672957,0.323032,-1.517974,0.155086,-117.50946,98.845459,-124.108673,60.187689,24.830135,12.099435,15.077761,-1.0,-1.0,100.571159,0.256306,-2.682977,-0.082379,-1.233855
831173.092591,-3.6922191300000002,0.8481333600000001,9.254803050000001,0.262558,-1.614825,0.073422,-117.734909,100.080917,-122.601318,60.187689,24.830135,12.099435,15.077761,-1.0,-1.0,100.571159,0.256306,-2.74493,-0.095861,-1.233671
831173.112576,-3.14286894,1.05500664,9.580975740000001,0.17077,-1.665675,0.044432,-117.234467,100.172745,-121.239868,60.187689,24.830135,12.099435,15.077761,-1.0,-1.0,100.571159,0.256306,-2.777572,-0.100754,-1.233081
831173.132561,-2.8518651000000004,1.3973462100000003,9.27261801,0.098091,-1.704567,0.043505,-116.251328,100.228287,-120.131485,60.187689,24.830135,12.099435,15.077761,-1.0,-1.0,100.571159,0.256306,-2.811487,-0.103902,-1.232811
831173.152546,-2.70292968,1.43760645,9.32800527,0.06374,-1.738586,0.078196,-115.077194,99.843887,-118.85498,60.187689,24.830135,12.099435,15.077761,-1.0,-1.0,100.571159,0.256306,-2.846132,-0.105911,-1.233191
831173.17253,-2.33679105,1.3103707500000001,9.51047127,0.049276,-1.720102,0.073186,-113.122971,99.482773,-117.552322,60.187689,24.830135,12.099435,15.077761,-1.0,-1.0,100.571159,0.256306,-2.880796,-0.107367,-1.234256
831173.192515,-2.2296168,1.7335447200000003,9.568556280000001,0.066929,-1.61572,0.032069,-110.283173,99.065399,-116.079803,60.187689,24.830135,12.099435,15.077761,-1.0,-1.0,100.571159,0.256306,-2.914957,-0.108433,-1.235184
831173.2125,-2.00103399,2.1802136400000003,9.69369264,0.120562,-1.515357,0.025876,-106.633209,99.44751,-113.655365,60.187689,24.830135,12.099435,15.077761,-1.0,-1.0,100.571159,0.256306,-2.947359,-0.109985,-1.235465
831173.232485,-1.37130066,1.8476055900000001,9.52574544,0.155702,-1.470099,-0.05995,-103.705032,100.66864,-111.612213,60.187689,24.830135,12.099435,15.077761,-1.0,-1.0,100.571159,0.256306,-2.977727,-0.112452,-1.235071
831173.25247,-4.6328706,-0.9695321100000001,15.44892534,-0.443057,-0.991847,-0.397344,-102.738037,100.651733,-111.091537,60.187689,24.830135,12.099435,15.077761,-1.0,-1.0,100.571159,0.256306,-3.006141,-0.113524,-1.232552
831173.272454,-0.8753757300000001,1.9363762800000002,14.225814540000002,-0.434951,-1.175778,-0.421848,-104.258286,97.535767,-111.294724,60.187689,24.830135,12.099435,15.077761,-1.0,-1.0,100.571159,0.256306,-3.028785,-0.093867,-1.225468
831173.292439,-1.55541474,0.23276187000000004,22.873339350000002,-0.597247,-1.78322,-0.414384,-103.764816,96.58638,-110.717499,60.187689,24.830135,12.099435,15.077761,-1.0,-1.0,100.571159,0.256306,-3.047193,-0.082962,-1.217603
831173.312424,-0.9128008800000001,0.85487283,10.408007790000001,-0.695919,-1.3073,-0.334134,-102.40947,95.916824,-110.190491,60.187689,24.830135,12.099435,15.077761,-1.0,-1.0,100.571159,0.256306,-3.067762,-0.074165,-1.211366
831173.332409,0.7276371300000001,2.0941407,3.0211660800000004,-0.410576,-0.901041,-0.219829,-100.512711,95.767944,-109.307327,60.187689,24.830135,12.099435,15.077761,-1.0,-1.0,100.571159,0.256306,-3.086714,-0.064179,-1.206308
831173.352394,0.1850166,1.18224234,7.73846154,-0.380523,-0.746263,-0.159284,-97.663879,95.465744,-107.558411,60.187689,24.830135,12.099435,15.077761,-1.0,-1.0,100.571159,0.256306,-3.102643,-0.056625,-1.202608
831173.372378,-0.40550616,1.49419053,8.25353559,-0.320479,-0.657715,-0.14933,-98.341339,96.996414,-106.791061,60.187689,24.830135,12.099435,15.077761,-1.0,-1.0,100.571159,0.256306,-3.117149,-0.049597,-1.199753
831173.392363,-0.32272938,1.3974933600000001,8.88357303,-0.281815,-0.566002,-0.107683,-101.557297,97.576019,-107.202545,60.187689,24.830135,12.099435,15.077761,-1.0,-1.0,100.571159,0.256306,-3.130068,-0.043491,-1.197084
831173.412348,0.020208600000000004,1.22565159,9.77766624,-0.262991,-0.50713,-0.044934,-101.202576,93.671249,-109.087296,60.187689,24.830135,12.099435,15.077761,-1.0,-1.0,100.571091,0.258949,-3.140637,-0.03798,-1.195104
831173.432333,0.0577809,1.2307429799999998,9.03835521,-0.216122,-0.458469,0.022002,-95.828461,94.899811,-106.377426,60.187689,24.830135,12.099435,15.077761,-1.0,-1.0,100.571091,0.258949,3.133087,-0.033279,-1.194502
831173.452318,0.17693316,0.90201969,9.51706359,-0.221368,-0.465322,0.077875,-100.517365,94.927887,-107.435837,60.187689,24.830135,12.099435,15.077761,-1.0,-1.0,100.571091,0.258949,3.124294,-0.028955,-1.194963
831173.472303,-1.77530589,2.7372058200000002,11.1577959,-0.052097,-0.244629,0.259413,-100.517365,94.927887,-107.435837,60.187689,24.830135,12.099435,15.077761,-1.0,-1.0,100.571091,0.258949,3.119125,-0.02674,-1.198433
831173.492287,0.5665765500000001,0.04221243000000001,9.68501079,-0.087163,-0.314723,0.288844,-96.024429,97.191513,-106.475586,60.187689,24.830135,12.099435,15.077761,-1.0,-1.0,100.571091,0.258949,3.12079,-0.027324,-1.204291
831173.532257,0.92777094,0.023504760000000003,9.481433670000001,-0.00973,-0.042058,0.590827,-100.646057,97.676605,-108.299957,60.187689,24.830135,12.099435,15.077761,-1.0,-1.0,100.571091,0.258949,3.119747,-0.026823,-1.22123
831173.532257,0.92777094,0.023504760000000003,9.481433670000001,-0.00973,-0.042058,0.590827,-100.646057,97.676605,-108.299957,60.187689,24.830135,12.099435,15.077761,-1.0,-1.0,100.571091,0.258949,3.119747,-0.026823,-1.22123
831173.572227,0.021552570000000004,-0.04699971,9.59520024,-0.034057,0.00175,0.57693,-96.853119,95.217392,-109.864731,60.187689,24.830135,12.099435,15.077761,-1.0,-1.0,100.571091,0.258949,3.118662,-0.02637,-1.244705
831173.572227,0.021552570000000004,-0.04699971,9.59520024,-0.034057,0.00175,0.57693,-96.853119,95.217392,-109.864731,60.187689,24.830135,12.099435,15.077761,-1.0,-1.0,100.571091,0.258949,3.118662,-0.02637,-1.244705
831173.612196,-0.36853227000000005,0.23560677000000002,9.67123755,-0.001609,0.036781,0.505801,-96.609253,99.688736,-108.038452,60.187689,24.830135,12.099435,15.077761,-1.0,-1.0,100.571091,0.258949,3.118126,-0.026082,-1.265813
831173.612196,-0.36853227000000005,0.23560677000000002,9.67123755,-0.001609,0.036781,0.505801,-96.609253,99.688736,-108.038452,60.187689,24.830135,12.099435,15.077761,-1.0,-1.0,100.571091,0.258949,3.118126,-0.026082,-1.265813
831173.652166,-0.25925868,-0.10148445,9.63546048,-0.020825,0.026625,0.418429,-102.394943,98.598709,-111.298904,60.187689,24.830135,12.099435,15.077761,-1.0,-1.0,100.571091,0.258949,3.118029,-0.026327,-1.28492
831173.652166,-0.25925868,-0.10148445,9.63546048,-0.020825,0.026625,0.418429,-102.394943,98.598709,-111.298904,60.187689,24.830135,12.099435,15.077761,-1.0,-1.0,100.571091,0.258949,3.118029,-0.026327,-1.28492
831173.692135,-0.2803698,-0.10253412,9.73306017,-0.002896,0.071244,0.290638,-98.674347,97.624634,-113.070816,60.187689,24.830135,12.099435,15.077761,-1.0,-1.0,100.571091,0.258949,3.118087,-0.026182,-1.299758
831173.692135,-0.2803698,-0.10253412,9.73306017,-0.002896,0.071244,0.290638,-98.674347,97.624634,-113.070816,60.187689,24.830135,12.099435,15.077761,-1.0,-1.0,100.571091,0.258949,3.118087,-0.026182,-1.299758
831173.732105,-0.5095412100000001,-0.24249339000000003,10.12988448,0.011432,-0.021772,0.173402,-98.193558,97.834778,-113.40239,60.187689,24.830135,12.099435,15.077761,-1.0,-1.0,100.571091,0.258949,3.118613,-0.026555,-1.310354
831173.732105,-0.5095412100000001,-0.24249339000000003,10.12988448,0.011432,-0.021772,0.173402,-98.193558,97.834778,-113.40239,60.187689,24.830135,12.099435,15.077761,-1.0,-1.0,100.571091,0.258949,3.118613,-0.026555,-1.310354
831173.772075,0.28485297000000004,-0.12544047,9.671983110000001,-0.010723,-0.000429,0.133689,-100.165131,99.264328,-113.976578,60.187689,24.830135,12.099435,15.077761,-1.0,-1.0,100.571091,0.258949,3.118698,-0.026615,-1.316474
831173.772075,0.28485297000000004,-0.12544047,9.671983110000001,-0.010723,-0.000429,0.133689,-100.165131,99.264328,-113.976578,60.187689,24.830135,12.099435,15.077761,-1.0,-1.0,100.571091,0.258949,3.118698,-0.026615,-1.316474
831173.812044,0.29084688000000003,-0.37347651000000004,9.55762794,0.000133,-0.007026,0.066314,-96.516006,101.655518,-110.857147,60.187689,24.830135,12.099435,15.077761,-1.0,-1.0,100.571091,0.258949,3.118236,-0.02633,-1.32059
831173.812044,0.29084688000000003,-0.37347651000000004,9.55762794,0.000133,-0.007026,0.066314,-96.516006,101.655518,-110.857147,60.187689,24.830135,12.099435,15.077761,-1.0,-1.0,100.571091,0.258949,3.118236,-0.02633,-1.32059
831173.852014,0.07110288000000001,-0.65967345,9.813139200000002,0.008753,0.004911,-0.002901,-94.577209,99.0952,-113.55574,60.187689,24.830135,12.099435,15.077761,-1.0,-1.0,100.571091,0.258949,3.118118,-0.026681,-1.321774
831173.852014,0.07110288000000001,-0.65967345,9.813139200000002,0.008753,0.004911,-0.002901,-94.577209,99.0952,-113.55574,60.187689,24.830135,12.099435,15.077761,-1.0,-1.0,100.571091,0.258949,3.118118,-0.026681,-1.321774
831173.891984,0.34248672,-0.769104,9.84967164,0.004922,-0.005024,0.047632,-96.487366,101.867447,-112.951401,60.187689,24.830135,12.099435,15.077761,-1.0,-1.0,100.571091,0.258949,3.118232,-0.026906,-1.321795
831173.911968,0.2402469,-0.59306355,9.75296466,0.011881,-0.012531,0.117632,-100.143753,101.164383,-114.293945,60.187689,24.830135,12.099435,15.077761,-1.0,-1.0,100.571091,0.258949,3.118064,-0.027001,-1.32296
831173.931953,0.17408826000000002,-0.48708612000000007,9.77302611,0.007863,-0.006179,0.161554,-101.429382,99.918442,-115.403427,60.187689,24.830135,12.099435,15.077761,-1.0,-1.0,100.571091,0.258949,3.117911,-0.027129,-1.325394
831173.951938,0.03577707,-0.31734369000000007,9.767493270000001,0.00585,-0.010855,0.184604,-100.432098,98.768768,-115.831116,60.187689,24.830135,12.099435,15.077761,-1.0,-1.0,100.571091,0.258949,3.11776,-0.027209,-1.32861
831173.971923,-0.016765290000000002,-0.25193061,9.739946790000001,0.004126,-0.007717,0.199103,-98.857422,98.166122,-116.069931,60.187689,24.830135,12.099435,15.077761,-1.0,-1.0,100.571091,0.258949,3.117558,-0.027234,-1.332269
831173.971923,-0.016765290000000002,-0.25193061,9.739946790000001,0.004126,-0.007717,0.199103,-98.857422,98.166122,-116.069931,60.187689,24.830135,12.099435,15.077761,-1.0,-1.0,100.571091,0.258949,3.117558,-0.027234,-1.332269
831174.011892,0.09205704,0.02544714,9.72722322,0.003976,0.009261,0.180257,-96.379791,98.140915,-115.676086,60.187689,24.830135,12.099435,15.077761,-1.0,-1.0,100.571091,0.258949,3.117585,-0.027222,-1.339944
831174.031877,0.21120930000000002,0.21435831,9.615850290000001,0.000793,-0.003095,0.18618,-95.674957,98.459595,-115.01004,60.187689,24.830135,12.099435,15.077761,-1.0,-1.0,100.571091,0.258949,3.117612,-0.027212,-1.343492
831174.051862,0.27977139,0.29938158000000004,9.59145282,0.004796,-0.003886,0.177872,-95.027649,98.975143,-114.49057,60.187689,24.830135,12.099435,15.077761,-1.0,-1.0,100.571091,0.258949,3.117525,-0.027175,-1.347125
831174.071846,0.10717425000000001,0.23905008000000003,9.696988800000002,-0.002479,-0.001702,0.14109,-94.666122,99.366333,-114.753021,60.187689,24.830135,12.099435,15.077761,-1.0,-1.0,100.571091,0.258949,3.11734,-0.027156,-1.350463
831174.091831,0.19429686000000002,0.16750575,9.668098350000001,0.000288,-0.005961,0.105449,-94.623032,99.402054,-114.526093,60.187689,24.830135,12.099435,15.077761,-1.0,-1.0,100.571091,0.258949,3.117375,-0.02708,-1.353093
831174.111816,0.35895771,0.15297714,9.78245352,0.000695,-0.000913,0.056846,-94.668503,99.436981,-114.429535,60.187689,24.830135,12.099435,15.077761,-1.0,-1.0,100.571091,0.258949,3.117409,-0.027051,-1.354969
831174.1318,0.34892208,0.21330864,9.75057102,-0.003504,0.001472,-0.006781,-94.957062,99.449905,-114.454483,60.187689,24.830135,12.099435,15.077761,-1.0,-1.0,100.571091,0.258949,3.117494,-0.027026,-1.355803
831174.151785,0.13801689,0.32602554,9.67527927,-0.004004,0.008737,-0.013149,-95.324188,99.378998,-114.574051,60.187689,24.830135,12.099435,15.077761,-1.0,-1.0,100.571091,0.258949,3.117615,-0.026947,-1.355531
831174.17177,0.12424365,0.34398765000000003,9.752366250000001,0.001333,-0.003245,0.006737,-95.680313,99.45697,-114.513153,60.187689,24.830135,12.099435,15.077761,-1.0,-1.0,100.571091,0.258949,3.117783,-0.026875,-1.355226
831174.21174,0.19429686000000002,0.26779338,9.76809168,0.005263,-0.002813,0.00347,-95.771545,99.518661,-114.784821,60.187689,24.830135,12.099435,15.077761,-1.0,-1.0,100.571091,0.258949,3.117828,-0.026913,-1.355431
831174.21174,0.19429686000000002,0.26779338,9.76809168,0.005263,-0.002813,0.00347,-95.771545,99.518661,-114.784821,60.187689,24.830135,12.099435,15.077761,-1.0,-1.0,100.571091,0.258949,3.117828,-0.026913,-1.355431
831174.251709,0.1155618,0.27707364,9.73904427,0.000932,0.003528,0.00137,-96.589966,99.558456,-115.048538,60.187689,24.830135,12.099435,15.077761,-1.0,-1.0,100.571091,0.258949,3.117876,-0.027032,-1.355418
831174.251709,0.1155618,0.27707364,9.73904427,0.000932,0.003528,0.00137,-96.589966,99.558456,-115.048538,60.187689,24.830135,12.099435,15.077761,-1.0,-1.0,100.571091,0.258949,3.117876,-0.027032,-1.355418
831174.291679,0.16061913,0.24369021,9.74428281,0.000682,-0.000652,-0.00054,-97.34082,99.476532,-115.047989,60.187689,24.830135,12.099435,15.077761,-1.0,-1.0,100.571091,0.258949,3.117961,-0.027076,-1.355174
831174.311664,0.18381978000000002,0.25657074,9.75671208,0.000304,-0.001567,0.004651,-97.744522,99.395447,-114.837051,60.187689,24.830135,12.099435,15.077761,-1.0,-1.0,100.571091,0.258949,3.117991,-0.02707,-1.355091
831174.331649,0.118701,0.25057683000000003,9.67857543,0.001826,-0.001914,0.00212,-97.83046,99.709946,-115.186066,60.187689,24.830135,12.099435,15.077761,-1.0,-1.0,100.571091,0.258949,3.117981,-0.027071,-1.355066
831174.351634,0.20821725000000002,0.21015963000000001,9.74248758,-9.4e-05,0.00395,0.005683,-98.406921,99.691818,-114.84523,60.187689,24.830135,12.099435,15.077761,-1.0,-1.0,100.571091,0.258949,3.118017,-0.027084,-1.355014
831174.371618,0.19279593,0.19025514000000002,9.74248758,0.002422,-0.003054,0.007776,-98.917145,99.554764,-114.729919,60.187689,24.830135,12.099435,15.077761,-1.0,-1.0,100.571091,0.258949,3.118051,-0.027075,-1.355035
831174.391603,0.1038879,0.20387142,9.72198468,0.002585,0.002043,0.002075,-99.093063,100.088196,-115.175125,60.187689,24.830135,12.099435,15.077761,-1.0,-1.0,100.571091,0.258949,3.11806,-0.02707,-1.355079
831174.411588,0.13247424000000002,0.22063671,9.744135660000001,0.002083,-0.000371,0.00021,-99.46637,100.299561,-115.096054,60.187689,24.830135,12.099435,15.077761,-1.0,-1.0,100.571091,0.258949,3.118074,-0.027054,-1.355034
831174.411588,0.13247424000000002,0.22063671,9.744135660000001,0.002083,-0.000371,0.00021,-99.46637,100.299561,-115.096054,60.187689,24.830135,12.099435,15.077761,-1.0,-1.0,100.571091,0.258949,3.118074,-0.027054,-1.355034
831174.451558,0.13067901,0.21015963000000001,9.74129076,-0.000274,0.000445,-0.007452,-100.662338,100.466217,-114.494812,60.187689,24.830135,12.099435,15.077761,-1.0,-1.0,100.571091,0.258949,3.118077,-0.027036,-1.354846
831174.471543,0.13831119,0.25012557,9.74219328,0.00173,0.001053,-0.01293,-101.0755,100.860001,-114.86026,60.187689,24.830135,12.099435,15.077761,-1.0,-1.0,100.571091,0.258949,3.118116,-0.026989,-1.354587
831174.491527,0.19893699,0.31569561,9.75461274,0.001346,-0.001985,-0.011037,-101.326782,101.122971,-114.755325,60.187689,24.830135,12.099435,15.077761,-1.0,-1.0,100.57074,0.290657,3.118133,-0.02696,-1.354251
831174.511512,0.1935513,0.37541889,9.73246176,0.00152,0.001035,-0.008796,-101.104996,101.335709,-114.240265,60.187689,24.830135,12.099435,15.077761,-1.0,-1.0,100.57074,0.290657,3.118149,-0.026921,-1.353972
831174.531497,0.1386153,0.40176855,9.73650348,0.000221,-0.00048,-0.013217,-101.139557,101.701035,-114.021729,60.187689,24.830135,12.099435,15.077761,-1.0,-1.0,100.57074,0.290657,3.118162,-0.026893,-1.353688
831174.551482,0.14354973000000001,0.45489951000000006,9.72901845,0.000777,0.002635,-0.026174,-101.057373,101.815796,-114.454681,60.187689,24.830135,12.099435,15.077761,-1.0,-1.0,100.57074,0.290657,3.118189,-0.026856,-1.353284
831174.571467,0.11331531000000002,0.47630493,9.76224492,0.001621,-0.000425,-0.040866,-100.98349,101.790817,-114.038727,60.187689,24.830135,12.099435,15.077761,-1.0,-1.0,100.57074,0.290657,3.118227,-0.026871,-1.352603
831174.591451,0.15043635,0.5215192200000001,9.74683341,-0.001488,0.001019,-0.036751,-100.884155,102.156937,-114.118683,60.187689,24.830135,12.099435,15.077761,-1.0,-1.0,100.57074,0.290657,3.118267,-0.026881,-1.351689
831174.611436,0.19609209,0.5878250100000001,9.73351143,0.001531,-0.004594,-0.016029,-100.849243,101.810196,-114.176682,60.187689,24.830135,12.099435,15.077761,-1.0,-1.0,100.57074,0.290657,3.118284,-0.026864,-1.350929
831174.631421,0.18367263,0.55983708,9.72572229,0.001525,8e-05,-0.006498,-101.055023,101.545029,-114.259842,60.187689,24.830135,12.099435,15.077761,-1.0,-1.0,100.57074,0.290657,3.118273,-0.026848,-1.350579
831174.651406,0.1038879,0.51193485,9.727370370000001,0.001467,0.001164,-0.021222,-100.979706,100.949142,-114.576035,60.187689,24.830135,12.099435,15.077761,-1.0,-1.0,100.57074,0.290657,3.118272,-0.026847,-1.350352
831174.671391,0.13651596,0.46582785000000004,9.715990770000001,0.004203,-4.2e-05,-0.049527,-100.528152,100.341492,-114.804871,60.187689,24.830135,12.099435,15.077761,-1.0,-1.0,100.57074,0.290657,3.118291,-0.026864,-1.349712
831174.691376,0.22737618,0.38036313000000005,9.75671208,0.003037,-0.000273,-0.065733,-99.874802,99.826324,-114.94072,60.187689,24.830135,12.099435,15.077761,-1.0,-1.0,100.57074,0.290657,3.118327,-0.026918,-1.348579
831174.711361,0.29474145,0.27228636,9.76224492,0.004071,-0.000334,-0.08502,-98.819336,99.171402,-115.042572,60.187689,24.830135,12.099435,15.077761,-1.0,-1.0,100.57074,0.290657,3.118392,-0.026975,-1.347121
831174.731345,0.21809592,0.16959528000000001,9.80550702,0.001569,-0.006607,-0.107413,-98.146042,98.762924,-115.203491,60.187689,24.830135,12.099435,15.077761,-1.0,-1.0,100.57074,0.290657,3.118508,-0.027066,-1.345245
831174.75133,0.23830452000000002,0.16794720000000002,9.78305193,-0.001568,-0.003845,-0.13395,-97.458664,98.471817,-115.434708,60.187689,24.830135,12.099435,15.077761,-1.0,-1.0,100.57074,0.290657,3.118581,-0.027139,-1.342902
831174.7913,0.14309847,0.07304526,9.7582032,-0.003311,-0.010556,-0.20538,-97.465515,98.023712,-115.671341,60.187689,24.830135,12.099435,15.077761,-1.0,-1.0,100.57074,0.290657,3.118603,-0.027223,-1.336401
831174.811285,0.11855385,0.08547453,9.6856092,0.002526,0.007681,-0.210392,-97.808167,98.256241,-115.629349,60.187689,24.830135,12.099435,15.077761,-1.0,-1.0,100.57074,0.290657,3.118724,-0.027307,-1.332207
831174.811285,0.11855385,0.08547453,9.6856092,0.002526,0.007681,-0.210392,-97.808167,98.256241,-115.629349,60.187689,24.830135,12.099435,15.077761,-1.0,-1.0,100.57074,0.290657,3.118724,-0.027307,-1.332207
831174.851254,0.15387966,0.15522363,9.73920123,0.008081,0.008576,-0.189748,-98.661102,98.477386,-115.741074,60.187689,24.830135,12.099435,15.077761,-1.0,-1.0,100.57074,0.290657,3.119296,-0.027495,-1.323658
831174.851254,0.15387966,0.15522363,9.73920123,0.008081,0.008576,-0.189748,-98.661102,98.477386,-115.741074,60.187689,24.830135,12.099435,15.077761,-1.0,-1.0,100.57074,0.290657,3.119296,-0.027495,-1.323658
831174.891224,0.048049379999999996,0.21735036,9.68979807,0.003535,0.004855,-0.097855,-98.828918,98.651108,-115.361069,60.187689,24.830135,12.099435,15.077761,-1.0,-1.0,100.57074,0.290657,3.119438,-0.027726,-1.317067
831174.911209,-0.09415638000000001,0.14235291,9.7929306,0.004368,0.003509,-0.027774,-99.084534,98.726456,-115.328232,60.187689,24.830135,12.099435,15.077761,-1.0,-1.0,100.57074,0.290657,3.119496,-0.027798,-1.31526
831174.931194,0.06615864,0.09864936,9.803113380000001,0.000839,-0.003511,0.043975,-98.997894,98.856888,-115.520508,60.187689,24.830135,12.099435,15.077761,-1.0,-1.0,100.57074,0.290657,3.119546,-0.027829,-1.314952
831174.951179,0.13367106,0.13457358,9.736199370000001,0.000152,-0.001637,0.051087,-98.816116,98.618057,-115.462143,60.187689,24.830135,12.099435,15.077761,-1.0,-1.0,100.57074,0.290657,3.11946,-0.027779,-1.315723
831174.951179,0.13367106,0.13457358,9.736199370000001,0.000152,-0.001637,0.051087,-98.816116,98.618057,-115.462143,60.187689,24.830135,12.099435,15.077761,-1.0,-1.0,100.57074,0.290657,3.11946,-0.027779,-1.315723
831174.991148,0.21061089,0.22632651000000004,9.74308599,-0.002061,-0.004789,0.029526,-98.586441,98.925049,-115.540192,60.187689,24.830135,12.099435,15.077761,-1.0,-1.0,100.57074,0.290657,3.119162,-0.027653,-1.317351
831175.011133,0.14325543000000002,0.23201631,9.72064071,0.001352,-0.005803,0.009372,-98.968719,98.644958,-115.666611,60.187689,24.830135,12.099435,15.077761,-1.0,-1.0,100.57074,0.290657,3.119111,-0.02759,-1.317769
831175.031118,0.10807677000000002,0.25042968,9.755368110000001,0.001829,-0.001168,0.003782,-99.329422,98.80687,-115.659531,60.187689,24.830135,12.099435,15.077761,-1.0,-1.0,100.57074,0.290657,3.119084,-0.027577,-1.317851
831175.051103,0.25552107,0.34069149000000004,9.73979964,0.001829,-0.001168,0.003782,-99.671188,98.958984,-115.797226,60.187689,24.830135,12.099435,15.077761,-1.0,-1.0,100.57074,0.290657,3.119093,-0.027558,-1.31789
831175.051103,0.25552107,0.34069149000000004,9.73979964,0.001829,-0.001168,0.003782,-99.671188,98.958984,-115.797226,60.187689,24.830135,12.099435,15.077761,-1.0,-1.0,100.57074,0.290657,3.119093,-0.027558,-1.31789
831175.091072,0.10792962,0.25312743,9.77960862,-0.000179,-0.000442,0.011476,-100.228622,99.030243,-115.657532,60.187689,24.830135,12.099435,15.077761,-1.0,-1.0,100.57074,0.290657,3.119073,-0.027501,-1.318361
