timestamp,accel_x,accel_y,accel_z,gyro_x,gyro_y,gyro_z,mag_x,mag_y,mag_z,gps_lat,gps_lon,gps_alt,gps_accuracy,gps_speed,gps_course,pressure,altitude,roll,pitch,yaw
841494.901664,-9.39521358,-0.13097331,-2.8614494699999997,0.006614,-0.003437,0.000676,-117.199524,102.537552,-191.736374,60.187684,24.830135,13.493762,11.06615,-1.0,-1.0,100.611198,-0.824402,-1.277752,0.015144,-1.667166
841494.92165,-9.49056678,-0.10193571,-2.80935837,0.002137,0.007653,0.008049,-117.341537,102.503784,-191.980377,60.187684,24.830135,13.493762,11.06615,-1.0,-1.0,100.611198,-0.824402,-1.277825,0.015192,-1.667224
841494.941636,-9.34761546,-0.23216346000000002,-2.88599409,0.004557,-0.010007,0.004182,-117.14624,102.459885,-191.950974,60.187684,24.830135,13.493762,11.06615,-1.0,-1.0,100.611198,-0.824402,-1.277751,0.015169,-1.66717
841494.961623,-9.4485015,-0.14295132,-2.8053166500000004,0.000354,0.001244,0.003932,-117.407669,102.466202,-191.754089,60.187684,24.830135,13.493762,11.06615,-1.0,-1.0,100.611198,-0.824402,-1.27776,0.01516,-1.667169
841494.981609,-9.44416548,-0.10896948000000001,-2.8303125300000005,0.002777,0.006053,0.00511,-117.244034,102.563614,-191.759827,60.187684,24.830135,13.493762,11.06615,-1.0,-1.0,100.611198,-0.824402,-1.277792,0.015176,-1.66723
841495.001596,-9.34881228,-0.18561501000000002,-2.8821093300000005,0.007383,-0.007591,0.00221,-117.311371,102.337097,-191.817184,60.187684,24.830135,13.493762,11.06615,-1.0,-1.0,100.611198,-0.824402,-1.27772,0.015162,-1.667171
841495.021582,-9.47110374,-0.14369688,-2.78555931,-0.00182,0.007602,0.006017,-117.255219,102.283081,-191.660645,60.187684,24.830135,13.493762,11.06615,-1.0,-1.0,100.611198,-0.824402,-1.277757,0.015184,-1.667163
841495.041568,-9.39281994,-0.15118191,-2.87027847,0.006742,-0.004543,0.004777,-117.244125,102.488007,-191.996567,60.187684,24.830135,13.493762,11.06615,-1.0,-1.0,100.611198,-0.824402,-1.277746,0.01518,-1.667173
841495.061555,-9.389523780000001,-0.1502892,-2.8463322600000005,0.003395,-0.001838,0.002302,-117.289001,102.283264,-191.359894,60.187684,24.830135,13.493762,11.06615,-1.0,-1.0,100.611198,-0.824402,-1.277722,0.015157,-1.667148
841495.081541,-9.46676772,-0.14250006,-2.77673031,0.001625,0.006513,0.006106,-117.130051,102.430176,-191.593216,60.187684,24.830135,13.493762,11.06615,-1.0,-1.0,100.611198,-0.824402,-1.277764,0.015177,-1.667167
841495.101527,-9.36826551,-0.17827713000000003,-2.8711809900000005,0.005379,-0.006786,0.000695,-117.258575,102.297714,-191.59613,60.187684,24.830135,13.493762,11.06615,-1.0,-1.0,100.611198,-0.824402,-1.27771,0.015168,-1.667138
841495.121514,-9.43668045,-0.12484206,-2.81564658,-0.002335,0.003341,0.003723,-117.200195,102.285614,-191.387253,60.187684,24.830135,13.493762,11.06615,-1.0,-1.0,100.611198,-0.824402,-1.277703,0.015176,-1.667144
841495.1415,-9.441467730000001,-0.14369688,-2.84049531,0.007617,-0.000129,0.003771,-117.274429,102.369598,-191.793716,60.187684,24.830135,13.493762,11.06615,-1.0,-1.0,100.611198,-0.824402,-1.277733,0.01519,-1.667171
841495.161486,-9.36991359,-0.18336852,-2.87013132,0.001215,-0.003728,0.002445,-117.253723,102.508484,-191.680145,60.187684,24.830135,13.493762,11.06615,-1.0,-1.0,100.611198,-0.824402,-1.277692,0.015189,-1.667122
841495.181473,-9.45553527,-0.12843252,-2.80950552,0.003163,0.003154,0.004312,-117.046799,102.376251,-192.056229,60.187684,24.830135,13.493762,11.06615,-1.0,-1.0,100.611198,-0.824402,-1.277723,0.015194,-1.66717
841495.201459,-9.4106349,-0.14010642,-2.8472249700000005,0.009448,-0.00224,0.001222,-117.157394,102.33371,-192.199936,60.187684,24.830135,13.493762,11.06615,-1.0,-1.0,100.611198,-0.824402,-1.277738,0.015206,-1.667164
841495.221446,-9.39416391,-0.16151184,-2.8565052300000002,-0.002258,0.001279,0.003901,-117.477661,102.272964,-191.826187,60.187684,24.830135,13.493762,11.06615,-1.0,-1.0,100.611198,-0.824402,-1.277697,0.015208,-1.667146
841495.241432,-9.46376586,-0.12917808,-2.80337427,0.00741,-0.000898,0.004516,-117.226074,102.306717,-192.071716,60.187684,24.830135,13.493762,11.06615,-1.0,-1.0,100.611198,-0.824402,-1.277724,0.015212,-1.667179
841495.261418,-9.37605465,-0.16780005,-2.86534404,0.003453,-0.00057,0.004875,-117.499512,102.161316,-191.779785,60.187684,24.830135,13.493762,11.06615,-1.0,-1.0,100.611198,-0.824402,-1.277703,0.015215,-1.667152
841495.281405,-9.41422536,-0.14070483,-2.84827464,-1.7e-05,0.002098,0.002868,-117.426727,102.060333,-191.662857,60.187684,24.830135,13.493762,11.06615,-1.0,-1.0,100.611198,-0.824402,-1.27768,0.015199,-1.667158
841495.301391,-9.42740019,-0.15328125,-2.83045968,0.010156,-0.00349,0.003617,-117.422379,102.130341,-191.82019,60.187684,24.830135,13.493762,11.06615,-1.0,-1.0,100.611198,-0.824402,-1.277712,0.015226,-1.667163
841495.341364,-9.43204032,-0.1332198,-2.8337558400000002,0.00649,-0.001838,0.004277,-117.282959,102.253876,-191.733231,60.187684,24.830135,13.493762,11.06615,-1.0,-1.0,100.611198,-0.824402,-1.27771,0.015256,-1.667171
841495.36135,-9.41542218,-0.15223158,-2.83255902,0.005644,0.000301,0.005201,-117.282959,102.253876,-191.733231,60.187684,24.830135,13.493762,11.06615,-1.0,-1.0,100.611198,-0.824402,-1.277729,0.015269,-1.667163
841495.381337,-9.3821859,-0.16690734000000002,-2.85920298,-0.002161,0.000296,0.004326,-117.379913,102.256485,-191.500366,60.187684,24.830135,13.493762,11.06615,-1.0,-1.0,100.611198,-0.824402,-1.277688,0.01524,-1.667146
841495.401323,-9.44056521,-0.12768696000000002,-2.82208194,0.008636,-0.002854,0.004404,-117.539856,102.103699,-191.79071,60.187684,24.830135,13.493762,11.06615,-1.0,-1.0,100.611198,-0.824402,-1.277723,0.015245,-1.66716
841495.421309,-9.39865689,-0.14564907000000002,-2.8615966200000003,-0.00097,0.003235,0.00399,-117.435318,102.174484,-191.757248,60.187684,24.830135,13.493762,11.06615,-1.0,-1.0,100.611198,-0.824402,-1.277702,0.015247,-1.667147
841495.441296,-9.41602059,-0.14610033,-2.8261236600000004,0.005608,-0.004572,0.003724,-117.46785,102.067383,-191.727585,60.187684,24.830135,13.493762,11.06615,-1.0,-1.0,100.611198,-0.824402,-1.277678,0.015243,-1.667152
841495.461282,-9.43622919,-0.14773860000000003,-2.81908989,0.005173,0.00216,0.005783,-117.474487,102.131851,-191.627777,60.187684,24.830135,13.493762,11.06615,-1.0,-1.0,100.611198,-0.824402,-1.277731,0.015254,-1.667149
841495.461282,-9.43622919,-0.14773860000000003,-2.81908989,0.005173,0.00216,0.005783,-117.474487,102.131851,-191.627777,60.187684,24.830135,13.493762,11.06615,-1.0,-1.0,100.611198,-0.824402,-1.277731,0.015254,-1.667149
841495.501255,-9.43458111,-0.14669874000000002,-2.8303125300000005,0.008825,-0.004263,0.003925,-117.415634,102.188934,-191.757202,60.187684,24.830135,13.493762,11.06615,-1.0,-1.0,100.611198,-0.824402,-1.277697,0.015253,-1.667145
841495.521241,-9.413322840000001,-0.15342840000000002,-2.8270163700000004,-0.000381,0.00491,0.0053,-117.520401,102.135742,-191.237091,60.187684,24.830135,13.493762,11.06615,-1.0,-1.0,100.611198,-0.824402,-1.277713,0.015254,-1.667136
841495.541228,-9.40404258,-0.15313410000000002,-2.85006987,0.004082,-0.002721,0.003139,-117.415802,102.199081,-191.509659,60.187684,24.830135,13.493762,11.06615,-1.0,-1.0,100.611198,-0.824402,-1.277684,0.015245,-1.667114
841495.561214,-9.440869320000001,-0.1332198,-2.8321077600000004,0.006262,-0.002503,0.005209,-117.532608,102.198318,-191.786453,60.187684,24.830135,13.493762,11.06615,-1.0,-1.0,100.611198,-0.824402,-1.277726,0.015265,-1.667116
841495.5812,-9.389523780000001,-0.1707921,-2.86759053,-0.001931,0.003156,0.003989,-117.451172,102.127136,-191.693192,60.187684,24.830135,13.493762,11.06615,-1.0,-1.0,100.611198,-0.824402,-1.277701,0.015254,-1.667117
841495.601187,-9.42814575,-0.14010642,-2.83241187,0.009376,-0.005557,0.002615,-117.457733,102.155212,-191.869247,60.187684,24.830135,13.493762,11.06615,-1.0,-1.0,100.611198,-0.824402,-1.277703,0.015267,-1.667119
841495.621173,-9.4311378,-0.13801689,-2.84903001,0.001516,0.004519,0.004037,-117.380829,102.113022,-191.752518,60.187684,24.830135,13.493762,11.06615,-1.0,-1.0,100.611198,-0.824402,-1.277739,0.015284,-1.667115
841495.641159,-9.377702730000001,-0.17289144,-2.84738193,0.005093,-0.002336,0.004833,-117.459305,102.163239,-191.500702,60.187684,24.830135,13.493762,11.06615,-1.0,-1.0,100.611198,-0.824402,-1.277698,0.015288,-1.667095
841495.661146,-9.49086108,-0.15237873000000002,-2.7878058,0.007561,0.002128,0.003558,-117.185532,102.068359,-191.488632,60.187684,24.830135,13.493762,11.06615,-1.0,-1.0,100.611198,-0.824402,-1.27773,0.015286,-1.667071
841495.681132,-9.437121900000001,-0.15074046,-2.8149010199999998,-0.00261,0.009158,0.003653,-117.312119,102.133011,-191.455933,60.187684,24.830135,13.493762,11.06615,-1.0,-1.0,100.611198,-0.824402,-1.277734,0.015286,-1.667064
841495.701119,-9.32635719,-0.50504823,-2.7403548300000002,-0.025052,-0.027584,0.009726,-117.248901,102.092789,-191.602264,60.187684,24.830135,13.493762,11.06615,-1.0,-1.0,100.611198,-0.824402,-1.277682,0.015275,-1.667071
841495.721105,-9.41212602,-0.12513636,-2.96309088,-0.034198,-0.007208,0.00421,-117.332718,102.128342,-191.723022,60.187684,24.830135,13.493762,11.06615,-1.0,-1.0,100.611198,-0.824402,-1.27776,0.015116,-1.667335
841495.741091,-9.84547296,0.11960352,-2.7328698,-0.031615,-0.00708,-0.009575,-117.653549,102.666504,-192.092148,60.187684,24.830135,13.493762,11.06615,-1.0,-1.0,100.611198,-0.824402,-1.277622,0.015057,-1.667859
841495.741091,-9.84547296,0.11960352,-2.7328698,-0.031615,-0.00708,-0.009575,-117.653549,102.666504,-192.092148,60.187684,24.830135,13.493762,11.06615,-1.0,-1.0,100.611198,-0.824402,-1.277622,0.015057,-1.667859
841495.781064,-9.06380235,-0.20567646,-2.9570969700000003,-0.017696,-0.021139,0.006655,-117.498016,102.239029,-191.412567,60.187684,24.830135,13.493762,11.06615,-1.0,-1.0,100.61145,-0.845539,-1.27697,0.01535,-1.66926
841495.80105,-9.21199221,-0.07679268,-3.05304858,0.021018,0.017401,0.008842,-118.088181,102.135162,-191.427505,60.187684,24.830135,13.493762,11.06615,-1.0,-1.0,100.61145,-0.845539,-1.276849,0.015289,-1.669717
841495.821037,-9.64339677,-0.12109464000000002,-2.64754242,0.016397,0.011464,0.006504,-118.562057,102.082672,-191.789413,60.187684,24.830135,13.493762,11.06615,-1.0,-1.0,100.61145,-0.845539,-1.276826,0.015317,-1.669612
841495.841023,-9.38114604,-0.18186759,-2.77777017,0.008575,0.021638,0.008538,-118.564026,102.027908,-191.569656,60.187684,24.830135,13.493762,11.06615,-1.0,-1.0,100.61145,-0.845539,-1.276861,0.015274,-1.669396
841495.86101,-9.34790976,0.10523187,-3.05514792,0.010066,-0.009656,-0.000292,-118.618774,101.87114,-191.64267,60.187684,24.830135,13.493762,11.06615,-1.0,-1.0,100.61145,-0.845539,-1.276674,0.015209,-1.669264
841495.86101,-9.34790976,0.10523187,-3.05514792,0.010066,-0.009656,-0.000292,-118.618774,101.87114,-191.64267,60.187684,24.830135,13.493762,11.06615,-1.0,-1.0,100.61145,-0.845539,-1.276674,0.015209,-1.669264
841495.900982,-9.42006231,-0.37632141,-2.70173286,-0.007337,-0.001449,9.7e-05,-118.553009,101.215424,-191.629715,60.187684,24.830135,13.493762,11.06615,-1.0,-1.0,100.61145,-0.845539,-1.276567,0.015155,-1.668727
841495.920969,-9.36797121,0.06780672,-2.89333197,-0.011091,-0.003943,-0.011267,-118.625244,101.139343,-191.782913,60.187684,24.830135,13.493762,11.06615,-1.0,-1.0,100.61145,-0.845539,-1.276446,0.015105,-1.668739
841495.940955,-9.35778843,0.042065280000000004,-2.9761087500000003,0.024091,-0.001143,0.01301,-118.545288,101.378494,-191.624451,60.187684,24.830135,13.493762,11.06615,-1.0,-1.0,100.61145,-0.845539,-1.276547,0.015226,-1.669121
841495.980928,-9.40898682,-0.16854560999999998,-2.90321064,0.022044,-0.017671,0.000702,-118.74472,101.022293,-191.894241,60.187684,24.830135,13.493762,11.06615,-1.0,-1.0,100.61145,-0.845539,-1.276853,0.015185,-1.668341
841496.000914,-9.4746942,-0.10537902,-2.70443061,0.030379,-0.013759,0.019165,-118.780411,100.99852,-191.438004,60.187684,24.830135,13.493762,11.06615,-1.0,-1.0,100.61145,-0.845539,-1.277542,0.015311,-1.667979
841496.020901,-9.504781470000001,-0.19878984000000002,-2.6355644099999997,0.013123,0.001464,0.009444,-118.869385,100.927231,-191.771408,60.187684,24.830135,13.493762,11.06615,-1.0,-1.0,100.61145,-0.845539,-1.277788,0.01528,-1.667425
841496.040887,-9.23354478,-0.40985199,-2.87701794,-0.016202,-0.033856,-0.006514,-118.695465,101.142975,-191.653641,60.187684,24.830135,13.493762,11.06615,-1.0,-1.0,100.61145,-0.845539,-1.277732,0.015176,-1.667067
841496.060873,-9.174724020000001,-0.32542713,-3.2090275800000003,-0.032166,-0.1518,-0.0022,-118.738724,101.297028,-191.955139,60.187684,24.830135,13.493762,11.06615,-1.0,-1.0,100.61145,-0.845539,-1.278257,0.015176,-1.66734
841496.060873,-9.174724020000001,-0.32542713,-3.2090275800000003,-0.032166,-0.1518,-0.0022,-118.738724,101.297028,-191.955139,60.187684,24.830135,13.493762,11.06615,-1.0,-1.0,100.61145,-0.845539,-1.278257,0.015176,-1.66734
841496.100846,-9.17786322,-0.14340258,-3.1672664100000003,-0.086523,-0.374268,-0.029659,-118.880981,101.533905,-191.531601,60.187684,24.830135,13.493762,11.06615,-1.0,-1.0,100.61145,-0.845539,-1.285507,0.015395,-1.669288
841496.120833,-9.26498583,-0.37646856,-2.76160329,-0.10983,-0.449081,-0.032211,-119.63327,101.203033,-191.78273,60.187684,24.830135,13.493762,11.06615,-1.0,-1.0,100.61145,-0.845539,-1.292443,0.015617,-1.671131
841496.140819,-9.37275849,-0.38230551,-2.8487259,-0.104037,-0.487243,0.017698,-120.305573,100.716858,-191.560745,60.187684,24.830135,13.493762,11.06615,-1.0,-1.0,100.61145,-0.845539,-1.301149,0.015579,-1.673385
841496.140819,-9.37275849,-0.38230551,-2.8487259,-0.104037,-0.487243,0.017698,-120.305573,100.716858,-191.560745,60.187684,24.830135,13.493762,11.06615,-1.0,-1.0,100.61145,-0.845539,-1.301149,0.015579,-1.673385
841496.180792,-9.34072884,-0.45206442,-2.72598318,-0.079855,-0.579344,-0.001291,-120.474075,99.561096,-191.988083,60.187684,24.830135,13.493762,11.06615,-1.0,-1.0,100.61145,-0.845539,-1.321286,0.014639,-1.677488
841496.200778,-9.24238359,-0.33066567,-2.64425607,-0.067353,-0.626854,0.005619,-119.99678,98.756104,-192.071899,60.187684,24.830135,13.493762,11.06615,-1.0,-1.0,100.61145,-0.845539,-1.332428,0.014332,-1.679148
841496.220765,-9.26797788,-0.39936510000000003,-2.48677614,-0.071404,-0.711624,0.009648,-118.492157,98.070343,-191.448868,60.187684,24.830135,13.493762,11.06615,-1.0,-1.0,100.61145,-0.845539,-1.34484,0.01398,-1.68057
841496.220765,-9.26797788,-0.39936510000000003,-2.48677614,-0.071404,-0.711624,0.009648,-118.492157,98.070343,-191.448868,60.187684,24.830135,13.493762,11.06615,-1.0,-1.0,100.61145,-0.845539,-1.34484,0.01398,-1.68057
841496.260737,-9.225912600000001,-0.15507648,-2.55278763,-0.036846,-0.926488,0.015783,-117.172409,101.241669,-188.846619,60.187684,24.830135,13.493762,11.06615,-1.0,-1.0,100.61145,-0.845539,-1.374346,0.013201,-1.68327
841496.280724,-9.33908076,-0.01482291,-2.30445729,0.004557,-1.005089,0.030219,-119.50676,102.714783,-187.487579,60.187684,24.830135,13.493762,11.06615,-1.0,-1.0,100.61145,-0.845539,-1.392238,0.012821,-1.684115
841496.30071,-9.21933009,-0.023347800000000002,-2.15387379,0.027056,-1.104646,0.039305,-122.665894,101.950989,-186.894806,60.187684,24.830135,13.493762,11.06615,-1.0,-1.0,100.61145,-0.845539,-1.411878,0.012359,-1.684196
841496.320697,-9.20390877,0.05927202,-2.00043558,0.039933,-1.201027,0.046638,-124.781326,100.613754,-187.025665,60.187684,24.830135,13.493762,11.06615,-1.0,-1.0,100.61145,-0.845539,-1.43345,0.01175,-1.682868
841496.340683,-9.33248844,0.0606258,-1.5928398900000003,0.057236,-1.2777,0.055216,-124.643753,98.886307,-186.72197,60.187684,24.830135,13.493762,11.06615,-1.0,-1.0,100.61145,-0.845539,-1.457091,0.01104,-1.680776
841496.360669,-9.378301140000001,0.09909081000000002,-1.09152927,0.094916,-1.337589,0.066114,-122.433167,98.80484,-185.666275,60.187684,24.830135,13.493762,11.06615,-1.0,-1.0,100.61145,-0.845539,-1.482371,0.010188,-1.679675
841496.380656,-9.381587490000001,-0.0011968200000000001,-0.98959356,0.118922,-1.407019,0.072215,-120.140823,99.616333,-184.053482,60.187684,24.830135,13.493762,11.06615,-1.0,-1.0,100.61145,-0.845539,-1.50883,0.009094,-1.677961
841496.400642,-9.22756068,0.01482291,-0.75697884,0.142475,-1.483139,0.088609,-119.429779,101.441971,-182.088852,60.187684,24.830135,13.493762,11.06615,-1.0,-1.0,100.61145,-0.845539,-1.536564,0.007859,-1.675706
841496.420628,-9.43831872,1.15095825,-0.44816985000000004,0.248759,-1.26104,0.682074,-120.315323,102.93898,-180.396942,60.187684,24.830135,13.493762,11.06615,-1.0,-1.0,100.61145,-0.845539,-1.565856,0.006289,-1.672979
841496.440615,-13.86326637,-0.60563997,1.5762217500000002,0.273807,-0.999327,0.298679,-120.50705,103.81517,-180.375443,60.187684,24.830135,13.493762,11.06615,-1.0,-1.0,100.61145,-0.845539,-1.593237,-0.001542,-1.669026
841496.460601,-11.331589860000001,-0.5780934900000001,0.5727078,0.235315,-0.630695,0.075189,-120.276367,103.170853,-180.304016,60.187684,24.830135,13.493762,11.06615,-1.0,-1.0,100.61145,-0.845539,-1.612193,-0.010493,-1.663468
841496.480588,-9.65552193,0.05538726,1.51994178,0.272846,-0.437373,0.065523,-120.661301,102.135864,-179.904846,60.187684,24.830135,13.493762,11.06615,-1.0,-1.0,100.61145,-0.845539,-1.627264,-0.012182,-1.658558
841496.500574,-9.6047748,0.40086603,2.3513098500000003,0.291064,-0.361639,0.022498,-120.798538,102.122818,-179.454803,60.187684,24.830135,13.493762,11.06615,-1.0,-1.0,100.61145,-0.845539,-1.639106,-0.013895,-1.653402
841496.520561,-9.67408245,0.47526507,1.6850440800000002,0.267777,-0.388605,-0.001055,-120.592743,102.574661,-178.957825,60.187684,24.830135,13.493762,11.06615,-1.0,-1.0,100.61145,-0.845539,-1.648694,-0.015195,-1.648179
841496.540547,-9.774968490000001,0.3930867,1.53910071,0.229744,-0.56303,-0.025979,-120.935623,102.82338,-178.575714,60.187684,24.830135,13.493762,11.06615,-1.0,-1.0,100.61145,-0.845539,-1.658137,-0.015782,-1.642925
841496.560533,-9.64983213,0.030391380000000003,1.0687798800000001,0.125495,-0.679551,-0.015471,-121.200745,102.389526,-178.312241,60.187684,24.830135,13.493762,11.06615,-1.0,-1.0,100.61145,-0.845539,-1.669283,-0.015788,-1.638385
841496.58052,-9.51930027,0.06811083000000001,0.659232,0.045857,-0.864025,0.015306,-121.49884,101.393188,-177.951752,60.187684,24.830135,13.493762,11.06615,-1.0,-1.0,100.61145,-0.845539,-1.682875,-0.015719,-1.635495
841496.620493,-9.4485015,-0.22708187999999999,1.19526021,-0.097348,-1.167177,0.066075,-123.601395,100.207596,-176.203049,60.187684,24.830135,13.493762,11.06615,-1.0,-1.0,100.61145,-0.845539,-1.719542,-0.016508,-1.634871
841496.620493,-9.4485015,-0.22708187999999999,1.19526021,-0.097348,-1.167177,0.066075,-123.601395,100.207596,-176.203049,60.187684,24.830135,13.493762,11.06615,-1.0,-1.0,100.61145,-0.845539,-1.719542,-0.016508,-1.634871
841496.660465,-9.57827799,0.0925083,1.43072964,-0.080754,-1.297791,0.059418,-128.006104,99.900864,-175.095413,60.187684,24.830135,13.493762,11.06615,-1.0,-1.0,100.61145,-0.845539,-1.766402,-0.018169,-1.638891
841496.660465,-9.57827799,0.0925083,1.43072964,-0.080754,-1.297791,0.059418,-128.006104,99.900864,-175.095413,60.187684,24.830135,13.493762,11.06615,-1.0,-1.0,100.61145,-0.845539,-1.766402,-0.018169,-1.638891
841496.700438,-9.425300850000001,0.20537235,2.0041830000000003,0.00483,-1.373639,0.020192,-130.990479,101.866455,-172.155838,60.187684,24.830135,13.493762,11.06615,-1.0,-1.0,100.61145,-0.845539,-1.818677,-0.019502,-1.64213
841496.720425,-9.85804938,0.46508229,2.5382688300000003,0.088932,-1.242949,0.132619,-130.655396,103.28598,-170.248367,60.187684,24.830135,13.493762,11.06615,-1.0,-1.0,100.61145,-0.845539,-1.846052,-0.01992,-1.642508
841496.740411,-10.203086700000002,-0.74978811,3.88187586,0.063616,-1.185072,-0.084164,-129.952835,103.955231,-168.670624,60.187684,24.830135,13.493762,11.06615,-1.0,-1.0,100.61145,-0.845539,-1.872321,-0.021644,-1.641803
841496.760397,-7.603583850000001,0.03891627,4.24996668,0.033611,-1.179966,0.083517,-127.606537,104.934357,-166.896637,60.187684,24.830135,13.493762,11.06615,-1.0,-1.0,100.61145,-0.845539,-1.897054,-0.022361,-1.640769
841496.780384,-9.59460183,-0.06795387,4.10536728,0.040979,-1.165159,-0.049678,-124.534698,104.820648,-166.002914,60.187684,24.830135,13.493762,11.06615,-1.0,-1.0,100.61145,-0.845539,-1.921524,-0.022957,-1.640205
841496.80037,-8.59946562,0.11630736000000001,3.5124410700000004,0.043483,-1.042898,0.092423,-124.534698,104.820648,-166.002914,60.187684,24.830135,13.493762,11.06615,-1.0,-1.0,100.61145,-0.845539,-1.944668,-0.023103,-1.639822
841496.820357,-9.04538898,-0.29024847,4.03919883,0.053818,-1.137923,-0.035559,-123.776428,103.173447,-164.528534,60.187684,24.830135,13.493762,11.06615,-1.0,-1.0,100.61145,-0.845539,-1.967552,-0.024086,-1.639344
841496.820357,-9.04538898,-0.29024847,4.03919883,0.053818,-1.137923,-0.035559,-123.776428,103.173447,-164.528534,60.187684,24.830135,13.493762,11.06615,-1.0,-1.0,100.61145,-0.845539,-1.967552,-0.024086,-1.639344
841496.860329,-8.43675696,-0.062116920000000006,3.9628574100000002,0.031918,-1.148109,0.000822,-127.298523,100.631256,-164.895981,60.187684,24.830135,13.493762,11.06615,-1.0,-1.0,100.611595,-0.858753,-2.011519,-0.025213,-1.638121
841496.880316,-8.88701634,0.13381821000000002,4.109850450000001,0.024819,-1.131564,0.05675,-129.985901,102.580826,-163.150772,60.187684,24.830135,13.493762,11.06615,-1.0,-1.0,100.611595,-0.858753,-2.034237,-0.025621,-1.637762
841496.900302,-9.0929871,-0.19923129,4.7484225900000006,-0.007165,-1.143647,-0.047126,-129.087265,105.489594,-160.545395,60.187684,24.830135,13.493762,11.06615,-1.0,-1.0,100.611595,-0.858753,-2.057001,-0.026529,-1.637695
841496.920289,-7.09344423,0.51732054,4.46730723,0.00838,-1.106013,0.076435,-125.0923,105.465775,-158.931091,60.187684,24.830135,13.493762,11.06615,-1.0,-1.0,100.611595,-0.858753,-2.08035,-0.026138,-1.637646
841496.940275,-8.64093249,1.19840922,4.4825814,0.181784,-1.406739,-0.06138,-122.505081,102.497025,-157.407822,60.187684,24.830135,13.493762,11.06615,-1.0,-1.0,100.611595,-0.858753,-2.104589,-0.026693,-1.638222
841496.960262,-8.78223573,1.7528508,4.3204613400000005,0.335929,-1.197868,-0.047661,-124.865707,100.566101,-157.02327,60.187684,24.830135,13.493762,11.06615,-1.0,-1.0,100.611595,-0.858753,-2.129005,-0.027398,-1.635958
841496.980248,-7.3489653,1.2006557100000002,4.65127416,0.436189,-1.183013,-0.069972,-127.385696,100.394333,-156.424393,60.187684,24.830135,13.493762,11.06615,-1.0,-1.0,100.611595,-0.858753,-2.154457,-0.029632,-1.630559
841497.000234,-7.89293961,0.84858462,5.801781150000001,0.390588,-1.224366,-0.064734,-128.626099,100.569214,-155.693863,60.187684,24.830135,13.493762,11.06615,-1.0,-1.0,100.611595,-0.858753,-2.177849,-0.033175,-1.62299
841497.020222,-7.13311587,0.69470496,5.995332450000001,0.287481,-1.266522,0.068406,-128.765076,101.207138,-154.787292,60.187684,24.830135,13.493762,11.06615,-1.0,-1.0,100.611595,-0.858753,-2.20234,-0.036367,-1.615493
841497.040208,-7.23700377,1.0837499400000001,6.320455470000001,0.234358,-1.342099,0.024716,-128.323883,101.316284,-153.279984,60.187684,24.830135,13.493762,11.06615,-1.0,-1.0,100.611595,-0.858753,-2.226695,-0.040806,-1.61087
841497.060195,-7.08521364,1.29795129,5.89160151,0.19514,-1.291453,0.123905,-126.074646,100.799423,-151.967316,60.187684,24.830135,13.493762,11.06615,-1.0,-1.0,100.611595,-0.858753,-2.252941,-0.044418,-1.607461
841497.080181,-7.244184690000001,1.14646527,6.086339820000001,0.206747,-1.323956,0.06412,-123.656418,100.812881,-149.991119,60.187684,24.830135,13.493762,11.06615,-1.0,-1.0,100.611595,-0.858753,-2.278884,-0.048311,-1.605461
841497.100168,-6.96861198,1.6304121900000001,6.183341100000001,0.244858,-1.218429,0.124307,-120.596802,102.367126,-148.259872,60.187684,24.830135,13.493762,11.06615,-1.0,-1.0,100.611595,-0.858753,-2.305092,-0.052114,-1.60346
841497.120154,-6.87010977,1.19541717,6.76712439,0.331393,-1.184263,0.098328,-121.196198,104.937378,-146.643753,60.187684,24.830135,13.493762,11.06615,-1.0,-1.0,100.611595,-0.858753,-2.330087,-0.056546,-1.601546
841497.14014,-5.689819620000001,-0.85697217,8.10848493,0.245485,-1.390855,0.089559,-124.012558,106.307922,-146.710861,60.187684,24.830135,13.493762,11.06615,-1.0,-1.0,100.611595,-0.858753,-2.354056,-0.062323,-1.598817
841497.14014,-5.689819620000001,-0.85697217,8.10848493,0.245485,-1.390855,0.089559,-124.012558,106.307922,-146.710861,60.187684,24.830135,13.493762,11.06615,-1.0,-1.0,100.611595,-0.858753,-2.354056,-0.062323,-1.598817
841497.180113,-5.057535690000001,-0.84544542,7.484882850000001,0.186786,-1.34285,0.147442,-124.383347,106.143173,-145.803207,60.187684,24.830135,13.493762,11.06615,-1.0,-1.0,100.611595,-0.858753,-2.405583,-0.072922,-1.594109
841497.2001,-6.1691166,-0.12453795000000001,8.03888298,0.127773,-1.39911,0.1765,-123.557144,106.61319,-144.727264,60.187684,24.830135,13.493762,11.06615,-1.0,-1.0,100.611595,-0.858753,-2.432514,-0.077412,-1.593389
841497.220086,-6.00311178,0.21704625,7.27127991,0.13244,-1.448657,0.111535,-122.531372,107.227386,-143.099472,60.187684,24.830135,13.493762,11.06615,-1.0,-1.0,100.611595,-0.858753,-2.460042,-0.081642,-1.594071
841497.240072,-5.23027017,0.46044216,8.339010120000001,0.097247,-1.649631,0.067049,-120.164688,107.536011,-140.732513,60.187684,24.830135,13.493762,11.06615,-1.0,-1.0,100.611595,-0.858753,-2.488786,-0.085129,-1.594459
841497.260059,-5.95730889,1.62367272,7.707324600000001,0.180507,-1.54623,0.1991,-118.123566,107.099075,-139.195801,60.187684,24.830135,13.493762,11.06615,-1.0,-1.0,100.611595,-0.858753,-2.520499,-0.087231,-1.594304
841497.280045,-4.94840925,1.44704367,7.37007642,0.218483,-1.432127,0.258165,-117.286774,107.973129,-137.92041,60.187684,24.830135,13.493762,11.06615,-1.0,-1.0,100.611595,-0.858753,-2.550877,-0.091528,-1.595274
841497.300032,-4.71728565,0.98974071,8.51594328,0.213076,-1.430547,0.282348,-116.530518,108.472,-136.975601,60.187684,24.830135,13.493762,11.06615,-1.0,-1.0,100.611595,-0.858753,-2.579434,-0.097767,-1.596817
841497.320018,-4.796324820000001,1.05366267,8.66757645,0.228333,-1.393225,0.25181,-116.430374,109.227676,-136.040955,60.187684,24.830135,13.493762,11.06615,-1.0,-1.0,100.611595,-0.858753,-2.608675,-0.104039,-1.599599
841497.340005,-4.60771776,0.9351088200000001,9.09179028,0.169697,-1.41512,0.197733,-115.402542,109.543671,-135.005386,60.187684,24.830135,13.493762,11.06615,-1.0,-1.0,100.611595,-0.858753,-2.636879,-0.110706,-1.601854
841497.359991,-4.55412573,1.33462107,8.74586025,0.152814,-1.429014,0.157211,-114.229736,109.66861,-134.01268,60.187684,24.830135,13.493762,11.06615,-1.0,-1.0,100.611595,-0.858753,-2.6655,-0.115613,-1.603821
841497.379977,-3.7729063800000002,1.75016286,8.62041978,0.156543,-1.401415,0.19299,-113.117584,109.875961,-132.947906,60.187684,24.830135,13.493762,11.06615,-1.0,-1.0,100.611595,-0.858753,-2.694322,-0.11983,-1.605491
841497.399964,-4.004618580000001,1.3882131,9.01230966,0.142253,-1.314418,0.199228,-112.341644,110.315964,-131.547043,60.187684,24.830135,13.493762,11.06615,-1.0,-1.0,100.611595,-0.858753,-2.722829,-0.124018,-1.607456
841497.41995,-3.3464362500000004,0.95067729,10.150240230000001,0.02551,-1.306583,0.197676,-111.260941,110.653076,-130.674957,60.187684,24.830135,13.493762,11.06615,-1.0,-1.0,100.611595,-0.858753,-2.750018,-0.128142,-1.609945
841497.439937,-3.22399764,0.99662733,9.859246200000001,-0.04678,-1.289279,0.177659,-110.125778,110.667053,-129.555038,60.187684,24.830135,13.493762,11.06615,-1.0,-1.0,100.611595,-0.858753,-2.7766,-0.130618,-1.613243
841497.459923,-3.0689211600000004,1.4400099000000002,9.269773110000001,-0.030456,-1.223712,0.190574,-109.225357,110.539246,-128.523773,60.187684,24.830135,13.493762,11.06615,-1.0,-1.0,100.611595,-0.858753,-2.803083,-0.131089,-1.616904
841497.499896,-2.5101337500000005,1.5293691900000002,9.72273024,-0.020645,-1.106069,0.184833,-107.873627,111.031784,-126.860336,60.187684,24.830135,13.493762,11.06615,-1.0,-1.0,100.611595,-0.858753,-2.852308,-0.132146,-1.624201
841497.499896,-2.5101337500000005,1.5293691900000002,9.72273024,-0.020645,-1.106069,0.184833,-107.873627,111.031784,-126.860336,60.187684,24.830135,13.493762,11.06615,-1.0,-1.0,100.611595,-0.858753,-2.852308,-0.132146,-1.624201
841497.539869,-2.0249900100000002,1.3042395000000002,9.901311480000002,-0.096601,-1.021364,0.214007,-107.697021,111.481384,-126.36142,60.187684,24.830135,13.493762,11.06615,-1.0,-1.0,100.611595,-0.858753,-2.897244,-0.132736,-1.631674
841497.539869,-2.0249900100000002,1.3042395000000002,9.901311480000002,-0.096601,-1.021364,0.214007,-107.697021,111.481384,-126.36142,60.187684,24.830135,13.493762,11.06615,-1.0,-1.0,100.611595,-0.858753,-2.897244,-0.132736,-1.631674
841497.579842,-1.6317561600000001,1.4046742800000003,10.00504242,-0.090272,-0.791016,0.301382,-108.273895,111.98703,-125.544769,60.187684,24.830135,13.493762,11.06615,-1.0,-1.0,100.611595,-0.858753,-2.937987,-0.131133,-1.641254
841497.579842,-1.6317561600000001,1.4046742800000003,10.00504242,-0.090272,-0.791016,0.301382,-108.273895,111.98703,-125.544769,60.187684,24.830135,13.493762,11.06615,-1.0,-1.0,100.611595,-0.858753,-2.937987,-0.131133,-1.641254
841497.619815,-0.70039476,1.3796784,9.65492352,-0.111642,-0.686561,0.432921,-107.038651,109.725357,-125.708878,60.187684,24.830135,13.493762,11.06615,-1.0,-1.0,100.611595,-0.858753,-2.970526,-0.129435,-1.654463
841497.639801,-0.84319893,1.76093424,9.5065767,-0.099343,-0.650102,0.470076,-103.61235,109.148071,-124.488632,60.187684,24.830135,13.493762,11.06615,-1.0,-1.0,100.611595,-0.858753,-2.985125,-0.128364,-1.663045
841497.659788,-4.47943239,0.01961019,13.46195889,-0.471625,-0.349817,0.225014,-103.040085,112.002884,-122.717804,60.187684,24.830135,13.493762,11.06615,-1.0,-1.0,100.611595,-0.858753,-2.999456,-0.127566,-1.672376
841497.679774,-0.51059088,3.36784167,9.83320065,-0.453966,-0.558075,0.263125,-104.488785,111.796921,-122.416183,60.187684,24.830135,13.493762,11.06615,-1.0,-1.0,100.611595,-0.858753,-3.007658,-0.122122,-1.678914
841497.69976,-1.84416228,1.37115351,11.128159890000001,-0.315078,-0.429822,0.260451,-105.919708,109.236465,-122.671738,60.187684,24.830135,13.493762,11.06615,-1.0,-1.0,100.611595,-0.858753,-3.02143,-0.108156,-1.6853
841497.719747,-1.1539503,1.08239616,8.91920295,-0.218186,-0.392638,0.043047,-103.369644,107.672684,-122.172394,60.187684,24.830135,13.493762,11.06615,-1.0,-1.0,100.611595,-0.858753,-3.025163,-0.106373,-1.691062
841497.739733,-0.8072747100000001,-0.0015009300000000001,11.49205203,-0.397122,-0.562529,-0.123493,-99.68428,108.368881,-119.908325,60.187684,24.830135,13.493762,11.06615,-1.0,-1.0,100.611595,-0.858753,-3.034081,-0.098633,-1.693932
841497.75972,-0.71281422,1.8826371000000002,9.122632920000001,-0.238344,-0.487107,-0.11386,-98.682831,109.014832,-119.421082,60.187684,24.830135,13.493762,11.06615,-1.0,-1.0,100.611595,-0.858753,-3.042854,-0.092737,-1.693148
841497.779705,-2.03097411,0.91758816,9.17202627,-0.216866,-0.33507,-0.129966,-99.472397,110.108292,-118.845993,60.187684,24.830135,13.493762,11.06615,-1.0,-1.0,100.611595,-0.858753,-3.052312,-0.086951,-1.690941
841497.799693,-0.8928963900000001,1.54658574,8.53615188,-0.147923,-0.24542,-0.086695,-101.739182,110.156067,-119.60907,60.187684,24.830135,13.493762,11.06615,-1.0,-1.0,100.611595,-0.858753,-3.059445,-0.08245,-1.688682
841497.819679,-1.0493168400000001,1.06937829,11.45493099,-0.254441,-0.452871,-0.113646,-104.091858,109.058762,-119.37001,60.187684,24.830135,13.493762,11.06615,-1.0,-1.0,100.611595,-0.858753,-3.066112,-0.078188,-1.686853
841497.839665,-0.7280883899999999,0.40280841,9.82676529,-0.292895,-0.527864,-0.131842,-103.998199,107.008972,-119.988007,60.187684,24.830135,13.493762,11.06615,-1.0,-1.0,100.611595,-0.858753,-3.074026,-0.073158,-1.684953
841497.859652,-0.49591512000000004,0.52315749,8.71337934,-0.300996,-0.526254,-0.134682,-101.434067,105.70224,-119.499207,60.187684,24.830135,13.493762,11.06615,-1.0,-1.0,100.611595,-0.858753,-3.082825,-0.067834,-1.682789
841497.879638,-0.5321434500000001,0.49007817000000004,9.951460200000001,-0.340157,-0.627998,-0.130101,-98.553345,105.173325,-118.316666,60.187684,24.830135,13.493762,11.06615,-1.0,-1.0,100.611595,-0.858753,-3.093366,-0.061669,-1.680353
841497.899625,-0.35730963,0.44068482,9.866731230000001,-0.362,-0.694275,-0.087809,-96.763748,106.141953,-116.907944,60.187684,24.830135,13.493762,11.06615,-1.0,-1.0,100.611595,-0.858753,-3.105807,-0.054754,-1.677843
841497.919611,-0.24249339000000003,0.45984375,9.41212602,-0.350442,-0.678433,-0.030606,-96.366577,107.197052,-115.537369,60.187684,24.830135,13.493762,11.06615,-1.0,-1.0,100.611771,-0.874607,-3.119438,-0.047506,-1.676006
841497.939598,-0.29249496,0.54546543,9.67288563,-0.32889,-0.630907,-0.005349,-96.993637,107.627136,-114.868347,60.187684,24.830135,13.493762,11.06615,-1.0,-1.0,100.611771,-0.874607,-3.133351,-0.040318,-1.67507
841497.959584,-0.76131486,0.36479466,9.55971747,-0.271147,-0.576666,-0.039929,-97.735626,107.725296,-114.067245,60.187684,24.830135,13.493762,11.06615,-1.0,-1.0,100.611771,-0.874607,3.13685,-0.033642,-1.674838
841497.979571,-2.4816847500000003,1.31830704,12.30141627,-0.031947,-0.116221,-0.084519,-99.330505,106.901779,-114.896118,60.187684,24.830135,13.493762,11.06615,-1.0,-1.0,100.611771,-0.874607,3.126409,-0.028546,-1.673849
841497.999556,0.16645608,-0.44951382000000006,11.94770691,-0.109315,-0.40538,-0.336258,-100.881805,105.491486,-115.979507,60.187684,24.830135,13.493762,11.06615,-1.0,-1.0,100.611771,-0.874607,3.128188,-0.029211,-1.672162
841498.019543,2.19652767,0.26030835,7.94532501,-0.039882,-0.122385,-0.032128,-100.709503,104.264175,-116.265366,60.187684,24.830135,13.493762,11.06615,-1.0,-1.0,100.611771,-0.874607,3.127797,-0.02901,-1.666785
841498.039529,0.32991030000000005,-0.41268708000000004,7.74908577,-0.03932,-0.095393,-0.022454,-99.280853,103.725464,-116.230576,60.187684,24.830135,13.493762,11.06615,-1.0,-1.0,100.611771,-0.874607,3.127925,-0.028985,-1.665037
841498.059515,-0.6191091000000001,0.06840513000000001,7.606732860000001,0.008358,0.029327,-0.037971,-98.046768,103.420746,-116.222733,60.187684,24.830135,13.493762,11.06615,-1.0,-1.0,100.611771,-0.874607,3.128245,-0.029163,-1.66439
841498.079502,0.008534700000000001,0.17094906,9.1795113,0.015656,0.009566,-0.075,-96.607025,103.575333,-115.902954,60.187684,24.830135,13.493762,11.06615,-1.0,-1.0,100.611771,-0.874607,3.128414,-0.029285,-1.663714
841498.099488,-0.31629402,0.15387966,10.085278409999999,0.001252,0.009009,-0.110999,-96.328613,103.43457,-116.087158,60.187684,24.830135,13.493762,11.06615,-1.0,-1.0,100.611771,-0.874607,3.12829,-0.029332,-1.662379
841498.119475,0.41777847,0.38319822000000003,9.671983110000001,0.024471,-0.031978,-0.095161,-96.190216,103.503403,-116.16626,60.187684,24.830135,13.493762,11.06615,-1.0,-1.0,100.611771,-0.874607,3.128222,-0.02941,-1.660233
841498.139461,0.16091343000000002,0.01946304,10.03184334,0.002817,-0.019476,-0.09254,-96.170044,103.664825,-115.838989,60.187684,24.830135,13.493762,11.06615,-1.0,-1.0,100.611771,-0.874607,3.128056,-0.029692,-1.658161
841498.179434,0.17258733,0.24519114,9.755368110000001,-0.000764,-0.018984,-0.096213,-95.921738,104.736679,-116.22731,60.187684,24.830135,13.493762,11.06615,-1.0,-1.0,100.611771,-0.874607,3.12788,-0.029977,-1.654481
841498.179434,0.17258733,0.24519114,9.755368110000001,-0.000764,-0.018984,-0.096213,-95.921738,104.736679,-116.22731,60.187684,24.830135,13.493762,11.06615,-1.0,-1.0,100.611771,-0.874607,3.12788,-0.029977,-1.654481
841498.219407,0.07679268,0.35999757000000004,9.831101310000001,0.000664,-0.006549,-0.133559,-95.837234,105.104065,-116.117096,60.187684,24.830135,13.493762,11.06615,-1.0,-1.0,100.611771,-0.874607,3.12789,-0.030063,-1.650258
841498.219407,0.07679268,0.35999757000000004,9.831101310000001,0.000664,-0.006549,-0.133559,-95.837234,105.104065,-116.117096,60.187684,24.830135,13.493762,11.06615,-1.0,-1.0,100.611771,-0.874607,3.12789,-0.030063,-1.650258
841498.25938,0.030685680000000003,0.15163317,9.79562835,0.001712,-0.008166,-0.113986,-95.792099,105.585968,-115.503036,60.187684,24.830135,13.493762,11.06615,-1.0,-1.0,100.611771,-0.874607,3.127733,-0.030195,-1.644993
841498.25938,0.030685680000000003,0.15163317,9.79562835,0.001712,-0.008166,-0.113986,-95.792099,105.585968,-115.503036,60.187684,24.830135,13.493762,11.06615,-1.0,-1.0,100.611771,-0.874607,3.127733,-0.030195,-1.644993
841498.299353,-0.00688662,0.42616602000000003,9.80581113,0.003255,-0.000403,-0.109929,-95.443909,106.145584,-115.006332,60.187684,24.830135,13.493762,11.06615,-1.0,-1.0,100.611771,-0.874607,3.127564,-0.0303,-1.640292
841498.319339,0.0868185,0.40131729000000005,9.846826740000001,-0.000802,-0.009533,-0.108321,-95.390991,106.525528,-115.019379,60.187684,24.830135,13.493762,11.06615,-1.0,-1.0,100.611771,-0.874607,3.127583,-0.030336,-1.637975
841498.339326,0.05403348,0.40325967,9.743988510000001,0.000316,-0.009362,-0.104058,-95.856491,106.669861,-114.847488,60.187684,24.830135,13.493762,11.06615,-1.0,-1.0,100.611771,-0.874607,3.12755,-0.030339,-1.635738
841498.339326,0.05403348,0.40325967,9.743988510000001,0.000316,-0.009362,-0.104058,-95.856491,106.669861,-114.847488,60.187684,24.830135,13.493762,11.06615,-1.0,-1.0,100.611771,-0.874607,3.12755,-0.030339,-1.635738
841498.379299,0.09011466,0.44307846,9.77467419,-0.003319,-0.00953,-0.141006,-97.194,106.421127,-115.333435,60.187684,24.830135,13.493762,11.06615,-1.0,-1.0,100.611771,-0.874607,3.127426,-0.030384,-1.631252
841498.399285,0.12544047,0.40086603,9.65148021,0.000252,-0.001641,-0.152134,-97.986649,106.514725,-115.436478,60.187684,24.830135,13.493762,11.06615,-1.0,-1.0,100.611771,-0.874607,3.127357,-0.030374,-1.628477
841498.419272,0.1272357,0.21061089,9.83470158,0.003968,-0.011954,-0.120265,-99.612076,106.448807,-115.819183,60.187684,24.830135,13.493762,11.06615,-1.0,-1.0,100.611771,-0.874607,3.127273,-0.030383,-1.625403
841498.419272,0.1272357,0.21061089,9.83470158,0.003968,-0.011954,-0.120265,-99.612076,106.448807,-115.819183,60.187684,24.830135,13.493762,11.06615,-1.0,-1.0,100.611771,-0.874607,3.127273,-0.030383,-1.625403
841498.419272,0.1272357,0.21061089,9.83470158,0.003968,-0.011954,-0.120265,-99.612076,106.448807,-115.819183,60.187684,24.830135,13.493762,11.06615,-1.0,-1.0,100.611771,-0.874607,3.127273,-0.030383,-1.625403
841498.479231,-0.15538058999999999,0.14534496,9.775871010000001,0.002853,-0.009913,-0.029525,-102.999893,105.6698,-116.260544,60.187684,24.830135,13.493762,11.06615,-1.0,-1.0,100.611771,-0.874607,3.127068,-0.030508,-1.619977
841498.499217,-0.008829,0.14340258,9.73066653,0.002608,-0.00385,-0.025234,-103.398392,105.141769,-116.419312,60.187684,24.830135,13.493762,11.06615,-1.0,-1.0,100.611771,-0.874607,3.12703,-0.03055,-1.619302
841498.519204,0.09924777,0.08532738,9.699529590000001,0.006912,-0.003779,-0.002234,-103.331284,104.628525,-116.433487,60.187684,24.830135,13.493762,11.06615,-1.0,-1.0,100.611771,-0.874607,3.127012,-0.03062,-1.618695
841498.53919,0.07993188000000001,-0.03023442,9.780511140000002,0.004074,-0.000193,0.017534,-103.181229,104.329849,-116.415512,60.187684,24.830135,13.493762,11.06615,-1.0,-1.0,100.611771,-0.874607,3.127025,-0.030677,-1.61844
841498.559177,0.12259557,-0.11900511,9.74518533,-0.001353,-0.009076,0.01556,-103.069489,104.106949,-116.579132,60.187684,24.830135,13.493762,11.06615,-1.0,-1.0,100.611771,-0.874607,3.126988,-0.030715,-1.618624
841498.579163,-0.00074556,-0.01392039,9.76733631,0.005334,0.002203,0.002461,-102.898499,104.015152,-116.861969,60.187684,24.830135,13.493762,11.06615,-1.0,-1.0,100.611771,-0.874607,3.126777,-0.030657,-1.618871
841498.59915,0.16181595000000001,0.07663572,9.813139200000002,0.002185,-0.000856,0.000148,-103.044083,104.336105,-116.702927,60.187684,24.830135,13.493762,11.06615,-1.0,-1.0,100.611771,-0.874607,3.126639,-0.030638,-1.618926
841498.619136,0.06017454,0.17917965,9.73635633,0.004131,0.000523,0.004813,-103.197296,104.675827,-116.409088,60.187684,24.830135,13.493762,11.06615,-1.0,-1.0,100.611771,-0.874607,3.126585,-0.030669,-1.618893
841498.639123,0.08502327,0.21943989,9.72976401,0.004147,0.002274,0.006644,-102.85405,105.382904,-116.20108,60.187684,24.830135,13.493762,11.06615,-1.0,-1.0,100.611771,-0.874607,3.126566,-0.030701,-1.618907
841498.659109,0.060321690000000004,0.18576216000000004,9.76135221,0.001669,0.002146,0.00724,-102.736969,105.695312,-116.308136,60.187684,24.830135,13.493762,11.06615,-1.0,-1.0,100.611771,-0.874607,3.126573,-0.030736,-1.618955
841498.679096,0.05583852,0.24504399000000002,9.74997261,0.001743,0.003271,0.002213,-102.360764,106.185532,-116.200485,60.187684,24.830135,13.493762,11.06615,-1.0,-1.0,100.611771,-0.874607,3.126598,-0.030732,-1.619021
841498.699082,0.07364367000000001,0.32527017,9.727674480000001,-0.000537,0.006078,-8.2e-05,-101.424606,106.567062,-116.008865,60.187684,24.830135,13.493762,11.06615,-1.0,-1.0,100.611771,-0.874607,3.126634,-0.030724,-1.618999
841498.719069,0.15208443,0.32841918000000003,9.68291145,0.004717,0.001473,0.00789,-100.415497,106.869614,-115.535812,60.187684,24.830135,13.493762,11.06615,-1.0,-1.0,100.611771,-0.874607,3.126702,-0.03069,-1.618922
841498.739055,0.02110131,0.30206952000000004,9.7784118,0.003922,0.010849,-1.4e-05,-99.627197,106.925644,-115.444809,60.187684,24.830135,13.493762,11.06615,-1.0,-1.0,100.611771,-0.874607,3.126715,-0.030691,-1.618947
841498.759042,0.051796800000000004,0.31838355,9.77766624,0.005242,0.008426,0.001993,-98.198166,106.861176,-115.491379,60.187684,24.830135,13.493762,11.06615,-1.0,-1.0,100.611771,-0.874607,3.126765,-0.030704,-1.618912
841498.779028,0.11420802000000001,0.27138384000000004,9.82107549,0.003723,0.00289,0.004776,-97.457809,106.72229,-115.802689,60.187684,24.830135,13.493762,11.06615,-1.0,-1.0,100.611771,-0.874607,3.126763,-0.03072,-1.618858
841498.799014,0.06392196,0.27617112,9.807007950000001,0.001988,0.00065,0.003988,-96.75531,106.441971,-115.561325,60.187684,24.830135,13.493762,11.06615,-1.0,-1.0,100.611771,-0.874607,3.126754,-0.03071,-1.618835
841498.819001,0.07439904,0.28546119000000003,9.767189160000001,0.004403,0.001771,0.007659,-95.788925,106.35437,-115.511887,60.187684,24.830135,13.493762,11.06615,-1.0,-1.0,100.611771,-0.874607,3.126756,-0.030725,-1.618835
841498.858974,0.08038314,0.28546119000000003,9.77601816,0.004313,0.000183,0.004136,-95.138779,105.100388,-116.162552,60.187684,24.830135,13.493762,11.06615,-1.0,-1.0,100.611771,-0.874607,3.126849,-0.030757,-1.618866
841498.87896,0.07035732,0.30117681,9.78844743,0.007043,0.001637,0.004952,-95.1698,104.512985,-116.16066,60.187684,24.830135,13.493762,11.06615,-1.0,-1.0,100.611771,-0.874607,3.126883,-0.0308,-1.618876
841498.898947,0.07858791000000001,0.29578131,9.7869465,0.003257,0.001602,0.003351,-95.354401,103.887405,-116.661285,60.187684,24.830135,13.493762,11.06615,-1.0,-1.0,100.611771,-0.874607,3.126938,-0.030843,-1.618891
841498.898947,0.07858791000000001,0.29578131,9.7869465,0.003257,0.001602,0.003351,-95.354401,103.887405,-116.661285,60.187684,24.830135,13.493762,11.06615,-1.0,-1.0,100.611771,-0.874607,3.126938,-0.030843,-1.618891
841498.93892,0.0811287,0.33006726000000003,9.760155390000001,0.00596,0.002911,0.006937,-96.8228,102.927063,-116.621826,60.187684,24.830135,13.493762,11.06615,-1.0,-1.0,100.611771,-0.874607,3.127049,-0.030924,-1.618876
841498.958906,0.07079877000000001,0.34488036,9.7664436,0.002512,0.003577,0.004138,-96.8228,102.927063,-116.621826,60.187684,24.830135,13.493762,11.06615,-1.0,-1.0,100.611771,-0.874607,3.127091,-0.030981,-1.618893
841498.978893,0.05403348,0.37541889,9.69458535,0.005586,0.001372,0.002412,-97.612152,102.954117,-116.400391,60.187684,24.830135,13.493762,11.06615,-1.0,-1.0,100.611771,-0.874607,3.127128,-0.031031,-1.618923
841498.998879,0.08232552,0.36838512000000007,9.728115930000001,0.003135,0.000707,0.00132,-98.335526,102.931747,-116.443344,60.187684,24.830135,13.493762,11.06615,-1.0,-1.0,100.612213,-0.911598,3.127151,-0.031065,-1.618882
841499.018866,0.07679268,0.38993769,9.705366540000002,0.00277,0.005447,0.003156,-99.181519,102.954315,-116.354767,60.187684,24.830135,13.493762,11.06615,-1.0,-1.0,100.612213,-0.911598,3.127176,-0.031084,-1.618849
841499.018866,0.07679268,0.38993769,9.705366540000002,0.00277,0.005447,0.003156,-99.181519,102.954315,-116.354767,60.187684,24.830135,13.493762,11.06615,-1.0,-1.0,100.612213,-0.911598,3.127176,-0.031084,-1.618849
841499.058839,0.07095573000000001,0.38560167000000006,9.76733631,0.003773,0.004666,0.002068,-100.141907,103.449936,-116.336197,60.187684,24.830135,13.493762,11.066261,-1.0,-1.0,100.612213,-0.911598,3.127221,-0.031123,-1.618803
841499.078825,0.08756406,0.40206285,9.74308599,0.005158,0.00215,0.003452,-100.492325,103.777863,-116.13501,60.187684,24.830135,13.493762,11.066261,-1.0,-1.0,100.612213,-0.911598,3.12725,-0.031139,-1.618769
841499.098812,0.06122421,0.41449212,9.75102228,0.003995,0.002661,0.002043,-100.548126,104.110062,-116.185349,60.187684,24.830135,13.493762,11.066261,-1.0,-1.0,100.612213,-0.911598,3.127257,-0.031155,-1.618748
841499.118798,0.08576883000000002,0.41059755000000003,9.791292330000001,0.001678,0.00117,0.003953,-100.618591,104.28447,-116.455124,60.187684,24.830135,13.493762,11.066261,-1.0,-1.0,100.612213,-0.911598,3.127253,-0.031169,-1.618732
841499.138785,0.07858791000000001,0.40505490000000005,9.76628664,0.003978,0.002674,0.004332,-100.61467,104.698837,-115.813919,60.187684,24.830135,13.493762,11.066261,-1.0,-1.0,100.612213,-0.911598,3.12725,-0.031167,-1.618724
841499.158771,0.07844076,0.42391953000000004,9.743537250000001,0.000703,0.004531,0.003724,-100.729874,104.581223,-115.680054,60.187684,24.830135,13.493762,11.066261,-1.0,-1.0,100.612213,-0.911598,3.127259,-0.031163,-1.618724
841499.178757,0.07768539,0.38993769,9.7784118,0.003037,0.001605,0.003466,-100.733688,104.551559,-115.90979,60.187684,24.830135,13.493762,11.066261,-1.0,-1.0,100.612213,-0.911598,3.127265,-0.031167,-1.61872
841499.198744,0.08517042000000001,0.38964339,9.78201207,0.000791,0.002313,0.00385,-100.777725,104.594589,-115.792511,60.187684,24.830135,13.493762,11.066261,-1.0,-1.0,100.612213,-0.911598,3.127266,-0.03116,-1.618714
841499.21873,0.0691605,0.38125584000000007,9.74593089,0.001861,0.001735,0.00451,-100.752243,104.491257,-115.987244,60.187684,24.830135,13.493762,11.066261,-1.0,-1.0,100.612213,-0.911598,3.127281,-0.031163,-1.618718
841499.238717,0.07933347,0.36374499000000005,9.76764042,0.002998,0.003584,0.004105,-100.655029,104.327515,-115.69278,60.187684,24.830135,13.493762,11.066261,-1.0,-1.0,100.612213,-0.911598,3.12729,-0.031183,-1.618708
841499.258703,0.09684432000000001,0.32751666,9.775419750000001,0.001865,0.0021,0.003572,-100.518448,104.085205,-115.945847,60.187684,24.830135,13.493762,11.066261,-1.0,-1.0,100.612213,-0.911598,3.127305,-0.031182,-1.618705
841499.27869,0.08382645000000001,0.31703958,9.7667379,0.004059,0.002413,0.005564,-100.354919,103.955597,-115.784378,60.187684,24.830135,13.493762,11.066261,-1.0,-1.0,100.612213,-0.911598,3.127311,-0.031186,-1.618701
841499.298676,0.0691605,0.30850488,9.740241090000001,0.002648,0.001766,0.005424,-100.095062,103.701935,-115.769699,60.187684,24.830135,13.493762,11.066261,-1.0,-1.0,100.612213,-0.911598,3.127316,-0.031176,-1.618719
841499.318663,0.08397360000000001,0.29443734,9.76090095,0.003241,0.002741,0.004665,-100.040344,103.373093,-115.960953,60.187684,24.830135,13.493762,11.066261,-1.0,-1.0,100.612213,-0.911598,3.127297,-0.031168,-1.618726
841499.338649,0.06301944000000001,0.29623257000000003,9.74533248,0.003959,0.000598,0.005356,-99.530884,103.578262,-116.152481,60.187684,24.830135,13.493762,11.066261,-1.0,-1.0,100.612213,-0.911598,3.127295,-0.031177,-1.618717
841499.338649,0.06301944000000001,0.29623257000000003,9.74533248,0.003959,0.000598,0.005356,-99.530884,103.578262,-116.152481,60.187684,24.830135,13.493762,11.066261,-1.0,-1.0,100.612213,-0.911598,3.127295,-0.031177,-1.618717
841499.338649,0.06301944000000001,0.29623257000000003,9.74533248,0.003959,0.000598,0.005356,-99.530884,103.578262,-116.152481,60.187684,24.830135,13.493762,11.066261,-1.0,-1.0,100.612213,-0.911598,3.127295,-0.031177,-1.618717
841499.398609,0.08592579,0.27078543,9.75700638,0.00365,0.001842,0.003013,-99.072372,103.059814,-116.639282,60.187684,24.830135,13.493762,11.066261,-1.0,-1.0,100.612213,-0.911598,3.127291,-0.031157,-1.618723
841499.418595,0.08741691000000001,0.27153099,9.77797035,0.001981,0.003256,0.00379,-98.573868,103.101562,-116.226517,60.187684,24.830135,13.493762,11.066261,-1.0,-1.0,100.612213,-0.911598,3.127294,-0.031151,-1.618714
841499.458568,0.07724394000000001,0.27108954,9.75431844,0.001683,0.004552,0.004291,-98.421539,103.2556,-116.666519,60.187684,24.830135,13.493762,11.066261,-1.0,-1.0,100.612213,-0.911598,3.12729,-0.03112,-1.61871
841499.458568,0.07724394000000001,0.27108954,9.75431844,0.001683,0.004552,0.004291,-98.421539,103.2556,-116.666519,60.187684,24.830135,13.493762,11.066261,-1.0,-1.0,100.612213,-0.911598,3.12729,-0.03112,-1.61871
841499.498541,0.07933347,0.26794053,9.76300029,0.002063,0.002494,0.004303,-98.643539,103.033035,-116.516342,60.187684,24.830135,13.493762,11.066261,-1.0,-1.0,100.612213,-0.911598,3.127307,-0.031102,-1.618699
841499.498541,0.07933347,0.26794053,9.76300029,0.002063,0.002494,0.004303,-98.643539,103.033035,-116.516342,60.187684,24.830135,13.493762,11.066261,-1.0,-1.0,100.612213,-0.911598,3.127307,-0.031102,-1.618699
841499.538514,0.08308089000000002,0.27437589,9.7610481,0.004204,0.002328,0.003194,-98.735336,103.192902,-116.444931,60.187684,24.830135,13.493762,11.066261,-1.0,-1.0,100.612213,-0.911598,3.12734,-0.031111,-1.618718
841499.558501,0.06856209,0.27977139,9.77976558,0.002035,0.004078,0.005038,-98.770508,103.127029,-116.415344,60.187684,24.830135,13.493762,11.066261,-1.0,-1.0,100.612213,-0.911598,3.127344,-0.031098,-1.618721
841499.578487,0.07110288000000001,0.2803698,9.74547963,0.005252,0.003446,0.005151,-98.706787,103.11554,-116.730042,60.187684,24.830135,13.493762,11.066261,-1.0,-1.0,100.612213,-0.911598,3.12735,-0.031099,-1.61873
841499.598474,0.07948062,0.30955455000000004,9.740093940000001,0.003343,0.004117,0.002731,-98.734497,103.21431,-116.345963,60.187684,24.830135,13.493762,11.066261,-1.0,-1.0,100.612213,-0.911598,3.127356,-0.031106,-1.618748
841499.61846,0.07529175,0.31134978,9.78889869,0.001226,0.001814,0.004832,-98.783142,103.29509,-116.368134,60.187684,24.830135,13.493762,11.066261,-1.0,-1.0,100.612213,-0.911598,3.12737,-0.031104,-1.618741
841499.638447,0.06526593,0.31449879,9.756113670000001,0.00496,0.001769,0.004614,-98.892731,103.305145,-116.107986,60.187684,24.830135,13.493762,11.066261,-1.0,-1.0,100.612213,-0.911598,3.127364,-0.031099,-1.618749
841499.658433,0.07903917,0.33186249,9.74324295,0.001715,0.00535,0.00498,-98.987366,103.4151,-116.510208,60.187684,24.830135,13.493762,11.066261,-1.0,-1.0,100.612213,-0.911598,3.127379,-0.031105,-1.618747
841499.658433,0.07903917,0.33186249,9.74324295,0.001715,0.00535,0.00498,-98.987366,103.4151,-116.510208,60.187684,24.830135,13.493762,11.066261,-1.0,-1.0,100.612213,-0.911598,3.127379,-0.031105,-1.618747
841499.698406,0.06541308000000001,0.33275520000000003,9.75011976,0.000495,0.001559,0.002844,-98.841873,103.456299,-116.478607,60.187684,24.830135,13.493762,11.066261,-1.0,-1.0,100.612213,-0.911598,3.127399,-0.031083,-1.618721
841499.698406,0.06541308000000001,0.33275520000000003,9.75011976,0.000495,0.001559,0.002844,-98.841873,103.456299,-116.478607,60.187684,24.830135,13.493762,11.066261,-1.0,-1.0,100.612213,-0.911598,3.127399,-0.031083,-1.618721
841499.718393,0.08352234000000001,0.33410898,9.7263207,0.002732,0.003916,0.004228,-99.126556,103.375504,-116.401062,60.187684,24.830135,13.493762,11.066261,-1.0,-1.0,100.612213,-0.911598,3.127411,-0.031074,-1.618724
841499.758366,0.07244685000000001,0.32198382,9.763294590000001,0.002117,0.004593,0.004685,-98.980362,103.623947,-116.318665,60.187684,24.830135,13.493762,11.066261,-1.0,-1.0,100.612213,-0.911598,3.127408,-0.03108,-1.618708
841499.778352,0.08741691000000001,0.32991030000000005,9.739642680000001,0.004688,0.003707,0.004833,-98.937485,103.604462,-115.957062,60.187684,24.830135,13.493762,11.066261,-1.0,-1.0,100.612213,-0.911598,3.127414,-0.031083,-1.618705
841499.798339,0.07199559,0.32033574000000004,9.74248758,0.004032,0.003892,0.003851,-98.956543,103.56311,-116.391815,60.187684,24.830135,13.493762,11.066261,-1.0,-1.0,100.612213,-0.911598,3.127424,-0.031091,-1.618704
841499.818325,0.07529175,0.29189655000000003,9.76419711,0.002162,0.005184,0.005538,-99.021103,103.642151,-116.479858,60.187684,24.830135,13.493762,11.066261,-1.0,-1.0,100.612213,-0.911598,3.127437,-0.031078,-1.618703
841499.838312,0.08023599000000001,0.28919880000000003,9.74308599,0.004416,0.002946,0.005021,-98.988403,103.483795,-116.197006,60.187684,24.830135,13.493762,11.066261,-1.0,-1.0,100.612213,-0.911598,3.127451,-0.031082,-1.618697
841499.858298,0.06856209,0.29563416000000003,9.751169430000001,0.00317,0.003225,0.004087,-98.711044,103.383484,-116.087082,60.187684,24.830135,13.493762,11.066261,-1.0,-1.0,100.612213,-0.911598,3.127456,-0.031084,-1.618706
841499.878285,0.08188407,0.28575549,9.75027672,0.004924,0.004369,0.004457,-98.679321,103.525787,-116.309677,60.187684,24.830135,13.493762,11.066261,-1.0,-1.0,100.612213,-0.911598,3.127449,-0.031086,-1.618697
841499.898271,0.07844076,0.29264211,9.74698056,0.004434,0.003163,0.00296,-98.685013,103.242508,-116.41748,60.187684,24.830135,13.493762,11.066261,-1.0,-1.0,100.612213,-0.911598,3.12745,-0.031091,-1.618691
841499.918258,0.07918631999999999,0.28829628,9.771682140000001,0.002711,0.004421,0.004673,-98.573151,103.386124,-116.33783,60.187684,24.830135,13.493762,11.066261,-1.0,-1.0,100.612213,-0.911598,3.127449,-0.031089,-1.618688
841499.938244,0.07619427,0.28934595,9.751473540000001,0.004757,0.004312,0.004352,-98.661636,103.375977,-115.883362,60.187684,24.830135,13.493762,11.066261,-1.0,-1.0,100.612213,-0.911598,3.127442,-0.031095,-1.61869
841499.958231,0.08382645000000001,0.30266793,9.74219328,0.003972,0.004327,0.003199,-98.532837,103.519608,-115.90802,60.187684,24.830135,13.493762,11.066261,-1.0,-1.0,100.612213,-0.911598,3.12747,-0.031099,-1.618693
841499.978217,0.08457201,0.30761217,9.759409830000001,0.005016,0.003665,0.00378,-98.772995,103.444595,-116.120758,60.187684,24.830135,13.493762,11.066261,-1.0,-1.0,100.612213,-0.911598,3.127477,-0.03111,-1.618698
841499.998204,0.07784234999999999,0.30386475,9.76030254,0.002535,0.00389,0.004629,-98.939713,103.539734,-116.284653,60.187684,24.830135,13.493762,11.066261,-1.0,-1.0,100.612213,-0.911598,3.127484,-0.031119,-1.618696
841500.01819,0.06691401,0.32242527000000004,9.75836016,0.0039,0.003572,0.005612,-98.929413,103.479523,-116.106125,60.187684,24.830135,13.493762,11.066261,-1.0,-1.0,100.612213,-0.911598,3.127498,-0.03111,-1.618698
841500.058163,0.07978473,0.30192237,9.75700638,0.001373,0.004003,0.003955,-98.995941,103.444565,-115.993668,60.187684,24.830135,13.493762,11.066261,-1.0,-1.0,100.612213,-0.911598,3.127495,-0.031125,-1.6187
841500.058163,0.07978473,0.30192237,9.75700638,0.001373,0.004003,0.003955,-98.995941,103.444565,-115.993668,60.187684,24.830135,13.493762,11.066261,-1.0,-1.0,100.612213,-0.911598,3.127495,-0.031125,-1.6187
841500.098136,0.07634142000000001,0.32722236,9.755966520000001,0.004854,0.002279,0.003415,-99.164642,103.322998,-116.133286,60.187684,24.830135,13.493762,11.066261,-1.0,-1.0,100.612816,-0.95916,3.127517,-0.031125,-1.618685
841500.098136,0.07634142000000001,0.32722236,9.755966520000001,0.004854,0.002279,0.003415,-99.164642,103.322998,-116.133286,60.187684,24.830135,13.493762,11.066261,-1.0,-1.0,100.612816,-0.95916,3.127517,-0.031125,-1.618685
841500.138109,0.07304526,0.32527017,9.73979964,0.004312,0.001357,0.003494,-99.156982,103.17244,-116.441986,60.187684,24.830135,13.493762,11.066261,-1.0,-1.0,100.612816,-0.95916,3.127532,-0.031135,-1.618655
841500.138109,0.07304526,0.32527017,9.73979964,0.004312,0.001357,0.003494,-99.156982,103.17244,-116.441986,60.187684,24.830135,13.493762,11.066261,-1.0,-1.0,100.612816,-0.95916,3.127532,-0.031135,-1.618655
841500.178082,0.07693983,0.29129814000000004,9.767787570000001,0.003535,0.002754,0.004644,-99.056549,103.265182,-115.888763,60.187684,24.830135,13.493762,11.066261,-1.0,-1.0,100.612816,-0.95916,3.127568,-0.031136,-1.61864
841500.198069,0.08007903000000001,0.32122845000000005,9.7348554,0.003349,0.001653,0.002156,-98.980743,103.328903,-116.399979,60.187684,24.830135,13.493762,11.066261,-1.0,-1.0,100.612816,-0.95916,3.127602,-0.031143,-1.618644
841500.218055,0.07424208,0.30311919,9.76060665,0.001887,0.003215,0.004474,-99.109955,103.252045,-116.260834,60.187684,24.830135,13.493762,11.066261,-1.0,-1.0,100.612816,-0.95916,3.127619,-0.031138,-1.618641
841500.238042,0.07784234999999999,0.29548701,9.767934720000001,0.003099,0.000149,0.005436,-98.827362,103.177307,-116.167755,60.187684,24.830135,13.493762,11.066261,-1.0,-1.0,100.612816,-0.95916,3.127623,-0.03113,-1.618641
841500.258028,0.07844076,0.31434183000000004,9.74069235,0.002192,0.005015,0.00451,-98.836212,103.241501,-116.518326,60.187684,24.830135,13.493762,11.066261,-1.0,-1.0,100.612816,-0.95916,3.127639,-0.031124,-1.618636
841500.278015,0.07380063,0.29608542000000004,9.7667379,0.00155,0.002437,0.005078,-98.836349,103.178864,-116.419708,60.187684,24.830135,13.493762,11.066261,-1.0,-1.0,100.612816,-0.95916,3.127674,-0.031123,-1.61863
841500.298001,0.08172711,0.29084688000000003,9.76599234,0.003569,0.003289,0.005062,-99.189255,103.206238,-116.504684,60.187684,24.830135,13.493762,11.066261,-1.0,-1.0,100.612816,-0.95916,3.127671,-0.031119,-1.618636
841500.317988,0.08248248000000001,0.31090833,9.7377003,0.002453,0.006121,0.004424,-98.957291,103.157471,-116.517929,60.187684,24.830135,13.493762,11.066261,-1.0,-1.0,100.612816,-0.95916,3.127676,-0.031122,-1.618643
841500.337974,0.07244685000000001,0.30866184,9.767934720000001,0.006414,0.003861,0.004277,-99.250565,103.113358,-116.567276,60.187684,24.830135,13.493762,11.066261,-1.0,-1.0,100.612816,-0.95916,3.127701,-0.031129,-1.618654
841500.357961,0.07079877000000001,0.29878317000000004,9.78110955,0.001933,0.004663,0.004234,-99.146759,103.222473,-116.385345,60.187684,24.830135,13.493762,11.066261,-1.0,-1.0,100.612816,-0.95916,3.127714,-0.031135,-1.618648
841500.377947,0.09729558,0.30835773000000005,9.7607538,0.00254,0.00164,0.003612,-99.009415,103.155899,-116.386276,60.187684,24.830135,13.493762,11.066261,-1.0,-1.0,100.612816,-0.95916,3.127736,-0.031125,-1.618639
841500.397934,0.07978473,0.30402171,9.77960862,0.003952,0.002226,0.00355,-99.009415,103.155899,-116.386276,60.187684,24.830135,13.493762,11.066261,-1.0,-1.0,100.612816,-0.95916,3.12773,-0.031134,-1.618632
841500.41792,0.08217837000000001,0.31404753,9.787093650000001,0.003627,0.005293,0.003704,-98.969315,103.16333,-116.5112,60.187684,24.830135,13.493762,11.066261,-1.0,-1.0,100.612816,-0.95916,3.127748,-0.031133,-1.618623
841500.437907,0.06795387,0.30625839,9.771829290000001,0.00517,0.001702,0.002723,-99.101395,103.1586,-116.091721,60.187684,24.830135,13.493762,11.066261,-1.0,-1.0,100.612816,-0.95916,3.127773,-0.031142,-1.618616
841500.457893,0.07978473,0.3008727,9.76180347,0.004056,0.003253,0.002435,-98.97905,103.055786,-116.161575,60.187684,24.830135,13.493762,11.066261,-1.0,-1.0,100.612816,-0.95916,3.127795,-0.031146,-1.61861
841500.47788,0.08053028999999999,0.30926025,9.77063247,0.003139,0.00337,0.003409,-98.939316,103.263229,-116.657715,60.187684,24.830135,13.493762,11.066261,-1.0,-1.0,100.612816,-0.95916,3.127826,-0.031155,-1.61861
841500.497866,0.07813665,0.31449879,9.77048532,0.004541,0.002206,0.004682,-98.781189,103.219254,-116.368973,60.187684,24.830135,13.493762,11.066261,-1.0,-1.0,100.612816,-0.95916,3.127899,-0.031154,-1.618616
841500.517853,0.09236115,0.30895614000000005,9.771230880000001,0.002614,0.004462,0.003047,-98.910629,103.241623,-116.312256,60.187684,24.830135,13.493762,11.066261,-1.0,-1.0,100.612816,-0.95916,3.127968,-0.031165,-1.618622
841500.537839,0.07260381,0.30775932,9.79802199,0.005694,0.002042,0.003722,-99.130783,103.154984,-116.632858,60.187684,24.830135,13.493762,11.066261,-1.0,-1.0,100.612816,-0.95916,3.128066,-0.031158,-1.618608
841500.557826,0.07918631999999999,0.30551283,9.76613949,0.003261,0.003346,0.003988,-99.047119,103.222015,-116.476303,60.187684,24.830135,13.493762,11.066261,-1.0,-1.0,100.612816,-0.95916,3.128132,-0.031169,-1.618598
